# 2021 01 27 13:29:39
#
# Version: 10 Manufacturer: samsung Make: SM-A515F
#
1611750579000,$PSAMCLK,2142,30419800,22,9731848,432396,304198000*4F

1611750579000,$GPGGA,122940.000,4540.3706,N,01156.0202,E,1,22,0.4,44.4,M,47.1,M,,*66

1611750579000,$PSAMSA,122940.000,4540.3706,N,01156.0202,E,0,M,,*61

1611750579000,$GPGLL,4540.3706,N,01156.0202,E,122940.000,A,A*51

1611750579000,$GPVTG,359.5,T,,M,0.2,N,0.3,K,A*06

1611750579000,$GPGSV,3,1,11,10,14,318,32,12,25,223,32,13,49,148,37,14,23,051,35*72

1611750579000,$GPGSV,3,2,11,15,68,230,45,17,38,089,36,19,34,120,37,20,19,284,39*7D

1611750579000,$GPGSV,3,3,11,23,24,287,41,24,54,293,45,28,32,050,35*40

1611750579000,$GLGSV,2,1,05,69,13,333,36,71,44,201,33,72,55,292,46,78,51,277,43*6D

1611750579000,$GLGSV,2,2,05,87,13,110,34*5A

1611750579000,$GAGSV,2,1,06,103,31,310,35,105,66,237,40,109,31,166,34,124,86,313,37*6F

1611750579000,$GAGSV,2,2,06,125,32,240,44,131,37,055,33*68

1611750579000,$BDGSV,3,1,09,210,20,052,16,219,40,225,45,220,09,181,21,222,35,295,36*65

1611750579000,$BDGSV,3,2,09,227,21,112,38,228,20,058,32,230,02,159,17,236,41,269,48*60

1611750579000,$BDGSV,3,3,09,237,24,073,37*61

1611750579000,$GPGSA,A,3,15,24,13,17,19,28,12,23,14,20,10,,1.0,0.4,0.8*3F

1611750579000,$GAGSA,A,3,103,105,109,124,125,131,,,,,,,1.0,0.4,0.8*22

1611750579000,$BDGSA,A,3,219,220,222,227,228,,,,,,,,1.0,0.4,0.8*19

1611750579000,$GPRMC,122940.000,A,4540.3706,N,01156.0202,E,0.2,359.5,270121,,,A*69

1611750579000,$PSAMCLK,2142,30419800,22,9731848,432396,304198000*4F

1611750580000,$PSAMCLK,2142,30419900,22,9731899,494169,304199000*4D

1611750580000,$GPGGA,122941.000,4540.3707,N,01156.0199,E,1,22,0.4,44.7,M,47.1,M,,*64

1611750580000,$PSAMSA,122941.000,4540.3707,N,01156.0199,E,0,M,,*60

1611750580000,$GPGLL,4540.3707,N,01156.0199,E,122941.000,A,A*50

1611750580000,$GPVTG,0.9,T,,M,0.6,N,1.0,K,A*03

1611750580000,$GPGSV,3,1,11,10,14,318,32,12,25,223,32,13,49,148,37,14,23,051,35*72

1611750580000,$GPGSV,3,2,11,15,68,230,45,17,38,089,36,19,34,120,37,20,19,284,38*7C

1611750580000,$GPGSV,3,3,11,23,24,287,41,24,54,293,45,28,32,050,35*40

1611750580000,$GLGSV,2,1,05,69,13,333,36,71,44,201,32,72,55,292,46,78,51,277,45*6A

1611750580000,$GLGSV,2,2,05,87,13,110,34*5A

1611750580000,$GAGSV,2,1,06,103,31,310,35,105,66,237,40,109,31,166,35,124,86,313,37*6E

1611750580000,$GAGSV,2,2,06,125,32,240,44,131,37,055,33*68

1611750580000,$BDGSV,3,1,09,210,20,052,14,219,40,225,45,220,09,181,21,222,35,295,36*67

1611750580000,$BDGSV,3,2,09,227,21,112,38,228,20,058,32,230,02,159,16,236,41,269,48*61

1611750580000,$BDGSV,3,3,09,237,24,073,37*61

1611750580000,$GPGSA,A,3,15,24,13,17,19,28,12,23,14,20,10,,1.0,0.4,0.8*3F

1611750580000,$GAGSA,A,3,103,105,109,124,125,131,,,,,,,1.0,0.4,0.8*22

1611750580000,$BDGSA,A,3,219,220,222,227,228,,,,,,,,1.0,0.4,0.8*19

1611750580000,$GPRMC,122941.000,A,4540.3707,N,01156.0199,E,0.6,0.9,270121,,,A*6F

1611750580000,$PSAMCLK,2142,30419900,22,9731899,494169,304199000*4D

1611750581000,$PSAMCLK,2142,30420000,20,9732018,555942,304200000*40

1611750581000,$GPGGA,122942.000,4540.3707,N,01156.0199,E,1,20,0.4,44.2,M,47.1,M,,*60

1611750581000,$PSAMSA,122942.000,4540.3707,N,01156.0199,E,0,M,,*63

1611750581000,$GPGLL,4540.3707,N,01156.0199,E,122942.000,A,A*53

1611750581000,$GPVTG,1.1,T,,M,0.0,N,0.0,K,A*0D

1611750581000,$GPGSV,3,1,11,10,14,318,32,12,25,223,32,13,49,148,36,14,23,051,34*72

1611750581000,$GPGSV,3,2,11,15,68,230,44,17,38,089,36,19,34,120,43,20,19,284,38*7E

1611750581000,$GPGSV,3,3,11,23,24,287,39,24,54,293,45,28,32,050,35*4F

1611750581000,$GLGSV,2,1,06,69,13,333,36,71,44,201,30,72,55,292,46,78,51,277,44*6A

1611750581000,$GLGSV,2,2,06,80,09,060,27,87,13,110,34*6B

1611750581000,$GAGSV,2,1,06,103,31,310,34,105,66,237,40,109,31,166,35,124,86,313,37*6F

1611750581000,$GAGSV,2,2,06,125,32,240,44,131,37,055,34*6F

1611750581000,$BDGSV,3,1,09,210,20,052,14,219,40,225,45,220,09,181,21,222,35,295,36*67

1611750581000,$BDGSV,3,2,09,227,21,112,38,228,20,058,32,230,02,159,14,236,41,269,47*6C

1611750581000,$BDGSV,3,3,09,237,24,073,37*61

1611750581000,$GPGSA,A,3,15,24,13,17,19,28,12,14,20,10,,,1.0,0.4,1.0*37

1611750581000,$GAGSA,A,3,103,105,109,124,125,131,,,,,,,1.0,0.4,1.0*2B

1611750581000,$BDGSA,A,3,219,220,227,228,,,,,,,,,1.0,0.4,1.0*22

1611750581000,$GPRMC,122942.000,A,4540.3707,N,01156.0199,E,0.0,1.1,270121,,,A*63

1611750581000,$PSAMCLK,2142,30420000,20,9732018,555942,304200000*40

1611750582000,$PSAMCLK,2142,30420100,20,9732054,617717,304201000*43

1611750582000,$GPGGA,122943.000,4540.3707,N,01156.0199,E,1,20,0.4,44.2,M,47.1,M,,*61

1611750582000,$PSAMSA,122943.000,4540.3707,N,01156.0199,E,1,M,,*63

1611750582000,$GPGLL,4540.3707,N,01156.0199,E,122943.000,A,A*52

1611750582000,$GPVTG,0.4,T,,M,0.0,N,0.0,K,A*09

1611750582000,$GPGSV,3,1,11,10,14,318,31,12,25,223,32,13,49,148,36,14,23,051,34*71

1611750582000,$GPGSV,3,2,11,15,68,230,44,17,38,089,36,19,34,120,42,20,19,284,38*7F

1611750582000,$GPGSV,3,3,11,23,24,287,38,24,54,293,44,28,32,050,33*49

1611750582000,$GLGSV,2,1,06,69,13,333,35,71,44,201,29,72,55,292,45,78,51,277,44*62

1611750582000,$GLGSV,2,2,06,80,09,060,26,87,13,110,34*6A

1611750582000,$GAGSV,2,1,06,103,31,310,34,105,66,237,39,109,31,166,34,124,86,313,37*60

1611750582000,$GAGSV,2,2,06,125,32,240,44,131,37,055,34*6F

1611750582000,$BDGSV,3,1,09,210,20,052,13,219,40,225,45,220,09,181,21,222,35,295,34*62

1611750582000,$BDGSV,3,2,09,227,21,112,37,228,20,058,31,230,02,159,13,236,41,269,46*66

1611750582000,$BDGSV,3,3,09,237,24,073,37*61

1611750582000,$GPGSA,A,3,15,24,13,17,19,12,23,14,20,10,,,1.0,0.4,0.8*35

1611750582000,$GAGSA,A,3,103,105,109,124,125,131,,,,,,,1.0,0.4,0.8*22

1611750582000,$BDGSA,A,3,219,220,227,228,,,,,,,,,1.0,0.4,0.8*2B

1611750582000,$GPRMC,122943.000,A,4540.3707,N,01156.0199,E,0.0,0.4,270121,,,A*66

1611750582000,$PSAMCLK,2142,30420100,20,9732054,617717,304201000*43

1611750583000,$PSAMCLK,2142,30420200,17,9732095,679491,304202000*4F

1611750583000,$GPGGA,122944.000,4540.3707,N,01156.0199,E,1,17,0.6,44.2,M,47.1,M,,*60

1611750583000,$PSAMSA,122944.000,4540.3707,N,01156.0199,E,1,M,,*64

1611750583000,$GPGLL,4540.3707,N,01156.0199,E,122944.000,A,A*55

1611750583000,$GPVTG,0.1,T,,M,0.0,N,0.0,K,A*0C

1611750583000,$GPGSV,3,1,11,10,14,318,30,12,25,223,31,13,49,148,37,14,23,051,33*75

1611750583000,$GPGSV,3,2,11,15,68,230,43,17,38,089,35,19,34,120,42,20,19,284,37*74

1611750583000,$GPGSV,3,3,11,23,24,287,37,24,54,293,43,28,32,050,32*40

1611750583000,$GLGSV,2,1,06,69,13,333,35,71,44,201,27,72,55,292,44,78,51,277,43*6A

1611750583000,$GLGSV,2,2,06,80,09,060,26,87,13,110,34*6A

1611750583000,$GAGSV,2,1,06,103,31,310,33,105,66,237,39,109,31,166,34,124,86,313,37*67

1611750583000,$GAGSV,2,2,06,125,32,240,43,131,37,055,33*6F

1611750583000,$BDGSV,3,1,09,210,20,052,12,219,40,225,45,220,09,181,21,222,35,295,33*64

1611750583000,$BDGSV,3,2,09,227,21,112,37,228,20,058,30,230,02,159,13,236,41,269,45*64

1611750583000,$BDGSV,3,3,09,237,24,073,35*63

1611750583000,$GPGSA,A,3,15,24,13,17,19,23,14,20,,,,,1.2,0.6,1.0*3E

1611750583000,$GAGSA,A,3,103,105,109,124,125,,,,,,,,1.2,0.6,1.0*18

1611750583000,$BDGSA,A,3,219,220,227,228,,,,,,,,,1.2,0.6,1.0*22

1611750583000,$GPRMC,122944.000,A,4540.3707,N,01156.0199,E,0.0,0.1,270121,,,A*64

1611750583000,$PSAMCLK,2142,30420200,17,9732095,679491,304202000*4F

1611750584000,$PSAMCLK,2142,30420300,19,9732108,741266,304203000*40

1611750584000,$GPGGA,122945.000,4540.3707,N,01156.0199,E,1,19,0.6,44.2,M,47.1,M,,*6F

1611750584000,$PSAMSA,122945.000,4540.3707,N,01156.0199,E,1,M,,*65

1611750584000,$GPGLL,4540.3707,N,01156.0199,E,122945.000,A,A*54

1611750584000,$GPVTG,359.9,T,,M,0.0,N,0.0,K,A*0B

1611750584000,$GPGSV,3,1,11,10,14,318,29,12,25,223,29,13,49,148,37,14,23,051,32*75

1611750584000,$GPGSV,3,2,11,15,68,230,43,17,38,089,35,19,34,120,42,20,19,284,36*75

1611750584000,$GPGSV,3,3,11,23,24,287,35,24,54,293,43,28,32,050,30*40

1611750584000,$GLGSV,2,1,06,69,13,333,34,71,44,201,26,72,55,292,43,78,51,277,42*6C

1611750584000,$GLGSV,2,2,06,80,09,060,26,87,13,110,34*6A

1611750584000,$GAGSV,2,1,06,103,31,310,33,105,66,237,39,109,31,166,35,124,86,313,37*66

1611750584000,$GAGSV,2,2,06,125,32,240,43,131,37,055,32*6E

1611750584000,$BDGSV,2,1,08,219,40,225,45,220,09,181,21,222,35,295,32,227,21,112,36*63

1611750584000,$BDGSV,2,2,08,228,20,058,29,230,02,159,12,236,41,269,44,237,24,073,34*6D

1611750584000,$GPGSA,A,3,15,24,13,17,19,23,14,20,10,,,,1.0,0.6,1.0*3D

1611750584000,$GAGSA,A,3,103,105,109,124,125,131,,,,,,,1.0,0.6,1.0*29

1611750584000,$BDGSA,A,3,219,220,227,228,,,,,,,,,1.0,0.6,1.0*20

1611750584000,$GPRMC,122945.000,A,4540.3707,N,01156.0199,E,0.0,359.9,270121,,,A*62

1611750584000,$PSAMCLK,2142,30420300,19,9732108,741266,304203000*40

1611750585000,$PSAMCLK,2142,30420400,19,9732099,803040,304204000*46

1611750585000,$GPGGA,122946.000,4540.3707,N,01156.0199,E,1,19,0.6,44.2,M,47.1,M,,*6C

1611750585000,$PSAMSA,122946.000,4540.3707,N,01156.0199,E,1,M,,*66

1611750585000,$GPGLL,4540.3707,N,01156.0199,E,122946.000,A,A*57

1611750585000,$GPVTG,359.8,T,,M,0.0,N,0.0,K,A*0A

1611750585000,$GPGSV,3,1,11,10,14,318,28,12,25,223,28,13,49,148,37,14,23,051,31*76

1611750585000,$GPGSV,3,2,11,15,68,230,43,17,38,089,34,19,34,120,41,20,19,284,36*77

1611750585000,$GPGSV,3,3,11,23,24,287,34,24,54,293,42,28,32,050,29*48

1611750585000,$GLGSV,2,1,06,69,13,333,33,71,44,201,24,72,55,292,42,78,51,277,42*68

1611750585000,$GLGSV,2,2,06,80,09,060,26,87,13,110,34*6A

1611750585000,$GAGSV,2,1,06,103,31,310,32,105,66,237,39,109,31,166,35,124,86,313,37*67

1611750585000,$GAGSV,2,2,06,125,32,240,42,131,37,055,31*6C

1611750585000,$BDGSV,2,1,07,219,40,225,45,220,09,181,21,222,35,295,31,227,21,112,36*6F

1611750585000,$BDGSV,2,2,07,228,20,058,28,236,41,269,44,237,24,073,33*69

1611750585000,$GPGSA,A,3,15,24,13,17,19,23,14,20,10,,,,1.0,0.6,1.0*3D

1611750585000,$GAGSA,A,3,103,105,109,124,125,131,,,,,,,1.0,0.6,1.0*29

1611750585000,$BDGSA,A,3,219,220,227,228,,,,,,,,,1.0,0.6,1.0*20

1611750585000,$GPRMC,122946.000,A,4540.3707,N,01156.0199,E,0.0,359.8,270121,,,A*60

1611750585000,$PSAMCLK,2142,30420400,19,9732099,803040,304204000*46

1611750586000,$PSAMCLK,2142,30420500,19,9732113,864815,304205000*4C

1611750586000,$GPGGA,122947.000,4540.3707,N,01156.0199,E,1,19,0.6,44.2,M,47.1,M,,*6D

1611750586000,$PSAMSA,122947.000,4540.3707,N,01156.0199,E,1,M,,*67

1611750586000,$GPGLL,4540.3707,N,01156.0199,E,122947.000,A,A*56

1611750586000,$GPVTG,359.8,T,,M,0.0,N,0.0,K,A*0A

1611750586000,$GPGSV,3,1,11,10,14,318,28,12,25,223,27,13,49,148,38,14,23,051,30*77

1611750586000,$GPGSV,3,2,11,15,68,230,42,17,38,089,33,19,34,120,41,20,19,284,35*72

1611750586000,$GPGSV,3,3,11,23,24,287,33,24,54,293,41,28,32,050,27*42

1611750586000,$GLGSV,2,1,06,69,13,333,32,71,44,201,23,72,55,292,42,78,51,277,41*6D

1611750586000,$GLGSV,2,2,06,80,09,060,25,87,13,110,33*6E

1611750586000,$GAGSV,2,1,06,103,31,310,32,105,66,237,39,109,31,166,35,124,86,313,37*67

1611750586000,$GAGSV,2,2,06,125,32,240,42,131,37,055,31*6C

1611750586000,$BDGSV,2,1,07,219,40,225,45,220,09,181,21,222,35,295,30,227,21,112,35*6D

1611750586000,$BDGSV,2,2,07,228,20,058,28,236,41,269,43,237,24,073,32*6F

1611750586000,$GPGSA,A,3,15,24,13,17,19,23,14,20,10,,,,1.2,0.6,1.0*3F

1611750586000,$GAGSA,A,3,103,105,109,124,125,131,,,,,,,1.2,0.6,1.0*2B

1611750586000,$BDGSA,A,3,219,220,222,227,,,,,,,,,1.2,0.6,1.0*28

1611750586000,$GPRMC,122947.000,A,4540.3707,N,01156.0199,E,0.0,359.8,270121,,,A*61

1611750586000,$PSAMCLK,2142,30420500,19,9732113,864815,304205000*4C

1611750587000,$PSAMCLK,2142,30420600,20,9732139,926589,304206000*41

1611750587000,$GPGGA,122948.000,4540.3707,N,01156.0199,E,1,20,0.4,44.2,M,47.1,M,,*6A

1611750587000,$PSAMSA,122948.000,4540.3707,N,01156.0199,E,1,M,,*68

1611750587000,$GPGLL,4540.3707,N,01156.0199,E,122948.000,A,A*59

1611750587000,$GPVTG,359.7,T,,M,0.0,N,0.0,K,A*05

1611750587000,$GPGSV,3,1,11,10,14,318,26,12,25,223,27,13,49,148,38,14,23,051,30*79

1611750587000,$GPGSV,3,2,11,15,68,230,42,17,38,089,33,19,34,120,41,20,19,284,35*72

1611750587000,$GPGSV,3,3,11,23,24,287,32,24,54,293,40,28,32,050,26*43

1611750587000,$GLGSV,2,1,06,69,13,333,30,71,44,201,21,72,55,292,41,78,51,277,41*6E

1611750587000,$GLGSV,2,2,06,80,09,060,25,87,13,110,33*6E

1611750587000,$GAGSV,2,1,06,103,31,310,31,105,66,237,39,109,31,166,36,124,86,313,37*67

1611750587000,$GAGSV,2,2,06,125,32,240,41,131,37,055,30*6E

1611750587000,$BDGSV,2,1,07,219,40,225,44,220,09,181,21,222,35,295,30,227,21,112,35*6C

1611750587000,$BDGSV,2,2,07,228,20,058,27,236,41,269,42,237,24,073,31*62

1611750587000,$GPGSA,A,3,15,24,13,17,19,12,23,14,20,,,,1.2,0.4,1.0*3F

1611750587000,$GAGSA,A,3,103,105,109,124,125,131,,,,,,,1.2,0.4,1.0*29

1611750587000,$BDGSA,A,3,219,220,222,227,228,,,,,,,,1.2,0.4,1.0*12

1611750587000,$GPRMC,122948.000,A,4540.3707,N,01156.0199,E,0.0,359.7,270121,,,A*61

1611750587000,$PSAMCLK,2142,30420600,20,9732139,926589,304206000*41

1611750588000,$PSAMCLK,2142,30420700,20,9732162,988364,304207000*4E

1611750588000,$GPGGA,122949.000,4540.3707,N,01156.0199,E,1,20,0.4,44.2,M,47.1,M,,*6B

1611750588000,$PSAMSA,122949.000,4540.3707,N,01156.0199,E,1,M,,*69

1611750588000,$GPGLL,4540.3707,N,01156.0199,E,122949.000,A,A*58

1611750588000,$GPVTG,359.7,T,,M,0.0,N,0.0,K,A*05

1611750588000,$GPGSV,3,1,11,10,14,318,25,12,25,223,27,13,49,148,38,14,23,051,29*72

1611750588000,$GPGSV,3,2,11,15,68,230,42,17,38,089,32,19,34,120,41,20,19,284,34*72

1611750588000,$GPGSV,3,3,11,23,24,287,31,24,54,293,40,28,32,050,24*42

1611750588000,$GLGSV,2,1,06,69,13,333,29,71,44,201,20,72,55,292,40,78,51,277,40*67

1611750588000,$GLGSV,2,2,06,80,09,060,25,87,13,110,33*6E

1611750588000,$GAGSV,2,1,06,103,31,310,31,105,66,237,38,109,31,166,36,124,86,313,37*66

1611750588000,$GAGSV,2,2,06,125,32,240,41,131,37,055,29*66

1611750588000,$BDGSV,2,1,07,219,40,225,44,220,09,181,21,222,35,295,29,227,21,112,34*65

1611750588000,$BDGSV,2,2,07,228,20,058,26,236,41,269,41,237,24,073,30*61

1611750588000,$GPGSA,A,3,15,24,13,17,19,12,23,14,20,,,,1.2,0.4,1.0*3F

1611750588000,$GAGSA,A,3,103,105,109,124,125,131,,,,,,,1.2,0.4,1.0*29

1611750588000,$BDGSA,A,3,219,220,222,227,228,,,,,,,,1.2,0.4,1.0*12

1611750588000,$GPRMC,122949.000,A,4540.3707,N,01156.0199,E,0.0,359.7,270121,,,A*60

1611750588000,$PSAMCLK,2142,30420700,20,9732162,988364,304207000*4E

1611750589000,$PSAMCLK,2142,30420800,19,9732177,1050140,304208000*79

1611750589000,$GPGGA,122950.000,4540.3707,N,01156.0199,E,1,19,0.6,44.2,M,47.1,M,,*6B

1611750589000,$PSAMSA,122950.000,4540.3707,N,01156.0199,E,1,M,,*61

1611750589000,$GPGLL,4540.3707,N,01156.0199,E,122950.000,A,A*50

1611750589000,$GPVTG,359.7,T,,M,0.0,N,0.0,K,A*05

1611750589000,$GPGSV,3,1,11,10,14,318,24,12,25,223,27,13,49,148,38,14,23,051,28*72

1611750589000,$GPGSV,3,2,11,15,68,230,42,17,38,089,32,19,34,120,40,20,19,284,34*73

1611750589000,$GPGSV,3,3,11,23,24,287,31,24,54,293,39,28,32,050,23*4B

1611750589000,$GLGSV,2,1,06,69,13,333,27,71,44,201,18,72,55,292,40,78,51,277,40*62

1611750589000,$GLGSV,2,2,06,80,09,060,24,87,13,110,33*6F

1611750589000,$GAGSV,2,1,06,103,31,310,31,105,66,237,38,109,31,166,36,124,86,313,37*66

1611750589000,$GAGSV,2,2,06,125,32,240,41,131,37,055,29*66

1611750589000,$BDGSV,2,1,07,219,40,225,44,220,09,181,21,222,35,295,29,227,21,112,34*65

1611750589000,$BDGSV,2,2,07,228,20,058,26,236,41,269,41,237,24,073,29*69

1611750589000,$GPGSA,A,3,15,24,13,17,19,12,23,14,20,,,,1.2,0.6,1.0*3D

1611750589000,$GAGSA,A,3,103,105,109,124,125,131,,,,,,,1.2,0.6,1.0*2B

1611750589000,$BDGSA,A,3,219,220,227,228,,,,,,,,,1.2,0.6,1.0*22

1611750589000,$GPRMC,122950.000,A,4540.3707,N,01156.0199,E,0.0,359.7,270121,,,A*68

1611750589000,$PSAMCLK,2142,30420800,19,9732177,1050140,304208000*79

1611750590000,$PSAMCLK,2142,30420900,19,9732176,1111914,304209000*75

1611750590000,$GPGGA,122951.000,4540.3707,N,01156.0199,E,1,19,0.6,44.2,M,47.1,M,,*6A

1611750590000,$PSAMSA,122951.000,4540.3707,N,01156.0199,E,1,M,,*60

1611750590000,$GPGLL,4540.3707,N,01156.0199,E,122951.000,A,A*51

1611750590000,$GPVTG,359.7,T,,M,0.0,N,0.0,K,A*05

1611750590000,$GPGSV,3,1,11,10,14,318,24,12,25,223,26,13,49,148,38,14,23,051,28*73

1611750590000,$GPGSV,3,2,11,15,68,230,42,17,38,089,31,19,34,120,40,20,19,284,33*77

1611750590000,$GPGSV,3,3,11,23,24,287,30,24,54,293,39,28,32,050,21*48

1611750590000,$GLGSV,2,1,06,69,13,333,26,71,43,201,17,72,55,291,39,78,51,277,40*66

1611750590000,$GLGSV,2,2,06,80,09,060,24,87,13,110,33*6F

1611750590000,$GAGSV,2,1,06,103,31,310,30,105,66,237,38,109,31,166,36,124,86,313,37*67

1611750590000,$GAGSV,2,2,06,125,32,240,40,131,37,055,28*66

1611750590000,$BDGSV,2,1,07,219,40,225,44,220,09,181,20,222,35,295,28,227,21,112,34*65

1611750590000,$BDGSV,2,2,07,228,20,058,26,236,41,269,40,237,24,073,29*68

1611750590000,$GPGSA,A,3,15,24,13,17,19,23,14,20,,,,,1.2,0.6,1.0*3E

1611750590000,$GAGSA,A,3,103,105,109,124,125,131,,,,,,,1.2,0.6,1.0*2B

1611750590000,$BDGSA,A,3,219,220,222,227,228,,,,,,,,1.2,0.6,1.0*10

1611750590000,$GPRMC,122951.000,A,4540.3707,N,01156.0199,E,0.0,359.7,270121,,,A*69

1611750590000,$PSAMCLK,2142,30420900,19,9732176,1111914,304209000*75

1611750591000,$PSAMCLK,2142,30421000,20,9732138,1173689,304210000*7A

1611750591000,$GPGGA,122952.000,4540.3707,N,01156.0199,E,1,20,0.4,44.2,M,47.1,M,,*61

1611750591000,$PSAMSA,122952.000,4540.3707,N,01156.0199,E,1,M,,*63

1611750591000,$GPGLL,4540.3707,N,01156.0199,E,122952.000,A,A*52

1611750591000,$GPVTG,359.7,T,,M,0.0,N,0.0,K,A*05

1611750591000,$GPGSV,3,1,11,10,14,318,24,12,25,223,26,13,49,148,39,14,23,051,27*7D

1611750591000,$GPGSV,3,2,11,15,68,230,41,17,38,089,31,19,34,120,40,20,19,284,33*74

1611750591000,$GPGSV,3,3,11,23,24,287,29,24,54,293,38,28,32,050,20*40

1611750591000,$GLGSV,2,1,06,69,13,333,24,71,43,201,15,72,55,291,39,78,51,277,39*68

1611750591000,$GLGSV,2,2,06,80,09,060,24,87,13,110,33*6F

1611750591000,$GAGSV,2,1,06,103,31,310,30,105,66,237,38,109,31,166,36,124,86,313,37*67

1611750591000,$GAGSV,2,2,06,125,32,240,40,131,37,055,28*66

1611750591000,$BDGSV,2,1,07,219,40,225,44,220,09,181,20,222,35,295,28,227,21,112,33*62

1611750591000,$BDGSV,2,2,07,228,20,058,25,236,41,269,40,237,24,073,28*6A

1611750591000,$GPGSA,A,3,15,24,13,17,19,12,23,14,20,10,,,1.0,0.4,1.0*3C

1611750591000,$GAGSA,A,3,103,105,109,124,125,131,,,,,,,1.0,0.4,1.0*2B

1611750591000,$BDGSA,A,3,219,220,222,227,,,,,,,,,1.0,0.4,1.0*28

1611750591000,$GPRMC,122952.000,A,4540.3707,N,01156.0199,E,0.0,359.7,270121,,,A*6A

1611750591000,$PSAMCLK,2142,30421000,20,9732138,1173689,304210000*7A

1611750592000,$PSAMCLK,2142,30421100,20,9732095,1235463,304211000*7B

1611750592000,$GPGGA,122953.000,4540.3707,N,01156.0199,E,1,20,0.4,44.2,M,47.1,M,,*60

1611750592000,$PSAMSA,122953.000,4540.3707,N,01156.0199,E,1,M,,*62

1611750592000,$GPGLL,4540.3707,N,01156.0199,E,122953.000,A,A*53

1611750592000,$GPVTG,359.7,T,,M,0.0,N,0.0,K,A*05

1611750592000,$GPGSV,3,1,11,10,14,318,24,12,25,223,26,13,49,148,39,14,23,051,27*7D

1611750592000,$GPGSV,3,2,11,15,68,230,41,17,38,089,30,19,34,120,40,20,19,284,33*75

1611750592000,$GPGSV,3,3,11,23,24,287,28,24,54,293,38,28,32,050,18*4A

1611750592000,$GLGSV,2,1,06,69,13,333,23,71,43,201,14,72,55,291,38,78,51,277,39*6F

1611750592000,$GLGSV,2,2,06,80,09,060,24,87,13,110,32*6E

1611750592000,$GAGSV,2,1,06,103,31,310,30,105,66,237,38,109,31,166,37,124,86,313,37*66

1611750592000,$GAGSV,2,2,06,125,32,240,40,131,37,055,27*69

1611750592000,$BDGSV,2,1,07,219,40,225,43,220,09,181,20,222,35,295,27,227,21,112,33*6A

1611750592000,$BDGSV,2,2,07,228,20,058,25,236,41,269,39,237,24,073,28*64

1611750592000,$GPGSA,A,3,15,24,13,17,19,12,23,14,20,,,,1.2,0.4,1.0*3F

1611750592000,$GAGSA,A,3,103,105,109,124,125,131,,,,,,,1.2,0.4,1.0*29

1611750592000,$BDGSA,A,3,219,220,222,227,228,,,,,,,,1.2,0.4,1.0*12

1611750592000,$GPRMC,122953.000,A,4540.3707,N,01156.0199,E,0.0,359.7,270121,,,A*6B

1611750592000,$PSAMCLK,2142,30421100,20,9732095,1235463,304211000*7B

1611750593000,$PSAMCLK,2142,30421200,19,9732091,1297237,304212000*7A

1611750593000,$GPGGA,122954.000,4540.3707,N,01156.0199,E,1,19,0.6,44.2,M,47.1,M,,*6F

1611750593000,$PSAMSA,122954.000,4540.3707,N,01156.0199,E,1,M,,*65

1611750593000,$GPGLL,4540.3707,N,01156.0199,E,122954.000,A,A*54

1611750593000,$GPVTG,359.7,T,,M,0.0,N,0.0,K,A*05

1611750593000,$GPGSV,3,1,11,10,14,318,22,12,25,223,26,13,49,148,39,14,23,051,26*7A

1611750593000,$GPGSV,3,2,11,15,68,230,41,17,38,089,30,19,34,120,40,20,19,284,33*75

1611750593000,$GPGSV,3,3,11,23,24,287,28,24,54,293,37,28,32,050,17*4A

1611750593000,$GLGSV,2,1,06,69,13,333,21,71,43,201,13,72,55,291,38,78,51,277,39*6A

1611750593000,$GLGSV,2,2,06,80,09,060,23,87,13,110,32*69

1611750593000,$GAGSV,2,1,06,103,31,310,30,105,66,237,38,109,31,166,37,124,86,313,37*66

1611750593000,$GAGSV,2,2,06,125,32,240,40,131,37,055,27*69

1611750593000,$BDGSV,2,1,07,219,40,225,43,220,09,181,19,222,35,295,27,227,21,112,33*60

1611750593000,$BDGSV,2,2,07,228,20,058,24,236,41,269,39,237,24,073,27*6A

1611750593000,$GPGSA,A,3,15,24,13,17,19,12,23,14,20,,,,1.2,0.6,1.0*3D

1611750593000,$GAGSA,A,3,103,105,109,124,125,131,,,,,,,1.2,0.6,1.0*2B

1611750593000,$BDGSA,A,3,219,222,227,228,,,,,,,,,1.2,0.6,1.0*20

1611750593000,$GPRMC,122954.000,A,4540.3707,N,01156.0199,E,0.0,359.7,270121,,,A*6C

1611750593000,$PSAMCLK,2142,30421200,19,9732091,1297237,304212000*7A

1611750594000,$PSAMCLK,2142,30421300,19,9732126,1359011,304213000*72

1611750594000,$GPGGA,122955.000,4540.3707,N,01156.0199,E,1,19,0.6,44.2,M,47.1,M,,*6E

1611750594000,$PSAMSA,122955.000,4540.3707,N,01156.0199,E,1,M,,*64

1611750594000,$GPGLL,4540.3707,N,01156.0199,E,122955.000,A,A*55

1611750594000,$GPVTG,359.7,T,,M,0.0,N,0.0,K,A*05

1611750594000,$GPGSV,3,1,11,10,14,318,21,12,25,223,26,13,49,148,39,14,23,051,26*79

1611750594000,$GPGSV,3,2,11,15,68,230,41,17,38,089,29,19,34,120,40,20,19,284,32*7C

1611750594000,$GPGSV,3,3,11,23,24,287,27,24,54,293,37,28,32,050,15*47

1611750594000,$GLGSV,2,1,06,69,13,333,20,71,43,201,12,72,55,291,37,78,51,277,38*64

1611750594000,$GLGSV,2,2,06,80,09,060,23,87,13,110,32*69

1611750594000,$GAGSV,2,1,06,103,31,310,29,105,66,237,38,109,31,166,37,124,86,313,37*6E

1611750594000,$GAGSV,2,2,06,125,32,240,39,131,37,055,26*66

1611750594000,$BDGSV,2,1,07,219,40,225,43,220,09,181,17,222,35,295,26,227,21,112,33*6F

1611750594000,$BDGSV,2,2,07,228,20,058,24,236,41,269,38,237,24,073,27*6B

1611750594000,$GPGSA,A,3,15,24,13,17,19,12,23,14,20,,,,1.2,0.6,1.0*3D

1611750594000,$GAGSA,A,3,103,105,109,124,125,131,,,,,,,1.2,0.6,1.0*2B

1611750594000,$BDGSA,A,3,219,222,227,228,,,,,,,,,1.2,0.6,1.0*20

1611750594000,$GPRMC,122955.000,A,4540.3707,N,01156.0199,E,0.0,359.7,270121,,,A*6D

1611750594000,$PSAMCLK,2142,30421300,19,9732126,1359011,304213000*72

1611750595000,$PSAMCLK,2142,30421400,18,9732123,1420786,304214000*76

1611750595000,$GPGGA,122956.000,4540.3707,N,01156.0199,E,1,18,0.6,44.2,M,47.1,M,,*6C

1611750595000,$PSAMSA,122956.000,4540.3707,N,01156.0199,E,1,M,,*67

1611750595000,$GPGLL,4540.3707,N,01156.0199,E,122956.000,A,A*56

1611750595000,$GPVTG,359.7,T,,M,0.0,N,0.0,K,A*05

1611750595000,$GPGSV,3,1,11,10,14,318,19,12,25,223,26,13,49,148,39,14,23,051,25*71

1611750595000,$GPGSV,3,2,11,15,68,230,41,17,38,089,29,19,34,120,39,20,19,284,32*72

1611750595000,$GPGSV,3,3,11,23,24,287,27,24,54,293,36,28,32,050,14*47

1611750595000,$GLGSV,2,1,05,69,13,333,18,72,55,291,37,78,51,277,38,80,09,060,23*6B

1611750595000,$GLGSV,2,2,05,87,13,110,32*5C

1611750595000,$GAGSV,2,1,06,103,31,310,29,105,66,237,38,109,31,166,37,124,86,313,37*6E

1611750595000,$GAGSV,2,2,06,125,32,240,39,131,37,055,26*66

1611750595000,$BDGSV,2,1,07,219,40,225,43,220,09,181,16,222,35,295,26,227,21,112,32*6F

1611750595000,$BDGSV,2,2,07,228,20,058,24,236,41,269,38,237,24,073,26*6A

1611750595000,$GPGSA,A,3,15,24,13,17,19,12,14,20,,,,,1.2,0.6,1.2*3E

1611750595000,$GAGSA,A,3,103,105,109,124,125,131,,,,,,,1.2,0.6,1.2*29

1611750595000,$BDGSA,A,3,219,222,227,228,,,,,,,,,1.2,0.6,1.2*22

1611750595000,$GPRMC,122956.000,A,4540.3707,N,01156.0199,E,0.0,359.7,270121,,,A*6E

1611750595000,$PSAMCLK,2142,30421400,18,9732123,1420786,304214000*76

1611750596000,$PSAMCLK,2142,30421500,19,9732101,1482559,304215000*7F

1611750596000,$GPGGA,122957.000,4540.3707,N,01156.0199,E,1,19,0.6,44.2,M,47.1,M,,*6C

1611750596000,$PSAMSA,122957.000,4540.3707,N,01156.0199,E,1,M,,*66

1611750596000,$GPGLL,4540.3707,N,01156.0199,E,122957.000,A,A*57

1611750596000,$GPVTG,359.7,T,,M,0.0,N,0.0,K,A*05

1611750596000,$GPGSV,3,1,11,10,14,318,18,12,25,223,27,13,49,148,39,14,23,051,25*71

1611750596000,$GPGSV,3,2,11,15,68,230,41,17,38,089,29,19,34,120,39,20,19,284,32*72

1611750596000,$GPGSV,3,3,11,23,24,287,26,24,54,293,36,28,32,050,13*41

1611750596000,$GLGSV,2,1,05,69,13,333,17,72,55,291,37,78,51,277,38,80,09,060,23*64

1611750596000,$GLGSV,2,2,05,87,13,110,32*5C

1611750596000,$GAGSV,2,1,06,103,31,310,29,105,66,237,38,109,31,166,37,124,86,313,37*6E

1611750596000,$GAGSV,2,2,06,125,32,240,39,131,37,055,25*65

1611750596000,$BDGSV,2,1,07,219,40,225,43,220,09,181,14,222,35,295,26,227,21,112,32*6D

1611750596000,$BDGSV,2,2,07,228,20,058,23,236,41,269,38,237,24,073,26*6D

1611750596000,$GPGSA,A,3,15,24,13,17,19,12,23,14,20,,,,1.2,0.6,1.0*3D

1611750596000,$GAGSA,A,3,103,105,109,124,125,131,,,,,,,1.2,0.6,1.0*2B

1611750596000,$BDGSA,A,3,219,222,227,228,,,,,,,,,1.2,0.6,1.0*20

1611750596000,$GPRMC,122957.000,A,4540.3707,N,01156.0199,E,0.0,359.7,270121,,,A*6F

1611750596000,$PSAMCLK,2142,30421500,19,9732101,1482559,304215000*7F

1611750597000,$PSAMCLK,2142,30421600,20,9732062,1544332,304216000*71

1611750597000,$GPGGA,122958.000,4540.3707,N,01156.0199,E,1,20,0.6,44.2,M,47.1,M,,*69

1611750597000,$PSAMSA,122958.000,4540.3707,N,01156.0199,E,1,M,,*69

1611750597000,$GPGLL,4540.3707,N,01156.0199,E,122958.000,A,A*58

1611750597000,$GPVTG,359.7,T,,M,0.0,N,0.0,K,A*05

1611750597000,$GPGSV,3,1,11,10,14,318,23,12,25,223,27,13,49,148,39,14,23,051,24*78

1611750597000,$GPGSV,3,2,11,15,68,230,41,17,38,089,28,19,34,120,39,20,19,284,32*73

1611750597000,$GPGSV,3,3,11,23,24,287,26,24,54,293,36,28,32,050,12*40

1611750597000,$GLGSV,2,1,05,69,13,333,15,72,55,291,36,78,51,277,38,80,09,060,23*67

1611750597000,$GLGSV,2,2,05,87,13,110,31*5F

1611750597000,$GAGSV,2,1,06,103,31,310,29,105,66,237,38,109,31,166,37,124,86,313,37*6E

1611750597000,$GAGSV,2,2,06,125,32,240,39,131,37,055,25*65

1611750597000,$BDGSV,2,1,07,219,40,225,43,220,09,181,13,222,35,295,26,227,21,112,32*6A

1611750597000,$BDGSV,2,2,07,228,20,058,23,236,41,269,37,237,24,073,26*62

1611750597000,$GPGSA,A,3,15,24,13,17,19,12,23,14,20,10,,,1.2,0.6,1.0*3C

1611750597000,$GAGSA,A,3,103,105,109,124,125,131,,,,,,,1.2,0.6,1.0*2B

1611750597000,$BDGSA,A,3,219,222,227,228,,,,,,,,,1.2,0.6,1.0*20

1611750597000,$GPRMC,122958.000,A,4540.3707,N,01156.0199,E,0.0,359.7,270121,,,A*60

1611750597000,$PSAMCLK,2142,30421600,20,9732062,1544332,304216000*71

1611750598000,$PSAMCLK,2142,30421700,19,9732043,1606106,304217000*78

1611750598000,$GPGGA,122959.000,4540.3707,N,01156.0199,E,1,19,0.6,44.2,M,47.1,M,,*62

1611750598000,$PSAMSA,122959.000,4540.3707,N,01156.0199,E,1,M,,*68

1611750598000,$GPGLL,4540.3707,N,01156.0199,E,122959.000,A,A*59

1611750598000,$GPVTG,359.7,T,,M,0.0,N,0.0,K,A*05

1611750598000,$GPGSV,3,1,10,10,14,318,24,12,25,223,27,13,49,148,39,14,23,051,24*7E

1611750598000,$GPGSV,3,2,10,15,68,230,41,17,38,089,28,19,34,120,39,20,19,284,32*72

1611750598000,$GPGSV,3,3,10,23,24,287,25,24,54,293,35*7C

1611750598000,$GLGSV,2,1,05,69,13,333,14,72,55,291,36,78,51,277,37,80,09,060,22*68

1611750598000,$GLGSV,2,2,05,87,13,110,31*5F

1611750598000,$GAGSV,2,1,06,103,31,310,29,105,66,237,38,109,31,166,37,124,86,313,37*6E

1611750598000,$GAGSV,2,2,06,125,32,240,39,131,37,055,25*65

1611750598000,$BDGSV,2,1,07,219,40,225,42,220,09,181,13,222,35,295,25,227,21,112,32*68

1611750598000,$BDGSV,2,2,07,228,20,058,23,236,41,269,37,237,24,073,25*61

1611750598000,$GPGSA,A,3,15,24,13,17,19,12,23,14,20,10,,,1.2,0.6,1.0*3C

1611750598000,$GAGSA,A,3,103,105,109,124,125,131,,,,,,,1.2,0.6,1.0*2B

1611750598000,$BDGSA,A,3,219,227,228,,,,,,,,,,1.2,0.6,1.0*12

1611750598000,$GPRMC,122959.000,A,4540.3707,N,01156.0199,E,0.0,359.7,270121,,,A*61

1611750598000,$PSAMCLK,2142,30421700,19,9732043,1606106,304217000*78

1611750599000,$PSAMCLK,2142,30421800,18,9732067,1667880,304218000*7F

1611750599000,$GPGGA,123000.000,4540.3707,N,01156.0199,E,1,18,0.6,44.2,M,47.1,M,,*67

1611750599000,$PSAMSA,123000.000,4540.3707,N,01156.0199,E,1,M,,*6C

1611750599000,$GPGLL,4540.3707,N,01156.0199,E,123000.000,A,A*5D

1611750599000,$GPVTG,359.7,T,,M,0.0,N,0.0,K,A*05

1611750599000,$GPGSV,3,1,10,10,14,318,24,12,25,223,27,13,49,148,39,14,23,051,24*7E

1611750599000,$GPGSV,3,2,10,15,68,230,41,17,38,089,28,19,34,120,39,20,19,284,31*71

1611750599000,$GPGSV,3,3,10,23,24,287,25,24,54,293,35*7C

1611750599000,$GLGSV,2,1,06,69,13,333,13,71,43,201,33,72,55,291,36,78,51,277,37*69

1611750599000,$GLGSV,2,2,06,80,09,060,22,87,13,110,31*6B

1611750599000,$GAGSV,2,1,06,103,31,310,29,105,66,237,38,109,31,166,37,124,86,313,37*6E

1611750599000,$GAGSV,2,2,06,125,32,240,39,131,37,055,24*64

1611750599000,$BDGSV,2,1,07,219,40,225,42,220,09,181,12,222,35,295,25,227,21,112,32*69

1611750599000,$BDGSV,2,2,07,228,20,058,22,236,41,269,37,237,24,073,25*60

1611750599000,$GPGSA,A,3,15,24,13,17,19,12,23,14,20,,,,1.2,0.6,1.0*3D

1611750599000,$GAGSA,A,3,103,105,109,124,125,131,,,,,,,1.2,0.6,1.0*2B

1611750599000,$BDGSA,A,3,219,227,228,,,,,,,,,,1.2,0.6,1.0*12

1611750599000,$GPRMC,123000.000,A,4540.3707,N,01156.0199,E,0.0,359.7,270121,,,A*65

1611750599000,$PSAMCLK,2142,30421800,18,9732067,1667880,304218000*7F

1611750600000,$PSAMCLK,2142,30421900,19,9732121,1729655,304219000*70

1611750600000,$GPGGA,123001.000,4540.3707,N,01156.0199,E,1,19,0.6,44.2,M,47.1,M,,*67

1611750600000,$PSAMSA,123001.000,4540.3707,N,01156.0199,E,1,M,,*6D

1611750600000,$GPGLL,4540.3707,N,01156.0199,E,123001.000,A,A*5C

1611750600000,$GPVTG,359.7,T,,M,0.0,N,0.0,K,A*05

1611750600000,$GPGSV,3,1,10,10,14,318,24,12,25,223,27,13,49,148,39,14,23,051,23*79

1611750600000,$GPGSV,3,2,10,15,68,229,40,17,38,089,28,19,34,120,39,20,19,284,31*78

1611750600000,$GPGSV,3,3,10,23,24,287,25,24,54,293,35*7C

1611750600000,$GLGSV,2,1,06,69,13,333,12,71,43,201,34,72,55,291,35,78,51,277,37*6C

1611750600000,$GLGSV,2,2,06,80,09,060,22,87,13,110,31*6B

1611750600000,$GAGSV,2,1,06,103,31,310,28,105,66,237,38,109,31,166,37,124,86,313,37*6F

1611750600000,$GAGSV,2,2,06,125,32,240,38,131,37,055,24*65

1611750600000,$BDGSV,2,1,06,219,40,225,42,222,35,295,25,227,21,112,32,228,20,058,22*6D

1611750600000,$BDGSV,2,2,06,236,41,269,36,237,24,073,25*67

1611750600000,$GPGSA,A,3,15,24,13,17,19,12,23,14,20,10,,,1.2,0.6,1.0*3C

1611750600000,$GAGSA,A,3,103,105,109,124,125,131,,,,,,,1.2,0.6,1.0*2B

1611750600000,$BDGSA,A,3,219,222,227,,,,,,,,,,1.2,0.6,1.0*18

1611750600000,$GPRMC,123001.000,A,4540.3707,N,01156.0199,E,0.0,359.7,270121,,,A*64

1611750600000,$PSAMCLK,2142,30421900,19,9732121,1729655,304219000*70

1611750601000,$PSAMCLK,2142,30422000,20,9732202,1791430,304220000*7A

1611750601000,$GPGGA,123002.000,4540.3707,N,01156.0199,E,1,20,0.6,44.2,M,47.1,M,,*6E

1611750601000,$PSAMSA,123002.000,4540.3707,N,01156.0199,E,1,M,,*6E

1611750601000,$GPGLL,4540.3707,N,01156.0199,E,123002.000,A,A*5F

1611750601000,$GPVTG,359.7,T,,M,0.0,N,0.0,K,A*05

1611750601000,$GPGSV,3,1,10,10,14,318,24,12,25,223,27,13,49,148,39,14,23,051,23*79

1611750601000,$GPGSV,3,2,10,15,68,229,40,17,38,089,27,19,34,120,39,20,19,284,31*77

1611750601000,$GPGSV,3,3,10,23,24,287,24,24,54,293,34*7C

1611750601000,$GLGSV,2,1,05,71,43,201,35,72,55,291,35,78,51,277,37,80,09,060,22*64

1611750601000,$GLGSV,2,2,05,87,13,110,30*5E

1611750601000,$GAGSV,2,1,06,103,31,310,28,105,66,237,38,109,31,166,37,124,86,313,37*6F

1611750601000,$GAGSV,2,2,06,125,32,240,38,131,37,055,24*65

1611750601000,$BDGSV,2,1,06,219,40,225,42,222,35,295,25,227,21,112,32,228,20,058,22*6D

1611750601000,$BDGSV,2,2,06,236,41,269,36,237,24,073,25*67

1611750601000,$GPGSA,A,3,15,24,13,17,19,12,23,14,20,10,,,1.2,0.6,1.0*3C

1611750601000,$GAGSA,A,3,103,105,109,124,125,131,,,,,,,1.2,0.6,1.0*2B

1611750601000,$BDGSA,A,3,219,222,227,228,,,,,,,,,1.2,0.6,1.0*20

1611750601000,$GPRMC,123002.000,A,4540.3707,N,01156.0199,E,0.0,359.7,270121,,,A*67

1611750601000,$PSAMCLK,2142,30422000,20,9732202,1791430,304220000*7A

1611750602000,$PSAMCLK,2142,30422100,20,9732273,1853206,304221000*7E

1611750602000,$GPGGA,123003.000,4540.3707,N,01156.0199,E,1,20,0.6,44.2,M,47.1,M,,*6F

1611750602000,$PSAMSA,123003.000,4540.3707,N,01156.0199,E,1,M,,*6F

1611750602000,$GPGLL,4540.3707,N,01156.0199,E,123003.000,A,A*5E

1611750602000,$GPVTG,359.7,T,,M,0.0,N,0.0,K,A*05

1611750602000,$GPGSV,3,1,10,10,14,318,24,12,25,223,27,13,49,148,39,14,23,051,23*79

1611750602000,$GPGSV,3,2,10,15,68,229,40,17,38,089,27,19,34,120,39,20,19,284,31*77

1611750602000,$GPGSV,3,3,10,23,24,287,24,24,54,293,34*7C

1611750602000,$GLGSV,2,1,05,71,43,201,35,72,55,291,35,78,51,277,37,80,09,060,22*64

1611750602000,$GLGSV,2,2,05,87,13,110,30*5E

1611750602000,$GAGSV,2,1,06,103,31,310,28,105,66,236,38,109,31,166,37,124,86,313,37*6E

1611750602000,$GAGSV,2,2,06,125,32,240,38,131,37,055,24*65

1611750602000,$BDGSV,2,1,06,219,40,225,42,222,35,295,25,227,21,112,32,228,20,058,22*6D

1611750602000,$BDGSV,2,2,06,236,41,269,36,237,24,073,24*66

1611750602000,$GPGSA,A,3,15,24,13,17,19,12,23,14,20,10,,,1.2,0.6,1.0*3C

1611750602000,$GAGSA,A,3,103,105,109,124,125,131,,,,,,,1.2,0.6,1.0*2B

1611750602000,$BDGSA,A,3,219,222,227,228,,,,,,,,,1.2,0.6,1.0*20

1611750602000,$GPRMC,123003.000,A,4540.3707,N,01156.0199,E,0.0,359.7,270121,,,A*66

1611750602000,$PSAMCLK,2142,30422100,20,9732273,1853206,304221000*7E

1611750603000,$PSAMCLK,2142,30422200,20,9732342,1914983,304222000*79

1611750603000,$GPGGA,123004.000,4540.3707,N,01156.0199,E,1,20,0.6,44.2,M,47.1,M,,*68

1611750603000,$PSAMSA,123004.000,4540.3707,N,01156.0199,E,1,M,,*68

1611750603000,$GPGLL,4540.3707,N,01156.0199,E,123004.000,A,A*59

1611750603000,$GPVTG,359.7,T,,M,0.0,N,0.0,K,A*05

1611750603000,$GPGSV,3,1,10,10,14,318,24,12,25,223,27,13,49,148,39,14,23,051,23*79

1611750603000,$GPGSV,3,2,10,15,68,229,40,17,38,089,27,19,34,120,39,20,19,284,31*77

1611750603000,$GPGSV,3,3,10,23,24,287,24,24,54,293,34*7C

1611750603000,$GLGSV,2,1,05,71,43,201,35,72,55,291,35,78,51,277,37,80,09,060,22*64

1611750603000,$GLGSV,2,2,05,87,13,110,30*5E

1611750603000,$GAGSV,2,1,06,103,31,310,28,105,66,236,38,109,31,166,37,124,86,313,37*6E

1611750603000,$GAGSV,2,2,06,125,32,240,38,131,37,055,23*62

1611750603000,$BDGSV,2,1,06,219,40,225,42,222,35,295,25,227,21,112,31,228,20,058,21*6D

1611750603000,$BDGSV,2,2,06,236,41,269,36,237,24,073,23*61

1611750603000,$GPGSA,A,3,15,24,13,17,19,12,23,14,20,10,,,1.2,0.6,1.0*3C

1611750603000,$GAGSA,A,3,103,105,109,124,125,131,,,,,,,1.2,0.6,1.0*2B

1611750603000,$BDGSA,A,3,219,222,227,228,,,,,,,,,1.2,0.6,1.0*20

1611750603000,$GPRMC,123004.000,A,4540.3707,N,01156.0199,E,0.0,359.7,270121,,,A*61

1611750603000,$PSAMCLK,2142,30422200,20,9732342,1914983,304222000*79

1611750604000,$PSAMCLK,2142,30422300,20,9732384,1976759,304223000*7E

1611750604000,$GPGGA,123005.000,4540.3707,N,01156.0199,E,1,20,0.6,44.2,M,47.1,M,,*69

1611750604000,$PSAMSA,123005.000,4540.3707,N,01156.0199,E,1,M,,*69

1611750604000,$GPGLL,4540.3707,N,01156.0199,E,123005.000,A,A*58

1611750604000,$GPVTG,359.7,T,,M,0.0,N,0.0,K,A*05

1611750604000,$GPGSV,3,1,10,10,14,318,24,12,25,223,27,13,49,148,39,14,23,051,22*78

1611750604000,$GPGSV,3,2,10,15,68,229,40,17,38,089,27,19,34,120,39,20,19,284,31*77

1611750604000,$GPGSV,3,3,10,23,24,287,24,24,54,293,34*7C

1611750604000,$GLGSV,2,1,05,71,43,201,36,72,55,291,34,78,51,277,37,80,09,060,22*66

1611750604000,$GLGSV,2,2,05,87,13,110,30*5E

1611750604000,$GAGSV,2,1,06,103,31,310,28,105,66,236,38,109,31,166,37,124,86,313,37*6E

1611750604000,$GAGSV,2,2,06,125,32,240,38,131,37,055,23*62

1611750604000,$BDGSV,2,1,06,219,40,225,42,222,35,295,24,227,21,112,31,228,20,058,21*6C

1611750604000,$BDGSV,2,2,06,236,41,269,36,237,24,073,21*63

1611750604000,$GPGSA,A,3,15,24,13,17,19,12,23,14,20,10,,,1.2,0.6,1.0*3C

1611750604000,$GAGSA,A,3,103,105,109,124,125,131,,,,,,,1.2,0.6,1.0*2B

1611750604000,$BDGSA,A,3,219,222,227,228,,,,,,,,,1.2,0.6,1.0*20

1611750604000,$GPRMC,123005.000,A,4540.3707,N,01156.0199,E,0.0,359.7,270121,,,A*60

1611750604000,$PSAMCLK,2142,30422300,20,9732384,1976759,304223000*7E

1611750605000,$PSAMCLK,2142,30422400,20,9732403,2038535,304224000*7E

1611750605000,$GPGGA,123006.000,4540.3707,N,01156.0199,E,1,20,0.6,44.2,M,47.1,M,,*6A

1611750605000,$PSAMSA,123006.000,4540.3707,N,01156.0199,E,1,M,,*6A

1611750605000,$GPGLL,4540.3707,N,01156.0199,E,123006.000,A,A*5B

1611750605000,$GPVTG,359.7,T,,M,0.0,N,0.0,K,A*05

1611750605000,$GPGSV,3,1,10,10,14,318,24,12,25,223,27,13,49,148,39,14,23,051,22*78

1611750605000,$GPGSV,3,2,10,15,68,229,40,17,38,089,27,19,34,120,38,20,19,284,31*76

1611750605000,$GPGSV,3,3,10,23,24,287,24,24,54,293,34*7C

1611750605000,$GLGSV,2,1,05,71,43,201,36,72,55,291,34,78,51,277,37,80,09,060,22*66

1611750605000,$GLGSV,2,2,05,87,13,110,30*5E

1611750605000,$GAGSV,2,1,06,103,31,310,28,105,66,236,38,109,31,166,37,124,86,313,37*6E

1611750605000,$GAGSV,2,2,06,125,32,241,38,131,37,055,23*63

1611750605000,$BDGSV,2,1,06,219,40,225,42,222,35,295,24,227,21,112,31,228,20,058,21*6C

1611750605000,$BDGSV,2,2,06,236,41,269,35,237,24,073,20*61

1611750605000,$GPGSA,A,3,15,24,13,17,19,12,23,14,20,10,,,1.2,0.6,1.0*3C

1611750605000,$GAGSA,A,3,103,105,109,124,125,131,,,,,,,1.2,0.6,1.0*2B

1611750605000,$BDGSA,A,3,219,222,227,228,,,,,,,,,1.2,0.6,1.0*20

1611750605000,$GPRMC,123006.000,A,4540.3707,N,01156.0199,E,0.0,359.7,270121,,,A*63

1611750605000,$PSAMCLK,2142,30422400,20,9732403,2038535,304224000*7E

1611750606000,$PSAMCLK,2142,30422500,18,9732378,2100312,304225000*77

1611750606000,$GPGGA,123007.000,4540.3707,N,01156.0199,E,1,18,0.6,44.2,M,47.1,M,,*60

1611750606000,$PSAMSA,123007.000,4540.3707,N,01156.0199,E,1,M,,*6B

1611750606000,$GPGLL,4540.3707,N,01156.0199,E,123007.000,A,A*5A

1611750606000,$GPVTG,359.7,T,,M,0.0,N,0.0,K,A*05

1611750606000,$GPGSV,3,1,10,10,14,318,24,12,25,223,27,13,49,148,39,14,23,051,22*78

1611750606000,$GPGSV,3,2,10,15,68,229,40,17,38,089,27,19,34,120,38,20,19,284,31*76

1611750606000,$GPGSV,3,3,10,23,24,287,24,24,54,293,33*7B

1611750606000,$GLGSV,2,1,05,71,43,201,36,72,55,291,34,78,51,277,37,80,09,060,22*66

1611750606000,$GLGSV,2,2,05,87,13,110,29*56

1611750606000,$GAGSV,2,1,06,103,31,310,28,105,66,236,38,109,31,166,37,124,86,313,37*6E

1611750606000,$GAGSV,2,2,06,125,32,241,38,131,37,055,23*63

1611750606000,$BDGSV,2,1,06,219,40,225,42,222,35,295,24,227,21,112,31,228,20,058,21*6C

1611750606000,$BDGSV,2,2,06,236,41,269,35,237,24,073,18*6A

1611750606000,$GPGSA,A,3,15,24,13,17,19,12,23,14,20,,,,1.2,0.6,1.0*3D

1611750606000,$GAGSA,A,3,105,109,124,125,131,,,,,,,,1.2,0.6,1.0*19

1611750606000,$BDGSA,A,3,219,222,227,228,,,,,,,,,1.2,0.6,1.0*20

1611750606000,$GPRMC,123007.000,A,4540.3707,N,01156.0199,E,0.0,359.7,270121,,,A*62

1611750606000,$PSAMCLK,2142,30422500,18,9732378,2100312,304225000*77

1611750607000,$PSAMCLK,2142,30422600,19,9732366,2162089,304226000*7C

1611750607000,$GPGGA,123008.000,4540.3707,N,01156.0199,E,1,19,0.6,44.2,M,47.1,M,,*6E

1611750607000,$PSAMSA,123008.000,4540.3707,N,01156.0199,E,1,M,,*64

1611750607000,$GPGLL,4540.3707,N,01156.0199,E,123008.000,A,A*55

1611750607000,$GPVTG,359.7,T,,M,0.0,N,0.0,K,A*05

1611750607000,$GPGSV,3,1,10,10,14,318,24,12,25,223,27,13,49,148,39,14,23,051,22*78

1611750607000,$GPGSV,3,2,10,15,68,229,40,17,38,088,27,19,34,120,38,20,19,284,30*76

1611750607000,$GPGSV,3,3,10,23,24,287,24,24,54,293,33*7B

1611750607000,$GLGSV,2,1,05,71,43,201,36,72,55,291,34,78,51,277,36,80,09,060,22*67

1611750607000,$GLGSV,2,2,05,87,13,110,29*56

1611750607000,$GAGSV,2,1,06,103,31,310,27,105,66,236,38,109,31,166,37,124,86,317,37*65

1611750607000,$GAGSV,2,2,06,125,32,241,38,131,37,055,23*63

1611750607000,$BDGSV,2,1,06,219,40,225,42,222,35,295,24,227,21,112,31,228,20,058,20*6D

1611750607000,$BDGSV,2,2,06,236,41,269,35,237,24,073,17*65

1611750607000,$GPGSA,A,3,15,24,13,17,19,12,23,14,20,,,,1.2,0.6,1.0*3D

1611750607000,$GAGSA,A,3,103,105,109,124,125,131,,,,,,,1.2,0.6,1.0*2B

1611750607000,$BDGSA,A,3,219,222,227,228,,,,,,,,,1.2,0.6,1.0*20

1611750607000,$GPRMC,123008.000,A,4540.3707,N,01156.0199,E,0.0,359.7,270121,,,A*6D

1611750607000,$PSAMCLK,2142,30422600,19,9732366,2162089,304226000*7C

1611750608000,$PSAMCLK,2142,30422700,20,9732346,2223866,304227000*7B

1611750608000,$GPGGA,123009.000,4540.3707,N,01156.0199,E,1,20,0.6,44.2,M,47.1,M,,*65

1611750608000,$PSAMSA,123009.000,4540.3707,N,01156.0199,E,1,M,,*65

1611750608000,$GPGLL,4540.3707,N,01156.0199,E,123009.000,A,A*54

1611750608000,$GPVTG,359.7,T,,M,0.0,N,0.0,K,A*05

1611750608000,$GPGSV,3,1,10,10,14,318,24,12,25,223,27,13,49,148,39,14,23,051,22*78

1611750608000,$GPGSV,3,2,10,15,68,229,40,17,38,088,27,19,34,120,38,20,19,283,30*71

1611750608000,$GPGSV,3,3,10,23,24,287,25,24,54,293,33*7A

1611750608000,$GLGSV,2,1,05,68,55,291,33,71,43,201,36,78,50,277,36,80,09,060,22*6A

1611750608000,$GLGSV,2,2,05,87,13,110,29*56

1611750608000,$GAGSV,2,1,06,103,31,310,27,105,66,236,38,109,31,166,37,124,86,317,37*65

1611750608000,$GAGSV,2,2,06,125,32,241,38,131,37,055,22*62

1611750608000,$BDGSV,2,1,06,219,40,225,42,222,35,295,24,227,21,112,31,228,20,058,20*6D

1611750608000,$BDGSV,2,2,06,236,41,269,35,237,24,073,15*67

1611750608000,$GPGSA,A,3,15,24,13,17,19,12,23,20,10,,,,1.2,0.6,1.0*39

1611750608000,$GNGSA,A,3,78,,,,,,,,,,,,1.2,0.6,1.0*27

1611750608000,$GAGSA,A,3,103,105,109,124,125,131,,,,,,,1.2,0.6,1.0*2B

1611750608000,$BDGSA,A,3,219,222,227,228,,,,,,,,,1.2,0.6,1.0*20

1611750608000,$GPRMC,123009.000,A,4540.3707,N,01156.0199,E,0.0,359.7,270121,,,A*6C

1611750608000,$PSAMCLK,2142,30422700,20,9732346,2223866,304227000*7B

1611750609000,$PSAMCLK,2142,30422800,21,9732307,2285643,304228000*7A

1611750609000,$GPGGA,123010.000,4540.3707,N,01156.0199,E,1,21,0.6,44.2,M,47.1,M,,*6C

1611750609000,$PSAMSA,123010.000,4540.3707,N,01156.0199,E,1,M,,*6D

1611750609000,$GPGLL,4540.3707,N,01156.0199,E,123010.000,A,A*5C

1611750609000,$GPVTG,359.7,T,,M,0.0,N,0.0,K,A*05

1611750609000,$GPGSV,3,1,10,10,14,318,24,12,25,223,27,13,49,148,40,14,23,051,21*75

1611750609000,$GPGSV,3,2,10,15,68,229,40,17,38,088,27,19,34,120,38,20,19,283,30*71

1611750609000,$GPGSV,3,3,10,23,24,287,25,24,54,294,33*7D

1611750609000,$GLGSV,2,1,05,68,55,291,33,71,43,201,36,78,50,277,36,80,09,060,22*6A

1611750609000,$GLGSV,2,2,05,87,13,110,29*56

1611750609000,$GAGSV,2,1,06,103,31,310,27,105,66,236,38,109,31,166,37,124,86,317,37*65

1611750609000,$GAGSV,2,2,06,125,32,241,38,131,37,055,22*62

1611750609000,$BDGSV,2,1,06,219,40,225,42,222,35,295,23,227,22,112,31,228,20,057,20*66

1611750609000,$BDGSV,2,2,06,236,42,270,35,237,24,073,14*6D

1611750609000,$GPGSA,A,3,15,24,13,17,19,12,23,14,20,10,,,1.2,0.6,1.0*3C

1611750609000,$GNGSA,A,3,68,78,,,,,,,,,,,1.2,0.6,1.0*29

1611750609000,$GAGSA,A,3,103,105,109,124,125,131,,,,,,,1.2,0.6,1.0*2B

1611750609000,$BDGSA,A,3,219,227,228,,,,,,,,,,1.2,0.6,1.0*12

1611750609000,$GPRMC,123010.000,A,4540.3707,N,01156.0199,E,0.0,359.7,270121,,,A*64

1611750609000,$PSAMCLK,2142,30422800,21,9732307,2285643,304228000*7A

1611750610000,$PSAMCLK,2142,30422900,20,9732271,2347419,304229000*79

1611750610000,$GPGGA,123011.000,4540.3707,N,01156.0199,E,1,20,0.6,44.2,M,47.1,M,,*6C

1611750610000,$PSAMSA,123011.000,4540.3707,N,01156.0199,E,1,M,,*6C

1611750610000,$GPGLL,4540.3707,N,01156.0199,E,123011.000,A,A*5D

1611750610000,$GPVTG,359.7,T,,M,0.0,N,0.0,K,A*05

1611750610000,$GPGSV,3,1,10,10,14,318,24,12,25,223,27,13,49,148,40,14,23,051,21*75

1611750610000,$GPGSV,3,2,10,15,68,229,40,17,38,088,27,19,34,120,38,20,19,283,30*71

1611750610000,$GPGSV,3,3,10,23,24,287,25,24,54,294,33*7D

1611750610000,$GLGSV,2,1,05,68,55,291,33,71,43,201,36,78,50,277,36,80,09,060,22*6A

1611750610000,$GLGSV,2,2,05,87,13,110,28*57

1611750610000,$GAGSV,2,1,06,103,31,310,27,105,66,236,38,109,31,166,37,124,86,317,38*6A

1611750610000,$GAGSV,2,2,06,125,32,241,37,131,37,055,22*6D

1611750610000,$BDGSV,2,1,06,219,40,225,42,222,35,295,21,227,22,112,31,228,20,057,20*64

1611750610000,$BDGSV,2,2,06,236,42,270,35,237,24,073,13*6A

1611750610000,$GPGSA,A,3,15,24,13,17,19,12,23,14,10,,,,1.2,0.6,1.0*3E

1611750610000,$GNGSA,A,3,68,78,,,,,,,,,,,1.2,0.6,1.0*29

1611750610000,$GAGSA,A,3,103,105,109,124,125,131,,,,,,,1.2,0.6,1.0*2B

1611750610000,$BDGSA,A,3,219,227,228,,,,,,,,,,1.2,0.6,1.0*12

1611750610000,$GPRMC,123011.000,A,4540.3707,N,01156.0199,E,0.0,359.7,270121,,,A*65

1611750610000,$PSAMCLK,2142,30422900,20,9732271,2347419,304229000*79

1611750611000,$PSAMCLK,2142,30423000,19,9732224,2409195,304230000*7F

1611750611000,$GPGGA,123012.000,4540.3707,N,01156.0199,E,1,19,0.6,44.2,M,47.1,M,,*65

1611750611000,$PSAMSA,123012.000,4540.3707,N,01156.0199,E,1,M,,*6F

1611750611000,$GPGLL,4540.3707,N,01156.0199,E,123012.000,A,A*5E

1611750611000,$GPVTG,359.7,T,,M,0.0,N,0.0,K,A*05

1611750611000,$GPGSV,3,1,10,10,14,318,24,12,25,223,25,13,49,148,40,14,23,051,20*76

1611750611000,$GPGSV,3,2,10,15,68,229,40,17,38,088,27,19,34,120,38,20,19,283,30*71

1611750611000,$GPGSV,3,3,10,23,24,287,25,24,54,294,33*7D

1611750611000,$GLGSV,2,1,05,68,55,291,33,71,43,201,36,78,50,277,36,80,09,060,22*6A

1611750611000,$GLGSV,2,2,05,87,13,110,28*57

1611750611000,$GAGSV,2,1,06,103,31,310,27,105,66,236,38,109,31,166,37,124,86,317,38*6A

1611750611000,$GAGSV,2,2,06,125,32,241,37,131,37,055,22*6D

1611750611000,$BDGSV,2,1,06,219,40,225,42,222,35,295,20,227,22,112,31,228,20,057,20*65

1611750611000,$BDGSV,2,2,06,236,42,270,35,237,24,073,12*6B

1611750611000,$GPGSA,A,3,15,24,13,17,19,23,20,10,,,,,1.2,0.6,1.0*3A

1611750611000,$GNGSA,A,3,68,78,,,,,,,,,,,1.2,0.6,1.0*29

1611750611000,$GAGSA,A,3,103,105,109,124,125,131,,,,,,,1.2,0.6,1.0*2B

1611750611000,$BDGSA,A,3,219,227,228,,,,,,,,,,1.2,0.6,1.0*12

1611750611000,$GPRMC,123012.000,A,4540.3707,N,01156.0199,E,0.0,359.7,270121,,,A*66

1611750611000,$PSAMCLK,2142,30423000,19,9732224,2409195,304230000*7F

1611750612000,$PSAMCLK,2142,30423100,20,9732137,2470972,304231000*7B

1611750612000,$GPGGA,123013.000,4540.3707,N,01156.0199,E,1,20,0.6,44.2,M,47.1,M,,*6E

1611750612000,$PSAMSA,123013.000,4540.3707,N,01156.0199,E,0,M,,*6F

1611750612000,$GPGLL,4540.3707,N,01156.0199,E,123013.000,A,A*5F

1611750612000,$GPVTG,359.7,T,,M,0.0,N,0.0,K,A*05

1611750612000,$GPGSV,3,1,11,10,14,318,24,12,25,223,25,13,49,148,40,14,23,051,18*7C

1611750612000,$GPGSV,3,2,11,15,68,229,40,17,38,088,27,19,34,120,38,20,19,283,30*70

1611750612000,$GPGSV,3,3,11,23,24,287,25,24,54,294,32,28,31,050,23*41

1611750612000,$GLGSV,2,1,05,68,55,291,33,71,43,201,36,78,50,277,36,80,09,060,22*6A

1611750612000,$GLGSV,2,2,05,87,13,110,28*57

1611750612000,$GAGSV,2,1,06,103,31,310,27,105,66,236,38,109,31,166,37,124,86,317,38*6A

1611750612000,$GAGSV,2,2,06,125,32,241,37,131,37,055,22*6D

1611750612000,$BDGSV,2,1,05,219,40,225,41,222,35,295,18,227,22,112,31,228,20,057,20*6E

1611750612000,$BDGSV,2,2,05,236,42,270,34*6E

1611750612000,$GPGSA,A,3,15,24,13,17,19,28,12,23,10,,,,1.2,0.6,1.0*31

1611750612000,$GNGSA,A,3,68,78,,,,,,,,,,,1.2,0.6,1.0*29

1611750612000,$GAGSA,A,3,103,105,109,124,125,131,,,,,,,1.2,0.6,1.0*2B

1611750612000,$BDGSA,A,3,219,227,228,,,,,,,,,,1.2,0.6,1.0*12

1611750612000,$GPRMC,123013.000,A,4540.3707,N,01156.0199,E,0.0,359.7,270121,,,A*67

1611750612000,$PSAMCLK,2142,30423100,20,9732137,2470972,304231000*7B

1611750613000,$PSAMCLK,2142,30423200,21,9732096,2532746,304232000*7E

1611750613000,$GPGGA,123014.000,4540.3707,N,01156.0199,E,1,21,0.6,44.2,M,47.1,M,,*68

1611750613000,$PSAMSA,123014.000,4540.3707,N,01156.0199,E,1,M,,*69

1611750613000,$GPGLL,4540.3707,N,01156.0199,E,123014.000,A,A*58

1611750613000,$GPVTG,359.7,T,,M,0.0,N,0.0,K,A*05

1611750613000,$GPGSV,3,1,11,10,14,318,24,12,25,223,25,13,49,148,40,14,23,051,17*73

1611750613000,$GPGSV,3,2,11,15,68,229,40,17,38,088,27,19,34,120,38,20,19,283,30*70

1611750613000,$GPGSV,3,3,11,23,24,287,25,24,54,294,32,28,31,050,24*46

1611750613000,$GLGSV,2,1,05,68,55,291,33,71,43,201,36,78,50,277,36,80,09,060,22*6A

1611750613000,$GLGSV,2,2,05,87,13,110,28*57

1611750613000,$GAGSV,2,1,06,103,31,310,27,105,66,236,38,109,31,166,37,124,86,317,38*6A

1611750613000,$GAGSV,2,2,06,125,32,241,37,131,37,055,22*6D

1611750613000,$BDGSV,2,1,05,219,40,225,41,222,35,295,17,227,22,112,31,228,20,057,20*61

1611750613000,$BDGSV,2,2,05,236,42,270,34*6E

1611750613000,$GPGSA,A,3,15,24,13,17,19,28,12,23,20,10,,,1.2,0.6,1.0*33

1611750613000,$GNGSA,A,3,68,78,,,,,,,,,,,1.2,0.6,1.0*29

1611750613000,$GAGSA,A,3,103,105,109,124,125,131,,,,,,,1.2,0.6,1.0*2B

1611750613000,$BDGSA,A,3,219,227,228,,,,,,,,,,1.2,0.6,1.0*12

1611750613000,$GPRMC,123014.000,A,4540.3707,N,01156.0199,E,0.0,359.7,270121,,,A*60

1611750613000,$PSAMCLK,2142,30423200,21,9732096,2532746,304232000*7E

1611750614000,$PSAMCLK,2142,30423300,22,9732039,2594520,304233000*76

1611750614000,$GPGGA,123015.000,4540.3707,N,01156.0199,E,1,22,0.6,44.2,M,47.1,M,,*6A

1611750614000,$PSAMSA,123015.000,4540.3707,N,01156.0199,E,1,M,,*68

1611750614000,$GPGLL,4540.3707,N,01156.0199,E,123015.000,A,A*59

1611750614000,$GPVTG,359.7,T,,M,0.0,N,0.0,K,A*05

1611750614000,$GPGSV,3,1,11,10,14,318,24,12,25,223,25,13,49,148,40,14,23,051,15*71

1611750614000,$GPGSV,3,2,11,15,68,229,40,17,38,088,28,19,34,120,38,20,19,283,29*77

1611750614000,$GPGSV,3,3,11,23,24,287,26,24,54,294,32,28,31,050,24*45

1611750614000,$GLGSV,2,1,05,68,55,291,33,71,43,201,36,78,50,277,36,80,09,060,22*6A

1611750614000,$GLGSV,2,2,05,87,13,110,28*57

1611750614000,$GAGSV,2,1,06,103,31,310,27,105,66,236,38,109,31,166,37,124,86,317,38*6A

1611750614000,$GAGSV,2,2,06,125,32,241,37,131,37,055,22*6D

1611750614000,$BDGSV,2,1,05,219,40,225,41,222,35,295,15,227,22,112,31,228,20,057,20*63

1611750614000,$BDGSV,2,2,05,236,42,269,34*66

1611750614000,$GPGSA,A,3,15,24,13,17,19,28,12,23,20,10,,,1.2,0.6,1.0*33

1611750614000,$GNGSA,A,3,68,78,,,,,,,,,,,1.2,0.6,1.0*29

1611750614000,$GAGSA,A,3,103,105,109,124,125,131,,,,,,,1.2,0.6,1.0*2B

1611750614000,$BDGSA,A,3,219,227,228,236,,,,,,,,,1.2,0.6,1.0*25

1611750614000,$GPRMC,123015.000,A,4540.3707,N,01156.0199,E,0.0,359.7,270121,,,A*61

1611750614000,$PSAMCLK,2142,30423300,22,9732039,2594520,304233000*76

1611750615000,$PSAMCLK,2142,30423400,21,9731984,2656294,304234000*7C

1611750615000,$GPGGA,123016.000,4540.3707,N,01156.0199,E,1,21,0.6,44.2,M,47.1,M,,*6A

1611750615000,$PSAMSA,123016.000,4540.3707,N,01156.0199,E,1,M,,*6B

1611750615000,$GPGLL,4540.3707,N,01156.0199,E,123016.000,A,A*5A

1611750615000,$GPVTG,359.7,T,,M,0.0,N,0.0,K,A*05

1611750615000,$GPGSV,3,1,11,10,14,318,24,12,25,223,25,13,49,148,40,14,23,051,14*70

1611750615000,$GPGSV,3,2,11,15,68,229,40,17,38,088,28,19,34,120,38,20,19,283,29*77

1611750615000,$GPGSV,3,3,11,23,24,287,26,24,54,294,32,28,31,050,24*45

1611750615000,$GLGSV,2,1,05,68,55,291,33,71,43,201,35,78,50,277,36,80,09,060,22*69

1611750615000,$GLGSV,2,2,05,87,13,110,28*57

1611750615000,$GAGSV,2,1,06,103,31,310,27,105,66,236,38,109,31,166,37,124,86,317,38*6A

1611750615000,$GAGSV,2,2,06,125,32,241,37,131,37,055,22*6D

1611750615000,$BDGSV,2,1,05,219,40,225,41,222,35,295,14,227,22,112,31,228,20,057,19*68

1611750615000,$BDGSV,2,2,05,236,42,269,34*66

1611750615000,$GPGSA,A,3,15,24,13,17,19,28,12,23,20,,,,1.2,0.6,1.0*32

1611750615000,$GNGSA,A,3,68,78,,,,,,,,,,,1.2,0.6,1.0*29

1611750615000,$GAGSA,A,3,103,105,109,124,125,131,,,,,,,1.2,0.6,1.0*2B

1611750615000,$BDGSA,A,3,219,227,228,236,,,,,,,,,1.2,0.6,1.0*25

1611750615000,$GPRMC,123016.000,A,4540.3707,N,01156.0199,E,0.0,359.7,270121,,,A*62

1611750615000,$PSAMCLK,2142,30423400,21,9731984,2656294,304234000*7C

1611750616000,$PSAMCLK,2142,30423500,20,9731920,2718068,304235000*79

1611750616000,$GPGGA,123017.000,4540.3707,N,01156.0199,E,1,20,0.6,44.2,M,47.1,M,,*6A

1611750616000,$PSAMSA,123017.000,4540.3707,N,01156.0199,E,1,M,,*6A

1611750616000,$GPGLL,4540.3707,N,01156.0199,E,123017.000,A,A*5B

1611750616000,$GPVTG,359.7,T,,M,0.0,N,0.0,K,A*05

1611750616000,$GPGSV,3,1,11,10,14,318,24,12,25,223,25,13,49,148,40,14,23,051,13*77

1611750616000,$GPGSV,3,2,11,15,68,229,40,17,38,088,28,19,34,120,38,20,19,283,29*77

1611750616000,$GPGSV,3,3,11,23,24,287,27,24,54,294,32,28,31,050,25*45

1611750616000,$GLGSV,2,1,05,68,55,291,33,71,43,201,35,78,50,277,36,80,09,060,22*69

1611750616000,$GLGSV,2,2,05,87,13,110,27*58

1611750616000,$GAGSV,2,1,06,103,31,310,27,105,66,236,38,109,31,166,37,124,86,317,38*6A

1611750616000,$GAGSV,2,2,06,125,32,241,37,131,37,055,22*6D

1611750616000,$BDGSV,2,1,05,219,40,225,41,222,35,295,13,227,22,112,31,228,20,057,19*6F

1611750616000,$BDGSV,2,2,05,236,42,269,34*66

1611750616000,$GPGSA,A,3,15,24,13,17,19,28,12,23,20,,,,1.2,0.6,1.0*32

1611750616000,$GNGSA,A,3,68,78,,,,,,,,,,,1.2,0.6,1.0*29

1611750616000,$GAGSA,A,3,105,109,124,125,131,,,,,,,,1.2,0.6,1.0*19

1611750616000,$BDGSA,A,3,219,227,228,236,,,,,,,,,1.2,0.6,1.0*25

1611750616000,$GPRMC,123017.000,A,4540.3707,N,01156.0199,E,0.0,359.7,270121,,,A*63

1611750616000,$PSAMCLK,2142,30423500,20,9731920,2718068,304235000*79

1611750617000,$PSAMCLK,2142,30423600,21,9731861,2779841,304236000*78

1611750617000,$GPGGA,123018.000,4540.3707,N,01156.0199,E,1,21,0.6,44.2,M,47.1,M,,*64

1611750617000,$PSAMSA,123018.000,4540.3707,N,01156.0199,E,1,M,,*65

1611750617000,$GPGLL,4540.3707,N,01156.0199,E,123018.000,A,A*54

1611750617000,$GPVTG,359.7,T,,M,0.0,N,0.0,K,A*05

1611750617000,$GPGSV,3,1,11,10,14,318,24,12,25,223,25,13,49,148,40,14,23,051,12*76

1611750617000,$GPGSV,3,2,11,15,68,229,40,17,38,088,28,19,34,120,38,20,19,283,29*77

1611750617000,$GPGSV,3,3,11,23,24,287,27,24,54,294,32,28,31,050,25*45

1611750617000,$GLGSV,2,1,05,68,55,291,33,71,43,201,35,78,50,277,36,80,09,060,22*69

1611750617000,$GLGSV,2,2,05,87,13,110,27*58

1611750617000,$GAGSV,2,1,06,103,31,310,27,105,66,236,38,109,31,166,37,124,86,317,38*6A

1611750617000,$GAGSV,2,2,06,125,32,241,37,131,37,055,22*6D

1611750617000,$BDGSV,2,1,05,219,40,225,41,222,35,295,12,227,22,112,30,228,20,057,19*6F

1611750617000,$BDGSV,2,2,05,236,42,269,34*66

1611750617000,$GPGSA,A,3,15,24,13,17,19,28,12,23,20,,,,1.2,0.6,1.0*32

1611750617000,$GNGSA,A,3,68,78,,,,,,,,,,,1.2,0.6,1.0*29

1611750617000,$GAGSA,A,3,103,105,109,124,125,131,,,,,,,1.2,0.6,1.0*2B

1611750617000,$BDGSA,A,3,219,227,228,236,,,,,,,,,1.2,0.6,1.0*25

1611750617000,$GPRMC,123018.000,A,4540.3707,N,01156.0199,E,0.0,359.7,270121,,,A*6C

1611750617000,$PSAMCLK,2142,30423600,21,9731861,2779841,304236000*78

1611750618000,$PSAMCLK,2142,30423700,22,9731789,2841615,304237000*79

1611750618000,$GPGGA,123019.000,4540.3707,N,01156.0199,E,1,22,0.6,44.2,M,47.1,M,,*66

1611750618000,$PSAMSA,123019.000,4540.3707,N,01156.0199,E,1,M,,*64

1611750618000,$GPGLL,4540.3707,N,01156.0199,E,123019.000,A,A*55

1611750618000,$GPVTG,359.7,T,,M,0.0,N,0.0,K,A*05

1611750618000,$GPGSV,3,1,10,10,14,318,24,12,25,223,25,13,49,148,40,15,68,229,40*73

1611750618000,$GPGSV,3,2,10,17,38,088,28,19,34,120,38,20,19,283,28,23,24,287,27*7F

1611750618000,$GPGSV,3,3,10,24,54,294,32,28,31,050,25*7B

1611750618000,$GLGSV,2,1,05,68,55,291,33,71,43,201,35,78,50,277,36,80,09,060,22*69

1611750618000,$GLGSV,2,2,05,87,13,110,27*58

1611750618000,$GAGSV,2,1,06,103,31,310,26,105,66,236,38,109,31,166,37,124,86,317,38*6B

1611750618000,$GAGSV,2,2,06,125,32,241,37,131,37,055,22*6D

1611750618000,$BDGSV,1,1,04,219,40,225,41,227,22,112,30,228,20,057,19,236,42,269,34*6F

1611750618000,$GPGSA,A,3,15,24,13,17,19,28,12,23,20,10,,,1.2,0.6,1.0*33

1611750618000,$GNGSA,A,3,68,78,,,,,,,,,,,1.2,0.6,1.0*29

1611750618000,$GAGSA,A,3,103,105,109,124,125,131,,,,,,,1.2,0.6,1.0*2B

1611750618000,$BDGSA,A,3,219,227,228,236,,,,,,,,,1.2,0.6,1.0*25

1611750618000,$GPRMC,123019.000,A,4540.3707,N,01156.0199,E,0.0,359.7,270121,,,A*6D

1611750618000,$PSAMCLK,2142,30423700,22,9731789,2841615,304237000*79

1611750619000,$PSAMCLK,2142,30423800,22,9731733,2903387,304238000*71

1611750619000,$GPGGA,123020.000,4540.3707,N,01156.0199,E,1,22,0.6,44.2,M,47.1,M,,*6C

1611750619000,$PSAMSA,123020.000,4540.3707,N,01156.0199,E,1,M,,*6E

1611750619000,$GPGLL,4540.3707,N,01156.0199,E,123020.000,A,A*5F

1611750619000,$GPVTG,359.7,T,,M,0.0,N,0.0,K,A*05

1611750619000,$GPGSV,3,1,10,10,14,318,24,12,25,223,25,13,49,148,40,15,68,229,40*73

1611750619000,$GPGSV,3,2,10,17,38,088,27,19,34,120,37,20,19,283,27,23,24,287,28*7F

1611750619000,$GPGSV,3,3,10,24,54,294,32,28,31,050,25*7B

1611750619000,$GLGSV,2,1,05,68,55,291,33,71,43,201,35,78,50,277,36,80,09,060,22*69

1611750619000,$GLGSV,2,2,05,87,13,110,27*58

1611750619000,$GAGSV,2,1,06,103,31,310,26,105,66,236,38,109,31,166,37,124,86,317,38*6B

1611750619000,$GAGSV,2,2,06,125,32,241,37,131,37,055,22*6D

1611750619000,$BDGSV,1,1,04,219,40,225,41,227,22,112,30,228,20,057,19,236,42,269,34*6F

1611750619000,$GPGSA,A,3,15,24,13,17,19,28,12,23,20,10,,,1.2,0.6,1.0*33

1611750619000,$GNGSA,A,3,68,78,,,,,,,,,,,1.2,0.6,1.0*29

1611750619000,$GAGSA,A,3,103,105,109,124,125,131,,,,,,,1.2,0.6,1.0*2B

1611750619000,$BDGSA,A,3,219,227,228,236,,,,,,,,,1.2,0.6,1.0*25

1611750619000,$GPRMC,123020.000,A,4540.3707,N,01156.0199,E,0.0,359.7,270121,,,A*67

1611750619000,$PSAMCLK,2142,30423800,22,9731733,2903387,304238000*71

1611750620000,$PSAMCLK,2142,30423900,22,9731654,2965159,304239000*70

1611750620000,$GPGGA,123021.000,4540.3707,N,01156.0199,E,1,22,0.6,44.2,M,47.1,M,,*6D

1611750620000,$PSAMSA,123021.000,4540.3707,N,01156.0199,E,1,M,,*6F

1611750620000,$GPGLL,4540.3707,N,01156.0199,E,123021.000,A,A*5E

1611750620000,$GPVTG,359.7,T,,M,0.0,N,0.0,K,A*05

1611750620000,$GPGSV,3,1,10,10,14,318,24,12,25,223,25,13,49,148,40,15,68,229,40*73

1611750620000,$GPGSV,3,2,10,17,38,088,27,19,34,120,37,20,19,283,27,23,24,287,28*7F

1611750620000,$GPGSV,3,3,10,24,54,294,32,28,31,050,25*7B

1611750620000,$GLGSV,2,1,05,68,55,291,33,71,43,201,35,78,50,277,36,80,09,060,22*69

1611750620000,$GLGSV,2,2,05,87,13,110,27*58

1611750620000,$GAGSV,2,1,06,103,31,310,26,105,66,236,38,109,31,166,37,124,86,317,38*6B

1611750620000,$GAGSV,2,2,06,125,32,241,37,131,37,055,22*6D

1611750620000,$BDGSV,1,1,04,219,40,225,41,227,22,112,30,228,20,057,19,236,42,269,34*6F

1611750620000,$GPGSA,A,3,15,24,13,17,19,28,12,23,20,10,,,1.2,0.6,1.0*33

1611750620000,$GNGSA,A,3,68,78,,,,,,,,,,,1.2,0.6,1.0*29

1611750620000,$GAGSA,A,3,103,105,109,124,125,131,,,,,,,1.2,0.6,1.0*2B

1611750620000,$BDGSA,A,3,219,227,228,236,,,,,,,,,1.2,0.6,1.0*25

1611750620000,$GPRMC,123021.000,A,4540.3707,N,01156.0199,E,0.0,359.7,270121,,,A*66

1611750620000,$PSAMCLK,2142,30423900,22,9731654,2965159,304239000*70

1611750621000,$PSAMCLK,2142,30424000,21,9731569,3026930,304240000*76

1611750621000,$GPGGA,123022.000,4540.3707,N,01156.0199,E,1,21,0.6,44.2,M,47.1,M,,*6D

1611750621000,$PSAMSA,123022.000,4540.3707,N,01156.0199,E,1,M,,*6C

1611750621000,$GPGLL,4540.3707,N,01156.0199,E,123022.000,A,A*5D

1611750621000,$GPVTG,359.7,T,,M,0.0,N,0.0,K,A*05

1611750621000,$GPGSV,3,1,10,10,14,318,24,12,25,223,25,13,49,148,40,15,68,229,40*73

1611750621000,$GPGSV,3,2,10,17,38,088,27,19,34,120,37,20,19,283,26,23,24,287,28*7E

1611750621000,$GPGSV,3,3,10,24,54,294,32,28,31,050,25*7B

1611750621000,$GLGSV,2,1,05,68,55,291,33,71,43,201,35,78,50,277,36,80,09,060,22*69

1611750621000,$GLGSV,2,2,05,87,13,110,27*58

1611750621000,$GAGSV,2,1,06,103,31,310,26,105,66,236,38,109,31,166,36,124,86,317,38*6A

1611750621000,$GAGSV,2,2,06,125,32,241,37,131,37,055,22*6D

1611750621000,$BDGSV,1,1,04,219,40,225,42,227,22,112,30,228,20,057,19,236,42,269,34*6C

1611750621000,$GPGSA,A,3,15,24,13,17,19,28,12,23,20,,,,1.2,0.6,1.0*32

1611750621000,$GNGSA,A,3,68,78,,,,,,,,,,,1.2,0.6,1.0*29

1611750621000,$GAGSA,A,3,103,105,109,124,125,131,,,,,,,1.2,0.6,1.0*2B

1611750621000,$BDGSA,A,3,219,227,228,236,,,,,,,,,1.2,0.6,1.0*25

1611750621000,$GPRMC,123022.000,A,4540.3707,N,01156.0199,E,0.0,359.7,270121,,,A*65

1611750621000,$PSAMCLK,2142,30424000,21,9731569,3026930,304240000*76

1611750622000,$PSAMCLK,2142,30424100,21,9731503,3088701,304241000*72

1611750622000,$GPGGA,123023.000,4540.3707,N,01156.0199,E,1,21,0.6,44.2,M,47.1,M,,*6C

1611750622000,$PSAMSA,123023.000,4540.3707,N,01156.0199,E,1,M,,*6D

