# 2021 02 03 12:32:29
#
# Version: 10 Manufacturer: samsung Make: SM-A515F
#
1612351950000,$PSAMCLK,2143,30076700,24,9730227,1327885,300767000*71

1612351950000,$GPGGA,113229.000,4540.3653,N,01156.0205,E,1,24,0.4,44.4,M,47.1,M,,*60

1612351950000,$PSAMSA,113229.000,4540.3653,N,01156.0205,E,1,M,,*60

1612351950000,$GPGLL,4540.3653,N,01156.0205,E,113229.000,A,A*51

1612351950000,$GPVTG,6.7,T,,M,0.0,N,0.0,K,A*0C

1612351950000,$GPGSV,3,1,12,05,06,195,25,10,08,328,28,13,63,141,44,14,35,051,39*75

1612351950000,$GPGSV,3,2,12,15,69,268,43,17,33,103,39,19,24,130,39,20,21,297,43*79

1612351950000,$GPGSV,3,3,12,23,24,301,42,24,43,284,42,28,43,052,38,30,11,085,33*7F

1612351950000,$GLGSV,2,1,06,65,06,169,43,66,60,210,46,67,45,314,45,75,20,052,41*6E

1612351950000,$GLGSV,2,2,06,76,68,005,45,85,17,061,40*60

1612351950000,$GAGSV,1,1,04,104,32,157,39,105,32,309,40,109,71,237,30,131,88,233,35*66

1612351950000,$BDGSV,2,1,08,205,23,121,36,210,23,051,36,219,50,238,33,222,30,307,16*65

1612351950000,$BDGSV,2,2,08,227,12,121,35,228,18,069,35,236,32,260,41,237,34,066,39*64

1612351950000,$GPGSA,A,3,15,13,28,24,14,17,19,20,30,10,05,,0.8,0.4,0.6*3C

1612351950000,$GNGSA,A,3,65,66,67,76,85,,,,,,,,0.8,0.4,0.6*28

1612351950000,$GAGSA,A,3,104,105,131,,,,,,,,,,0.8,0.4,0.6*1B

1612351950000,$BDGSA,A,3,219,227,228,236,237,,,,,,,,0.8,0.4,0.6*1D

1612351950000,$GPRMC,113229.000,A,4540.3653,N,01156.0205,E,0.0,6.7,030221,,,A*65

1612351950000,$PSAMCLK,2143,30076700,24,9730227,1327885,300767000*71

1612351951000,$PSAMCLK,2143,30076800,24,9730215,1389647,300768000*74

1612351951000,$GPGGA,113230.000,4540.3653,N,01156.0205,E,1,24,0.4,44.4,M,47.1,M,,*68

1612351951000,$PSAMSA,113230.000,4540.3653,N,01156.0205,E,1,M,,*68

1612351951000,$GPGLL,4540.3653,N,01156.0205,E,113230.000,A,A*59

1612351951000,$GPVTG,6.7,T,,M,0.0,N,0.0,K,A*0C

1612351951000,$GPGSV,3,1,12,05,06,195,25,10,08,328,28,13,63,141,44,14,35,051,38*74

1612351951000,$GPGSV,3,2,12,15,69,268,43,17,33,103,39,19,24,130,39,20,21,297,43*79

1612351951000,$GPGSV,3,3,12,23,24,301,42,24,43,284,41,28,43,052,38,30,11,085,32*7D

1612351951000,$GLGSV,2,1,06,65,06,169,43,66,60,210,46,67,45,314,45,75,20,052,40*6F

1612351951000,$GLGSV,2,2,06,76,68,005,45,85,17,061,40*60

1612351951000,$GAGSV,1,1,04,104,32,157,39,105,32,309,39,109,71,237,29,131,88,233,35*60

1612351951000,$BDGSV,2,1,08,205,23,121,36,210,23,051,36,219,50,238,33,222,30,307,15*66

1612351951000,$BDGSV,2,2,08,227,12,121,35,228,18,069,35,236,32,260,40,237,34,066,39*65

1612351951000,$GPGSA,A,3,15,13,28,24,14,17,19,20,30,10,05,,0.8,0.4,0.6*3C

1612351951000,$GNGSA,A,3,65,66,67,76,85,,,,,,,,0.8,0.4,0.6*28

1612351951000,$GAGSA,A,3,104,105,131,,,,,,,,,,0.8,0.4,0.6*1B

1612351951000,$BDGSA,A,3,219,227,228,236,237,,,,,,,,0.8,0.4,0.6*1D

1612351951000,$GPRMC,113230.000,A,4540.3653,N,01156.0205,E,0.0,6.7,030221,,,A*6D

1612351951000,$PSAMCLK,2143,30076800,24,9730215,1389647,300768000*74

1612351952000,$PSAMCLK,2143,30076900,24,9730218,1451410,300769000*7B

1612351952000,$GPGGA,113231.000,4540.3653,N,01156.0205,E,1,24,0.4,44.4,M,47.1,M,,*69

1612351952000,$PSAMSA,113231.000,4540.3653,N,01156.0205,E,1,M,,*69

1612351952000,$GPGLL,4540.3653,N,01156.0205,E,113231.000,A,A*58

1612351952000,$GPVTG,6.7,T,,M,0.0,N,0.0,K,A*0C

1612351952000,$GPGSV,3,1,12,05,06,195,25,10,08,328,29,13,63,141,45,14,35,051,37*7B

1612351952000,$GPGSV,3,2,12,15,69,268,43,17,33,103,39,19,24,130,39,20,21,297,43*79

1612351952000,$GPGSV,3,3,12,23,24,301,41,24,43,284,41,28,43,052,39,30,11,085,32*7F

1612351952000,$GLGSV,2,1,06,65,06,169,43,66,60,210,46,67,45,314,45,75,20,052,40*6F

1612351952000,$GLGSV,2,2,06,76,68,005,45,85,17,061,40*60

1612351952000,$GAGSV,1,1,04,104,32,157,39,105,32,309,39,109,71,237,27,131,88,233,37*6C

1612351952000,$BDGSV,2,1,08,205,23,121,36,210,23,051,36,219,50,238,33,222,30,307,14*67

1612351952000,$BDGSV,2,2,08,227,12,121,35,228,18,069,35,236,32,260,40,237,34,066,39*65

1612351952000,$GPGSA,A,3,15,13,28,24,14,17,19,20,30,10,05,,0.8,0.4,0.6*3C

1612351952000,$GNGSA,A,3,65,66,67,76,85,,,,,,,,0.8,0.4,0.6*28

1612351952000,$GAGSA,A,3,104,105,131,,,,,,,,,,0.8,0.4,0.6*1B

1612351952000,$BDGSA,A,3,219,227,228,236,237,,,,,,,,0.8,0.4,0.6*1D

1612351952000,$GPRMC,113231.000,A,4540.3653,N,01156.0205,E,0.0,6.7,030221,,,A*6C

1612351952000,$PSAMCLK,2143,30076900,24,9730218,1451410,300769000*7B

1612351953000,$PSAMCLK,2143,30077000,23,9730232,1513173,300770000*73

1612351953000,$GPGGA,113232.000,4540.3653,N,01156.0205,E,1,23,0.4,44.4,M,47.1,M,,*6D

1612351953000,$PSAMSA,113232.000,4540.3653,N,01156.0205,E,1,M,,*6A

1612351953000,$GPGLL,4540.3653,N,01156.0205,E,113232.000,A,A*5B

1612351953000,$GPVTG,6.7,T,,M,0.0,N,0.0,K,A*0C

1612351953000,$GPGSV,3,1,12,05,06,195,25,10,08,328,29,13,63,141,45,14,35,051,37*7B

1612351953000,$GPGSV,3,2,12,15,69,268,43,17,33,103,39,19,24,130,39,20,21,297,43*79

1612351953000,$GPGSV,3,3,12,23,24,301,41,24,43,284,41,28,43,052,39,30,11,085,32*7F

1612351953000,$GLGSV,2,1,06,65,06,169,43,66,60,210,46,67,45,314,45,75,20,052,40*6F

1612351953000,$GLGSV,2,2,06,76,68,005,45,85,17,061,40*60

1612351953000,$GAGSV,1,1,04,104,32,157,39,105,32,309,39,109,71,237,26,131,88,233,39*63

1612351953000,$BDGSV,2,1,08,205,23,121,36,210,23,051,36,219,50,238,42,222,30,307,13*66

1612351953000,$BDGSV,2,2,08,227,12,121,35,228,18,069,35,236,32,260,39,237,34,066,39*6B

1612351953000,$GPGSA,A,3,15,13,28,24,17,19,20,30,10,05,,,0.8,0.4,0.6*39

1612351953000,$GNGSA,A,3,65,66,67,76,85,,,,,,,,0.8,0.4,0.6*28

1612351953000,$GAGSA,A,3,104,105,131,,,,,,,,,,0.8,0.4,0.6*1B

1612351953000,$BDGSA,A,3,219,227,228,236,237,,,,,,,,0.8,0.4,0.6*1D

1612351953000,$GPRMC,113232.000,A,4540.3653,N,01156.0205,E,0.0,6.7,030221,,,A*6F

1612351953000,$PSAMCLK,2143,30077000,23,9730232,1513173,300770000*73

1612351954000,$PSAMCLK,2143,30077100,22,9730225,1574936,300771000*7C

1612351954000,$GPGGA,113233.000,4540.3653,N,01156.0205,E,1,22,0.4,44.4,M,47.1,M,,*6D

1612351954000,$PSAMSA,113233.000,4540.3653,N,01156.0205,E,1,M,,*6B

1612351954000,$GPGLL,4540.3653,N,01156.0205,E,113233.000,A,A*5A

1612351954000,$GPVTG,6.7,T,,M,0.0,N,0.0,K,A*0C

1612351954000,$GPGSV,3,1,12,05,06,195,25,10,08,328,29,13,63,141,46,14,35,051,36*79

1612351954000,$GPGSV,3,2,12,15,69,268,44,17,33,103,39,19,24,130,39,20,21,297,43*7E

1612351954000,$GPGSV,3,3,12,23,24,301,41,24,43,284,40,28,43,052,39,30,11,085,33*7F

1612351954000,$GLGSV,2,1,06,65,06,169,43,66,60,210,47,67,45,314,45,75,20,052,39*60

1612351954000,$GLGSV,2,2,06,76,68,005,45,85,17,061,40*60

1612351954000,$GAGSV,1,1,04,104,32,157,38,105,32,309,39,109,71,237,24,131,88,233,39*60

1612351954000,$BDGSV,2,1,08,205,23,121,36,210,23,051,36,219,50,238,43,222,30,307,13*67

1612351954000,$BDGSV,2,2,08,227,12,121,35,228,18,069,35,236,32,260,39,237,34,066,39*6B

1612351954000,$GPGSA,A,3,15,13,28,24,14,17,19,20,30,10,,,1.0,0.4,0.8*3E

1612351954000,$GNGSA,A,3,65,67,76,85,,,,,,,,,1.0,0.4,0.8*2F

1612351954000,$GAGSA,A,3,104,105,131,,,,,,,,,,1.0,0.4,0.8*1C

1612351954000,$BDGSA,A,3,219,227,228,236,237,,,,,,,,1.0,0.4,0.8*1A

1612351954000,$GPRMC,113233.000,A,4540.3653,N,01156.0205,E,0.0,6.7,030221,,,A*6E

1612351954000,$PSAMCLK,2143,30077100,22,9730225,1574936,300771000*7C

1612351955000,$PSAMCLK,2143,30077200,22,9730245,1636700,300772000*74

1612351955000,$GPGGA,113234.000,4540.3653,N,01156.0205,E,1,22,0.4,44.4,M,47.1,M,,*6A

1612351955000,$PSAMSA,113234.000,4540.3653,N,01156.0205,E,1,M,,*6C

1612351955000,$GPGLL,4540.3653,N,01156.0205,E,113234.000,A,A*5D

1612351955000,$GPVTG,6.7,T,,M,0.0,N,0.0,K,A*0C

1612351955000,$GPGSV,3,1,12,05,06,195,25,10,08,328,29,13,63,141,46,14,35,051,35*7A

1612351955000,$GPGSV,3,2,12,15,69,268,44,17,33,103,39,19,24,130,39,20,21,297,43*7E

1612351955000,$GPGSV,3,3,12,23,24,301,41,24,43,284,40,28,43,052,39,30,11,085,33*7F

1612351955000,$GLGSV,2,1,06,65,06,169,43,66,60,210,47,67,45,314,45,75,20,052,39*60

1612351955000,$GLGSV,2,2,06,76,68,005,45,85,17,061,40*60

1612351955000,$GAGSV,1,1,04,104,32,157,38,105,32,309,39,109,71,237,23,131,88,233,40*69

1612351955000,$BDGSV,2,1,08,205,23,121,36,210,23,051,36,219,50,238,43,222,30,307,12*66

1612351955000,$BDGSV,2,2,08,227,12,121,34,228,18,069,35,236,32,260,39,237,34,066,39*6A

1612351955000,$GPGSA,A,3,15,13,28,24,14,17,19,20,30,10,,,1.0,0.4,0.8*3E

1612351955000,$GNGSA,A,3,65,67,76,85,,,,,,,,,1.0,0.4,0.8*2F

1612351955000,$GAGSA,A,3,104,105,131,,,,,,,,,,1.0,0.4,0.8*1C

1612351955000,$BDGSA,A,3,219,227,228,236,237,,,,,,,,1.0,0.4,0.8*1A

1612351955000,$GPRMC,113234.000,A,4540.3653,N,01156.0205,E,0.0,6.7,030221,,,A*69

1612351955000,$PSAMCLK,2143,30077200,22,9730245,1636700,300772000*74

1612351956000,$PSAMCLK,2143,30077300,21,9730272,1698463,300773000*71

1612351956000,$GPGGA,113235.000,4540.3653,N,01156.0205,E,1,21,0.4,44.4,M,47.1,M,,*68

1612351956000,$PSAMSA,113235.000,4540.3653,N,01156.0205,E,1,M,,*6D

1612351956000,$GPGLL,4540.3653,N,01156.0205,E,113235.000,A,A*5C

1612351956000,$GPVTG,6.7,T,,M,0.0,N,0.0,K,A*0C

1612351956000,$GPGSV,3,1,12,05,06,195,25,10,08,328,29,13,63,141,46,14,35,051,35*7A

1612351956000,$GPGSV,3,2,12,15,69,268,44,17,33,103,39,19,24,130,39,20,21,297,43*7E

1612351956000,$GPGSV,3,3,12,23,24,301,40,24,43,284,40,28,43,052,39,30,11,085,34*79

1612351956000,$GLGSV,2,1,06,65,06,169,43,66,60,210,47,67,45,314,45,75,20,052,39*60

1612351956000,$GLGSV,2,2,06,76,68,005,45,85,17,061,40*60

1612351956000,$GAGSV,1,1,04,104,32,157,38,105,32,309,39,109,71,237,21,131,88,233,40*6B

1612351956000,$BDGSV,2,1,07,205,23,121,36,210,23,051,36,219,50,238,43,227,12,121,34*6E

1612351956000,$BDGSV,2,2,07,228,18,069,36,236,32,260,39,237,34,066,39*67

1612351956000,$GPGSA,A,3,15,13,28,24,14,17,19,20,30,10,,,1.0,0.4,0.8*3E

1612351956000,$GNGSA,A,3,65,67,85,,,,,,,,,,1.0,0.4,0.8*2E

1612351956000,$GAGSA,A,3,104,105,131,,,,,,,,,,1.0,0.4,0.8*1C

1612351956000,$BDGSA,A,3,219,227,228,236,237,,,,,,,,1.0,0.4,0.8*1A

1612351956000,$GPRMC,113235.000,A,4540.3653,N,01156.0205,E,0.0,6.7,030221,,,A*68

1612351956000,$PSAMCLK,2143,30077300,21,9730272,1698463,300773000*71

1612351957000,$PSAMCLK,2143,30077400,20,9730322,1760226,300774000*75

1612351957000,$GPGGA,113236.000,4540.3653,N,01156.0205,E,1,20,0.6,44.4,M,47.1,M,,*68

1612351957000,$PSAMSA,113236.000,4540.3653,N,01156.0205,E,1,M,,*6E

1612351957000,$GPGLL,4540.3653,N,01156.0205,E,113236.000,A,A*5F

1612351957000,$GPVTG,6.7,T,,M,0.0,N,0.0,K,A*0C

1612351957000,$GPGSV,3,1,12,05,06,195,25,10,08,328,29,13,63,141,47,14,35,051,34*7A

1612351957000,$GPGSV,3,2,12,15,69,268,44,17,33,103,39,19,24,130,39,20,21,297,43*7E

1612351957000,$GPGSV,3,3,12,23,24,301,40,24,43,284,39,28,43,052,39,30,11,085,34*77

1612351957000,$GLGSV,2,1,06,65,06,169,43,66,60,210,47,67,45,314,45,75,20,052,39*60

1612351957000,$GLGSV,2,2,06,76,68,005,45,85,17,061,40*60

1612351957000,$GAGSV,1,1,04,104,32,157,38,105,32,309,38,109,71,237,20,131,88,233,40*6B

1612351957000,$BDGSV,2,1,07,205,23,121,35,210,23,051,35,219,50,238,43,227,12,121,34*6E

1612351957000,$BDGSV,2,2,07,228,18,069,36,236,32,260,39,237,34,066,39*67

1612351957000,$GPGSA,A,3,15,13,28,24,14,17,19,20,30,10,,,1.0,0.6,0.8*3C

1612351957000,$GNGSA,A,3,65,85,,,,,,,,,,,1.0,0.6,0.8*2D

1612351957000,$GAGSA,A,3,104,105,131,,,,,,,,,,1.0,0.6,0.8*1E

1612351957000,$BDGSA,A,3,219,227,228,236,237,,,,,,,,1.0,0.6,0.8*18

1612351957000,$GPRMC,113236.000,A,4540.3653,N,01156.0205,E,0.0,6.7,030221,,,A*6B

1612351957000,$PSAMCLK,2143,30077400,20,9730322,1760226,300774000*75

1612351958000,$PSAMCLK,2143,30077500,22,9730367,1821990,300775000*7A

1612351958000,$GPGGA,113237.000,4540.3653,N,01156.0205,E,1,22,0.4,44.4,M,47.1,M,,*69

1612351958000,$PSAMSA,113237.000,4540.3653,N,01156.0205,E,1,M,,*6F

1612351958000,$GPGLL,4540.3653,N,01156.0205,E,113237.000,A,A*5E

1612351958000,$GPVTG,6.7,T,,M,0.0,N,0.0,K,A*0C

1612351958000,$GPGSV,3,1,12,05,06,195,25,10,08,328,29,13,63,141,47,14,35,051,34*7A

1612351958000,$GPGSV,3,2,12,15,69,268,45,17,33,103,39,19,24,130,39,20,21,297,43*7F

1612351958000,$GPGSV,3,3,12,23,24,301,40,24,43,284,39,28,43,052,39,30,11,085,34*77

1612351958000,$GLGSV,2,1,06,65,06,169,43,66,60,210,47,67,45,314,45,75,20,052,38*61

1612351958000,$GLGSV,2,2,06,76,68,005,45,85,17,061,40*60

1612351958000,$GAGSV,1,1,04,104,32,157,38,105,32,309,38,109,71,237,18,131,88,233,41*61

1612351958000,$BDGSV,2,1,07,205,23,121,35,210,23,051,35,219,50,238,44,227,12,121,34*69

1612351958000,$BDGSV,2,2,07,228,18,069,36,236,32,260,40,237,34,066,39*69

1612351958000,$GPGSA,A,3,15,13,28,24,17,19,20,30,10,,,,1.0,0.4,0.8*3B

1612351958000,$GNGSA,A,3,65,66,67,76,85,,,,,,,,1.0,0.4,0.8*2F

1612351958000,$GAGSA,A,3,104,105,131,,,,,,,,,,1.0,0.4,0.8*1C

1612351958000,$BDGSA,A,3,219,227,228,236,237,,,,,,,,1.0,0.4,0.8*1A

1612351958000,$GPRMC,113237.000,A,4540.3653,N,01156.0205,E,0.0,6.7,030221,,,A*6A

1612351958000,$PSAMCLK,2143,30077500,22,9730367,1821990,300775000*7A

1612351959000,$PSAMCLK,2143,30077600,23,9730411,1883755,300776000*72

1612351959000,$GPGGA,113238.000,4540.3653,N,01156.0205,E,1,23,0.4,44.4,M,47.1,M,,*67

1612351959000,$PSAMSA,113238.000,4540.3653,N,01156.0205,E,1,M,,*60

1612351959000,$GPGLL,4540.3653,N,01156.0205,E,113238.000,A,A*51

1612351959000,$GPVTG,6.7,T,,M,0.0,N,0.0,K,A*0C

1612351959000,$GPGSV,3,1,12,05,06,195,25,10,08,328,29,13,63,141,47,14,35,051,33*7D

1612351959000,$GPGSV,3,2,12,15,69,268,45,17,33,103,39,19,24,130,39,20,21,297,43*7F

1612351959000,$GPGSV,3,3,12,23,24,301,40,24,43,284,39,28,43,052,39,30,11,085,35*76

1612351959000,$GLGSV,2,1,06,65,06,169,43,66,60,210,47,67,45,314,45,75,20,052,38*61

1612351959000,$GLGSV,2,2,06,76,68,005,45,85,17,061,40*60

1612351959000,$GAGSV,1,1,04,104,32,157,38,105,32,309,38,109,71,237,17,131,88,233,41*6E

1612351959000,$BDGSV,2,1,07,205,23,121,35,210,23,051,36,219,50,238,44,227,12,121,34*6A

1612351959000,$BDGSV,2,2,07,228,18,069,37,236,32,260,40,237,34,066,39*68

1612351959000,$GPGSA,A,3,15,13,28,24,17,19,20,30,10,05,,,0.8,0.4,0.6*39

1612351959000,$GNGSA,A,3,65,66,67,76,85,,,,,,,,0.8,0.4,0.6*28

1612351959000,$GAGSA,A,3,104,105,131,,,,,,,,,,0.8,0.4,0.6*1B

1612351959000,$BDGSA,A,3,219,227,228,236,237,,,,,,,,0.8,0.4,0.6*1D

1612351959000,$GPRMC,113238.000,A,4540.3653,N,01156.0205,E,0.0,6.7,030221,,,A*65

1612351959000,$PSAMCLK,2143,30077600,23,9730411,1883755,300776000*72

1612351960000,$PSAMCLK,2143,30077700,23,9730425,1945520,300777000*7E

1612351960000,$GPGGA,113239.000,4540.3653,N,01156.0205,E,1,23,0.4,44.4,M,47.1,M,,*66

1612351960000,$PSAMSA,113239.000,4540.3653,N,01156.0205,E,1,M,,*61

1612351960000,$GPGLL,4540.3653,N,01156.0205,E,113239.000,A,A*50

1612351960000,$GPVTG,6.7,T,,M,0.0,N,0.0,K,A*0C

1612351960000,$GPGSV,3,1,12,05,06,195,25,10,08,328,29,13,63,142,47,14,35,051,33*7E

1612351960000,$GPGSV,3,2,12,15,69,268,45,17,33,103,39,19,24,130,39,20,21,297,43*7F

1612351960000,$GPGSV,3,3,12,23,24,301,40,24,43,284,38,28,43,052,39,30,11,085,35*77

1612351960000,$GLGSV,2,1,06,65,06,169,43,66,60,210,47,67,45,314,45,75,20,052,38*61

1612351960000,$GLGSV,2,2,06,76,68,005,45,85,17,061,40*60

1612351960000,$GAGSV,1,1,04,104,32,157,38,105,32,309,38,109,71,237,15,131,88,233,41*6C

1612351960000,$BDGSV,2,1,07,205,23,121,34,210,23,051,36,219,50,237,44,227,12,121,34*64

1612351960000,$BDGSV,2,2,07,228,18,069,37,236,32,260,41,237,34,066,39*69

1612351960000,$GPGSA,A,3,15,13,28,24,14,17,19,20,30,10,,,1.0,0.4,0.8*3E

1612351960000,$GNGSA,A,3,65,66,67,76,85,,,,,,,,1.0,0.4,0.8*2F

1612351960000,$GAGSA,A,3,104,105,131,,,,,,,,,,1.0,0.4,0.8*1C

1612351960000,$BDGSA,A,3,219,227,228,236,237,,,,,,,,1.0,0.4,0.8*1A

1612351960000,$GPRMC,113239.000,A,4540.3653,N,01156.0205,E,0.0,6.7,030221,,,A*64

1612351960000,$PSAMCLK,2143,30077700,23,9730425,1945520,300777000*7E

1612351961000,$PSAMCLK,2143,30077800,22,9730438,2007285,300778000*77

1612351961000,$GPGGA,113240.000,4540.3653,N,01156.0205,E,1,22,0.4,44.4,M,47.1,M,,*69

1612351961000,$PSAMSA,113240.000,4540.3653,N,01156.0205,E,1,M,,*6F

1612351961000,$GPGLL,4540.3653,N,01156.0205,E,113240.000,A,A*5E

1612351961000,$GPVTG,6.7,T,,M,0.0,N,0.0,K,A*0C

1612351961000,$GPGSV,3,1,12,05,06,195,25,10,08,328,29,13,63,142,47,14,35,051,32*7F

1612351961000,$GPGSV,3,2,12,15,69,268,45,17,33,103,39,19,24,130,39,20,21,297,43*7F

1612351961000,$GPGSV,3,3,12,23,24,301,40,24,43,284,38,28,43,052,39,30,11,085,35*77

1612351961000,$GLGSV,2,1,06,65,06,169,43,66,60,210,47,67,45,314,45,75,20,052,38*61

1612351961000,$GLGSV,2,2,06,76,68,005,45,85,17,061,40*60

1612351961000,$GAGSV,1,1,04,104,32,157,38,105,32,309,38,109,71,237,14,131,88,233,41*6D

1612351961000,$BDGSV,2,1,07,205,23,121,32,210,23,051,36,219,50,237,44,227,12,121,34*62

1612351961000,$BDGSV,2,2,07,228,18,069,37,236,32,260,41,237,34,066,39*69

1612351961000,$GPGSA,A,3,15,13,28,24,17,19,20,30,10,,,,1.0,0.4,0.8*3B

1612351961000,$GNGSA,A,3,65,66,67,76,85,,,,,,,,1.0,0.4,0.8*2F

1612351961000,$GAGSA,A,3,104,105,131,,,,,,,,,,1.0,0.4,0.8*1C

1612351961000,$BDGSA,A,3,219,227,228,236,237,,,,,,,,1.0,0.4,0.8*1A

1612351961000,$GPRMC,113240.000,A,4540.3653,N,01156.0205,E,0.0,6.7,030221,,,A*6A

1612351961000,$PSAMCLK,2143,30077800,22,9730438,2007285,300778000*77

1612351962000,$PSAMCLK,2143,30077900,22,9730436,2069050,300779000*7B

1612351962000,$GPGGA,113241.000,4540.3653,N,01156.0205,E,1,22,0.4,44.4,M,47.1,M,,*68

1612351962000,$PSAMSA,113241.000,4540.3653,N,01156.0205,E,1,M,,*6E

1612351962000,$GPGLL,4540.3653,N,01156.0205,E,113241.000,A,A*5F

1612351962000,$GPVTG,6.7,T,,M,0.0,N,0.0,K,A*0C

1612351962000,$GPGSV,4,1,13,05,06,195,25,10,08,328,29,12,13,217,22,13,63,142,48*75

1612351962000,$GPGSV,4,2,13,14,35,051,31,15,69,268,45,17,33,103,39,19,24,130,39*76

1612351962000,$GPGSV,4,3,13,20,21,297,43,23,24,301,40,24,43,284,38,28,43,052,39*73

1612351962000,$GPGSV,4,4,13,30,11,085,35*43

1612351962000,$GLGSV,2,1,06,65,06,169,43,66,60,210,47,67,45,314,45,75,20,052,38*61

1612351962000,$GLGSV,2,2,06,76,68,005,45,85,17,061,40*60

1612351962000,$GAGSV,1,1,04,104,32,157,38,105,32,309,37,109,71,237,13,131,88,233,41*65

1612351962000,$BDGSV,2,1,07,205,23,121,38,210,23,051,36,219,50,237,44,227,12,121,34*68

1612351962000,$BDGSV,2,2,07,228,18,069,38,236,32,260,41,237,34,066,39*66

1612351962000,$GPGSA,A,3,15,13,28,24,17,19,20,30,10,,,,1.0,0.4,0.8*3B

1612351962000,$GNGSA,A,3,65,66,67,76,85,,,,,,,,1.0,0.4,0.8*2F

1612351962000,$GAGSA,A,3,104,105,131,,,,,,,,,,1.0,0.4,0.8*1C

1612351962000,$BDGSA,A,3,219,227,228,236,237,,,,,,,,1.0,0.4,0.8*1A

1612351962000,$GPRMC,113241.000,A,4540.3653,N,01156.0205,E,0.0,6.7,030221,,,A*6B

1612351962000,$PSAMCLK,2143,30077900,22,9730436,2069050,300779000*7B

1612351963000,$PSAMCLK,2143,30078000,23,9730443,2130815,300780000*7C

1612351963000,$GPGGA,113242.000,4540.3653,N,01156.0205,E,1,23,0.4,44.4,M,47.1,M,,*6A

1612351963000,$PSAMSA,113242.000,4540.3653,N,01156.0205,E,1,M,,*6D

1612351963000,$GPGLL,4540.3653,N,01156.0205,E,113242.000,A,A*5C

1612351963000,$GPVTG,6.7,T,,M,0.0,N,0.0,K,A*0C

1612351963000,$GPGSV,4,1,13,05,06,195,25,10,08,328,29,12,13,217,23,13,63,142,48*74

1612351963000,$GPGSV,4,2,13,14,35,051,29,15,69,268,45,17,33,103,39,19,24,130,39*7F

1612351963000,$GPGSV,4,3,13,20,21,296,43,23,24,301,40,24,43,284,38,28,43,052,39*72

1612351963000,$GPGSV,4,4,13,30,11,085,36*40

1612351963000,$GLGSV,2,1,06,65,06,169,43,66,60,210,47,67,45,314,45,75,20,052,38*61

1612351963000,$GLGSV,2,2,06,76,68,005,45,85,17,061,41*61

1612351963000,$GAGSV,1,1,04,104,32,157,38,105,32,309,37,109,71,237,13,131,88,233,41*65

1612351963000,$BDGSV,2,1,07,205,23,121,38,210,23,051,36,219,50,237,44,227,13,121,34*69

1612351963000,$BDGSV,2,2,07,228,18,069,38,236,32,260,42,237,34,066,39*65

1612351963000,$GPGSA,A,3,15,13,28,24,17,19,20,30,10,05,,,0.8,0.4,0.6*39

1612351963000,$GNGSA,A,3,65,66,67,76,85,,,,,,,,0.8,0.4,0.6*28

1612351963000,$GAGSA,A,3,104,105,131,,,,,,,,,,0.8,0.4,0.6*1B

1612351963000,$BDGSA,A,3,219,227,228,236,237,,,,,,,,0.8,0.4,0.6*1D

1612351963000,$GPRMC,113242.000,A,4540.3653,N,01156.0205,E,0.0,6.7,030221,,,A*68

1612351963000,$PSAMCLK,2143,30078000,23,9730443,2130815,300780000*7C

1612351964000,$PSAMCLK,2143,30078100,20,9730450,2192579,300781000*72

1612351964000,$GPGGA,113243.000,4540.3653,N,01156.0205,E,1,20,0.6,44.4,M,47.1,M,,*6A

1612351964000,$PSAMSA,113243.000,4540.3653,N,01156.0205,E,1,M,,*6C

1612351964000,$GPGLL,4540.3653,N,01156.0205,E,113243.000,A,A*5D

1612351964000,$GPVTG,6.7,T,,M,0.0,N,0.0,K,A*0C

1612351964000,$GPGSV,4,1,13,05,06,195,25,10,08,328,29,12,13,217,24,13,63,142,48*73

1612351964000,$GPGSV,4,2,13,14,35,051,28,15,69,268,45,17,33,103,39,19,24,130,39*7E

1612351964000,$GPGSV,4,3,13,20,21,296,43,23,24,301,40,24,43,284,37,28,43,052,39*7D

1612351964000,$GPGSV,4,4,13,30,11,085,36*40

1612351964000,$GLGSV,2,1,06,65,06,169,43,66,60,210,47,67,45,314,45,75,20,052,38*61

1612351964000,$GLGSV,2,2,06,76,68,005,45,85,17,061,41*61

1612351964000,$GAGSV,1,1,03,104,32,157,38,105,32,309,37,131,88,233,42*6B

1612351964000,$BDGSV,2,1,07,205,23,121,38,210,23,051,36,219,50,237,44,227,13,121,34*69

1612351964000,$BDGSV,2,2,07,228,18,069,38,236,32,260,42,237,34,066,39*65

1612351964000,$GPGSA,A,3,15,13,28,24,17,19,20,30,10,,,,1.0,0.6,0.8*39

1612351964000,$GNGSA,A,3,65,67,76,,,,,,,,,,1.0,0.6,0.8*20

1612351964000,$GAGSA,A,3,104,105,131,,,,,,,,,,1.0,0.6,0.8*1E

1612351964000,$BDGSA,A,3,219,227,228,236,237,,,,,,,,1.0,0.6,0.8*18

1612351964000,$GPRMC,113243.000,A,4540.3653,N,01156.0205,E,0.0,6.7,030221,,,A*69

1612351964000,$PSAMCLK,2143,30078100,20,9730450,2192579,300781000*72

1612351965000,$PSAMCLK,2143,30078200,22,9730454,2254344,300782000*75

1612351965000,$GPGGA,113244.000,4540.3653,N,01156.0205,E,1,22,0.4,44.4,M,47.1,M,,*6D

1612351965000,$PSAMSA,113244.000,4540.3653,N,01156.0205,E,1,M,,*6B

1612351965000,$GPGLL,4540.3653,N,01156.0205,E,113244.000,A,A*5A

1612351965000,$GPVTG,6.7,T,,M,0.0,N,0.0,K,A*0C

1612351965000,$GPGSV,4,1,13,05,06,195,25,10,08,328,29,12,13,217,25,13,63,142,48*72

1612351965000,$GPGSV,4,2,13,14,35,051,26,15,69,268,45,17,33,103,39,19,24,130,38*71

1612351965000,$GPGSV,4,3,13,20,21,296,43,23,24,300,39,24,43,284,37,28,43,052,39*72

1612351965000,$GPGSV,4,4,13,30,11,085,36*40

1612351965000,$GLGSV,2,1,06,65,06,169,43,66,60,210,47,67,45,314,45,75,20,052,38*61

1612351965000,$GLGSV,2,2,06,76,68,005,45,85,17,061,41*61

1612351965000,$GAGSV,1,1,03,104,32,157,38,105,32,309,37,131,88,233,42*6B

1612351965000,$BDGSV,2,1,07,205,23,121,38,210,23,051,36,219,50,237,44,227,13,121,35*68

1612351965000,$BDGSV,2,2,07,228,18,069,38,236,32,260,42,237,34,066,39*65

1612351965000,$GPGSA,A,3,15,13,28,24,17,19,20,30,10,,,,1.0,0.4,0.8*3B

1612351965000,$GNGSA,A,3,65,66,67,76,85,,,,,,,,1.0,0.4,0.8*2F

1612351965000,$GAGSA,A,3,104,105,131,,,,,,,,,,1.0,0.4,0.8*1C

1612351965000,$BDGSA,A,3,219,227,228,236,237,,,,,,,,1.0,0.4,0.8*1A

1612351965000,$GPRMC,113244.000,A,4540.3653,N,01156.0205,E,0.0,6.7,030221,,,A*6E

1612351965000,$PSAMCLK,2143,30078200,22,9730454,2254344,300782000*75

1612351966000,$PSAMCLK,2143,30078300,21,9730443,2316108,300783000*7D

1612351966000,$GPGGA,113245.000,4540.3653,N,01156.0205,E,1,21,0.6,44.4,M,47.1,M,,*6D

1612351966000,$PSAMSA,113245.000,4540.3653,N,01156.0205,E,1,M,,*6A

1612351966000,$GPGLL,4540.3653,N,01156.0205,E,113245.000,A,A*5B

1612351966000,$GPVTG,6.7,T,,M,0.0,N,0.0,K,A*0C

1612351966000,$GPGSV,4,1,13,05,06,195,25,10,08,328,29,12,13,217,25,13,63,142,48*72

1612351966000,$GPGSV,4,2,13,14,35,051,25,15,69,268,45,17,33,103,39,19,24,130,38*72

1612351966000,$GPGSV,4,3,13,20,21,296,43,23,24,300,39,24,43,284,37,28,43,052,39*72

1612351966000,$GPGSV,4,4,13,30,11,085,36*40

1612351966000,$GLGSV,2,1,06,65,06,169,43,66,60,210,47,67,45,314,45,75,20,052,37*6E

1612351966000,$GLGSV,2,2,06,76,68,005,45,85,17,061,41*61

1612351966000,$GAGSV,1,1,03,104,32,157,38,105,32,309,37,131,88,233,42*6B

1612351966000,$BDGSV,2,1,07,205,23,121,38,210,23,051,36,219,50,237,44,227,13,121,35*68

1612351966000,$BDGSV,2,2,07,228,18,069,38,236,32,260,42,237,33,066,39*62

1612351966000,$GPGSA,A,3,15,13,28,24,17,19,20,30,10,,,,1.0,0.6,0.8*39

1612351966000,$GNGSA,A,3,65,67,76,85,,,,,,,,,1.0,0.6,0.8*2D

1612351966000,$GAGSA,A,3,104,105,131,,,,,,,,,,1.0,0.6,0.8*1E

1612351966000,$BDGSA,A,3,219,227,228,236,237,,,,,,,,1.0,0.6,0.8*18

1612351966000,$GPRMC,113245.000,A,4540.3653,N,01156.0205,E,0.0,6.7,030221,,,A*6F

1612351966000,$PSAMCLK,2143,30078300,21,9730443,2316108,300783000*7D

1612351967000,$PSAMCLK,2143,30078400,20,9730433,2377873,300784000*79

1612351967000,$GPGGA,113246.000,4540.3653,N,01156.0205,E,1,20,0.6,44.4,M,47.1,M,,*6F

1612351967000,$PSAMSA,113246.000,4540.3653,N,01156.0205,E,1,M,,*69

1612351967000,$GPGLL,4540.3653,N,01156.0205,E,113246.000,A,A*58

1612351967000,$GPVTG,6.7,T,,M,0.0,N,0.0,K,A*0C

1612351967000,$GPGSV,4,1,13,05,06,195,25,10,08,328,29,12,13,217,25,13,63,142,48*72

1612351967000,$GPGSV,4,2,13,14,35,051,23,15,69,268,45,17,33,103,39,19,24,130,38*74

1612351967000,$GPGSV,4,3,13,20,21,296,43,23,24,300,39,24,43,284,37,28,43,052,39*72

1612351967000,$GPGSV,4,4,13,30,11,085,36*40

1612351967000,$GLGSV,2,1,06,65,05,169,43,66,60,210,47,67,45,313,45,75,20,052,37*6A

1612351967000,$GLGSV,2,2,06,76,68,005,45,85,18,061,41*6E

1612351967000,$GAGSV,1,1,03,104,32,157,38,105,32,309,37,131,88,233,42*6B

1612351967000,$BDGSV,2,1,07,205,23,121,38,210,23,051,36,219,50,237,44,227,13,121,35*68

1612351967000,$BDGSV,2,2,07,228,18,069,38,236,32,260,43,237,33,066,39*63

1612351967000,$GPGSA,A,3,15,13,28,24,17,19,20,30,10,,,,1.0,0.6,0.8*39

1612351967000,$GNGSA,A,3,65,67,85,,,,,,,,,,1.0,0.6,0.8*2C

1612351967000,$GAGSA,A,3,104,105,131,,,,,,,,,,1.0,0.6,0.8*1E

1612351967000,$BDGSA,A,3,219,227,228,236,237,,,,,,,,1.0,0.6,0.8*18

1612351967000,$GPRMC,113246.000,A,4540.3653,N,01156.0205,E,0.0,6.7,030221,,,A*6C

1612351967000,$PSAMCLK,2143,30078400,20,9730433,2377873,300784000*79

1612351968000,$PSAMCLK,2143,30078500,22,9730402,2439636,300785000*7B

1612351968000,$GPGGA,113247.000,4540.3653,N,01156.0205,E,1,22,0.4,44.4,M,47.1,M,,*6E

1612351968000,$PSAMSA,113247.000,4540.3653,N,01156.0205,E,1,M,,*68

1612351968000,$GPGLL,4540.3653,N,01156.0205,E,113247.000,A,A*59

1612351968000,$GPVTG,6.7,T,,M,0.0,N,0.0,K,A*0C

1612351968000,$GPGSV,4,1,13,05,06,195,24,10,08,328,29,12,13,217,25,13,63,142,48*73

1612351968000,$GPGSV,4,2,13,14,35,051,22,15,69,268,45,17,33,103,39,19,24,130,38*75

1612351968000,$GPGSV,4,3,13,20,21,296,43,23,24,300,39,24,43,284,37,28,43,052,39*72

1612351968000,$GPGSV,4,4,13,30,11,085,36*40

1612351968000,$GLGSV,2,1,06,65,05,169,43,66,60,210,47,67,45,313,45,75,20,052,37*6A

1612351968000,$GLGSV,2,2,06,76,68,005,45,85,18,061,41*6E

1612351968000,$GAGSV,1,1,03,104,32,157,38,105,32,309,36,131,88,233,42*6A

1612351968000,$BDGSV,2,1,07,205,23,121,38,210,23,051,36,219,50,237,44,227,13,121,35*68

1612351968000,$BDGSV,2,2,07,228,18,069,38,236,32,260,43,237,33,066,39*63

1612351968000,$GPGSA,A,3,15,13,28,24,17,19,20,30,10,,,,1.0,0.4,0.8*3B

1612351968000,$GNGSA,A,3,65,66,67,76,85,,,,,,,,1.0,0.4,0.8*2F

1612351968000,$GAGSA,A,3,104,105,131,,,,,,,,,,1.0,0.4,0.8*1C

1612351968000,$BDGSA,A,3,219,227,228,236,237,,,,,,,,1.0,0.4,0.8*1A

1612351968000,$GPRMC,113247.000,A,4540.3653,N,01156.0205,E,0.0,6.7,030221,,,A*6D

1612351968000,$PSAMCLK,2143,30078500,22,9730402,2439636,300785000*7B

1612351969000,$PSAMCLK,2143,30078600,21,9730378,2501400,300786000*7F

1612351969000,$GPGGA,113248.000,4540.3653,N,01156.0205,E,1,21,0.6,44.4,M,47.1,M,,*60

1612351969000,$PSAMSA,113248.000,4540.3653,N,01156.0205,E,1,M,,*67

1612351969000,$GPGLL,4540.3653,N,01156.0205,E,113248.000,A,A*56

1612351969000,$GPVTG,6.7,T,,M,0.0,N,0.0,K,A*0C

1612351969000,$GPGSV,4,1,13,05,06,195,24,10,08,328,29,12,13,217,25,13,63,142,48*73

1612351969000,$GPGSV,4,2,13,14,35,051,20,15,69,268,45,17,33,103,39,19,24,130,38*77

1612351969000,$GPGSV,4,3,13,20,21,296,43,23,24,300,39,24,43,284,36,28,43,052,39*73

1612351969000,$GPGSV,4,4,13,30,11,085,37*41

1612351969000,$GLGSV,2,1,06,65,05,169,43,66,60,210,47,67,45,313,45,75,20,052,37*6A

1612351969000,$GLGSV,2,2,06,76,68,005,45,85,18,061,42*6D

1612351969000,$GAGSV,1,1,03,104,32,157,37,105,32,309,36,131,88,233,42*65

1612351969000,$BDGSV,2,1,07,205,23,121,37,210,23,051,36,219,50,237,44,227,13,121,35*67

1612351969000,$BDGSV,2,2,07,228,18,069,38,236,32,260,43,237,33,066,39*63

1612351969000,$GPGSA,A,3,15,13,28,24,17,19,20,30,10,,,,1.0,0.6,0.8*39

1612351969000,$GNGSA,A,3,65,67,76,85,,,,,,,,,1.0,0.6,0.8*2D

1612351969000,$GAGSA,A,3,104,105,131,,,,,,,,,,1.0,0.6,0.8*1E

1612351969000,$BDGSA,A,3,219,227,228,236,237,,,,,,,,1.0,0.6,0.8*18

1612351969000,$GPRMC,113248.000,A,4540.3653,N,01156.0205,E,0.0,6.7,030221,,,A*62

1612351969000,$PSAMCLK,2143,30078600,21,9730378,2501400,300786000*7F

1612351970000,$PSAMCLK,2143,30078700,20,9730367,2563163,300787000*74

1612351970000,$GPGGA,113249.000,4540.3653,N,01156.0205,E,1,20,0.6,44.4,M,47.1,M,,*60

1612351970000,$PSAMSA,113249.000,4540.3653,N,01156.0205,E,1,M,,*66

1612351970000,$GPGLL,4540.3653,N,01156.0205,E,113249.000,A,A*57

1612351970000,$GPVTG,6.7,T,,M,0.0,N,0.0,K,A*0C

1612351970000,$GPGSV,4,1,13,05,06,195,24,10,08,328,29,12,13,217,25,13,63,142,48*73

1612351970000,$GPGSV,4,2,13,14,35,051,19,15,69,268,45,17,33,103,39,19,24,130,38*7D

1612351970000,$GPGSV,4,3,13,20,21,296,43,23,24,300,39,24,43,284,36,28,43,052,39*73

1612351970000,$GPGSV,4,4,13,30,11,085,37*41

1612351970000,$GLGSV,2,1,06,65,05,169,43,66,60,210,47,67,45,313,45,75,20,052,38*65

1612351970000,$GLGSV,2,2,06,76,68,005,45,85,18,061,42*6D

1612351970000,$GAGSV,1,1,03,104,32,157,37,105,32,309,36,131,88,233,42*65

1612351970000,$BDGSV,2,1,07,205,23,121,37,210,23,051,36,219,50,237,44,227,13,121,36*64

1612351970000,$BDGSV,2,2,07,228,18,069,38,236,32,260,43,237,33,066,39*63

1612351970000,$GPGSA,A,3,15,13,28,24,17,19,20,30,10,,,,1.0,0.6,0.8*39

1612351970000,$GNGSA,A,3,65,67,76,,,,,,,,,,1.0,0.6,0.8*20

1612351970000,$GAGSA,A,3,104,105,131,,,,,,,,,,1.0,0.6,0.8*1E

1612351970000,$BDGSA,A,3,219,227,228,236,237,,,,,,,,1.0,0.6,0.8*18

1612351970000,$GPRMC,113249.000,A,4540.3653,N,01156.0205,E,0.0,6.7,030221,,,A*63

1612351970000,$PSAMCLK,2143,30078700,20,9730367,2563163,300787000*74

1612351971000,$PSAMCLK,2143,30078800,21,9730360,2624927,300788000*7A

1612351971000,$GPGGA,113250.000,4540.3653,N,01156.0205,E,1,21,0.6,44.4,M,47.1,M,,*69

1612351971000,$PSAMSA,113250.000,4540.3653,N,01156.0205,E,1,M,,*6E

1612351971000,$GPGLL,4540.3653,N,01156.0205,E,113250.000,A,A*5F

1612351971000,$GPVTG,6.7,T,,M,0.0,N,0.0,K,A*0C

1612351971000,$GPGSV,4,1,13,05,06,195,24,10,08,328,29,12,13,217,25,13,63,142,48*73

1612351971000,$GPGSV,4,2,13,14,35,051,17,15,69,268,45,17,33,103,39,19,24,130,38*73

1612351971000,$GPGSV,4,3,13,20,21,296,43,23,24,300,39,24,43,284,36,28,43,052,39*73

1612351971000,$GPGSV,4,4,13,30,11,085,37*41

1612351971000,$GLGSV,2,1,06,65,05,169,43,66,60,210,47,67,45,313,45,75,20,052,38*65

1612351971000,$GLGSV,2,2,06,76,68,005,45,85,18,061,42*6D

1612351971000,$GAGSV,1,1,03,104,32,157,37,105,32,309,36,131,88,233,42*65

1612351971000,$BDGSV,2,1,07,205,23,121,36,210,23,051,36,219,50,237,44,227,13,121,36*65

1612351971000,$BDGSV,2,2,07,228,18,069,38,236,32,260,43,237,33,066,39*63

1612351971000,$GPGSA,A,3,15,13,28,24,17,19,20,30,10,,,,1.0,0.6,0.8*39

1612351971000,$GNGSA,A,3,65,67,76,85,,,,,,,,,1.0,0.6,0.8*2D

1612351971000,$GAGSA,A,3,104,105,131,,,,,,,,,,1.0,0.6,0.8*1E

1612351971000,$BDGSA,A,3,219,227,228,236,237,,,,,,,,1.0,0.6,0.8*18

1612351971000,$GPRMC,113250.000,A,4540.3653,N,01156.0205,E,0.0,6.7,030221,,,A*6B

1612351971000,$PSAMCLK,2143,30078800,21,9730360,2624927,300788000*7A

1612351972000,$PSAMCLK,2143,30078900,20,9730336,2686690,300789000*73

1612351972000,$GPGGA,113251.000,4540.3653,N,01156.0205,E,1,20,0.6,44.4,M,47.1,M,,*69

1612351972000,$PSAMSA,113251.000,4540.3653,N,01156.0205,E,1,M,,*6F

1612351972000,$GPGLL,4540.3653,N,01156.0205,E,113251.000,A,A*5E

1612351972000,$GPVTG,6.7,T,,M,0.0,N,0.0,K,A*0C

1612351972000,$GPGSV,4,1,13,05,06,195,24,10,08,328,29,12,13,217,25,13,63,142,48*73

1612351972000,$GPGSV,4,2,13,14,35,051,16,15,69,268,45,17,33,103,39,19,24,130,38*72

1612351972000,$GPGSV,4,3,13,20,21,296,43,23,24,300,39,24,43,284,36,28,43,052,39*73

1612351972000,$GPGSV,4,4,13,30,11,085,37*41

1612351972000,$GLGSV,2,1,06,65,05,169,43,66,60,210,47,67,45,313,45,75,20,052,38*65

1612351972000,$GLGSV,2,2,06,76,68,005,45,85,18,061,42*6D

1612351972000,$GAGSV,1,1,03,104,32,157,37,105,32,309,36,131,88,233,43*64

1612351972000,$BDGSV,2,1,07,205,23,121,34,210,23,051,36,219,50,237,43,227,13,121,36*60

1612351972000,$BDGSV,2,2,07,228,18,069,38,236,32,260,43,237,33,066,39*63

1612351972000,$GPGSA,A,3,15,13,28,24,17,19,20,30,10,,,,1.0,0.6,0.8*39

1612351972000,$GNGSA,A,3,65,67,76,,,,,,,,,,1.0,0.6,0.8*20

1612351972000,$GAGSA,A,3,104,105,131,,,,,,,,,,1.0,0.6,0.8*1E

1612351972000,$BDGSA,A,3,219,227,228,236,237,,,,,,,,1.0,0.6,0.8*18

1612351972000,$GPRMC,113251.000,A,4540.3653,N,01156.0205,E,0.0,6.7,030221,,,A*6A

1612351972000,$PSAMCLK,2143,30078900,20,9730336,2686690,300789000*73

1612351973000,$PSAMCLK,2143,30079000,19,9730306,2748453,300790000*74

1612351973000,$GPGGA,113252.000,4540.3653,N,01156.0205,E,1,19,0.6,44.4,M,47.1,M,,*60

1612351973000,$PSAMSA,113252.000,4540.3653,N,01156.0205,E,1,M,,*6C

1612351973000,$GPGLL,4540.3653,N,01156.0205,E,113252.000,A,A*5D

1612351973000,$GPVTG,6.7,T,,M,0.0,N,0.0,K,A*0C

1612351973000,$GPGSV,4,1,13,05,06,195,23,10,08,328,29,12,13,217,25,13,63,142,48*74

1612351973000,$GPGSV,4,2,13,14,35,051,14,15,69,268,45,17,33,103,39,19,24,130,38*70

1612351973000,$GPGSV,4,3,13,20,21,296,43,23,24,300,39,24,43,284,36,28,43,052,39*73

1612351973000,$GPGSV,4,4,13,30,11,085,37*41

1612351973000,$GLGSV,2,1,06,65,05,169,43,66,60,210,47,67,45,313,44,75,20,052,38*64

1612351973000,$GLGSV,2,2,06,76,68,005,45,85,18,061,42*6D

1612351973000,$GAGSV,1,1,03,104,32,157,37,105,32,309,36,131,88,233,43*64

1612351973000,$BDGSV,2,1,07,205,23,121,33,210,23,051,36,219,50,237,43,227,13,121,36*67

1612351973000,$BDGSV,2,2,07,228,18,069,38,236,32,260,43,237,33,066,39*63

1612351973000,$GPGSA,A,3,15,13,28,24,17,19,20,30,10,,,,1.0,0.6,0.8*39

1612351973000,$GNGSA,A,3,65,76,,,,,,,,,,,1.0,0.6,0.8*21

1612351973000,$GAGSA,A,3,104,105,131,,,,,,,,,,1.0,0.6,0.8*1E

1612351973000,$BDGSA,A,3,219,227,228,236,237,,,,,,,,1.0,0.6,0.8*18

1612351973000,$GPRMC,113252.000,A,4540.3653,N,01156.0205,E,0.0,6.7,030221,,,A*69

1612351973000,$PSAMCLK,2143,30079000,19,9730306,2748453,300790000*74

1612351974000,$PSAMCLK,2143,30079100,18,9730268,2810216,300791000*79

1612351974000,$GPGGA,113253.000,4540.3653,N,01156.0205,E,1,18,0.6,44.4,M,47.1,M,,*60

1612351974000,$PSAMSA,113253.000,4540.3653,N,01156.0205,E,1,M,,*6D

1612351974000,$GPGLL,4540.3653,N,01156.0205,E,113253.000,A,A*5C

1612351974000,$GPVTG,6.7,T,,M,0.0,N,0.0,K,A*0C

1612351974000,$GPGSV,4,1,13,05,06,195,23,10,08,328,29,12,13,217,25,13,63,142,48*74

1612351974000,$GPGSV,4,2,13,14,35,051,13,15,69,268,45,17,33,103,39,19,24,130,38*77

1612351974000,$GPGSV,4,3,13,20,21,296,43,23,24,300,39,24,43,284,36,28,43,052,39*73

1612351974000,$GPGSV,4,4,13,30,11,085,37*41

1612351974000,$GLGSV,2,1,06,65,05,169,43,66,60,210,47,67,45,313,44,75,20,052,38*64

1612351974000,$GLGSV,2,2,06,76,68,005,45,85,18,061,42*6D

1612351974000,$GAGSV,1,1,03,104,32,157,37,105,32,309,35,131,88,233,43*67

1612351974000,$BDGSV,2,1,07,205,23,121,31,210,23,051,36,219,50,237,43,227,13,121,37*64

1612351974000,$BDGSV,2,2,07,228,18,069,38,236,32,260,43,237,33,066,39*63

1612351974000,$GPGSA,A,3,15,13,28,24,17,19,20,30,10,,,,1.0,0.6,0.8*39

1612351974000,$GNGSA,A,3,65,,,,,,,,,,,,1.0,0.6,0.8*20

1612351974000,$GAGSA,A,3,104,105,131,,,,,,,,,,1.0,0.6,0.8*1E

1612351974000,$BDGSA,A,3,219,227,228,236,237,,,,,,,,1.0,0.6,0.8*18

1612351974000,$GPRMC,113253.000,A,4540.3653,N,01156.0205,E,0.0,6.7,030221,,,A*68

1612351974000,$PSAMCLK,2143,30079100,18,9730268,2810216,300791000*79

1612351975000,$PSAMCLK,2143,30079200,20,9730238,2871979,300792000*72

1612351975000,$GPGGA,113254.000,4540.3653,N,01156.0205,E,1,20,0.6,44.4,M,47.1,M,,*6C

1612351975000,$PSAMSA,113254.000,4540.3653,N,01156.0205,E,1,M,,*6A

1612351975000,$GPGLL,4540.3653,N,01156.0205,E,113254.000,A,A*5B

1612351975000,$GPVTG,6.7,T,,M,0.0,N,0.0,K,A*0C

1612351975000,$GPGSV,4,1,13,05,06,195,23,10,08,328,29,12,13,217,25,13,63,142,48*74

1612351975000,$GPGSV,4,2,13,14,35,051,13,15,69,268,45,17,33,103,39,19,24,130,38*77

1612351975000,$GPGSV,4,3,13,20,21,296,43,23,24,300,39,24,43,284,36,28,43,052,39*73

1612351975000,$GPGSV,4,4,13,30,11,085,37*41

1612351975000,$GLGSV,2,1,06,65,05,169,43,66,60,210,47,67,45,313,44,75,20,052,38*64

1612351975000,$GLGSV,2,2,06,76,68,005,45,85,18,061,42*6D

1612351975000,$GAGSV,1,1,03,104,32,157,37,105,32,309,35,131,88,233,43*67

1612351975000,$BDGSV,2,1,07,205,23,121,30,210,23,051,36,219,50,237,43,227,13,121,37*65

1612351975000,$BDGSV,2,2,07,228,18,069,38,236,32,260,43,237,33,066,40*6D

1612351975000,$GPGSA,A,3,15,13,28,24,17,19,20,30,10,,,,1.0,0.6,0.8*39

1612351975000,$GNGSA,A,3,65,76,85,,,,,,,,,,1.0,0.6,0.8*2C

1612351975000,$GAGSA,A,3,104,105,131,,,,,,,,,,1.0,0.6,0.8*1E

1612351975000,$BDGSA,A,3,219,227,228,236,237,,,,,,,,1.0,0.6,0.8*18

1612351975000,$GPRMC,113254.000,A,4540.3653,N,01156.0205,E,0.0,6.7,030221,,,A*6F

1612351975000,$PSAMCLK,2143,30079200,20,9730238,2871979,300792000*72

1612351976000,$PSAMCLK,2143,30079300,21,9730220,2933742,300793000*7B

1612351976000,$GPGGA,113255.000,4540.3653,N,01156.0205,E,1,21,0.6,44.4,M,47.1,M,,*6C

1612351976000,$PSAMSA,113255.000,4540.3653,N,01156.0205,E,1,M,,*6B

1612351976000,$GPGLL,4540.3653,N,01156.0205,E,113255.000,A,A*5A

1612351976000,$GPVTG,6.7,T,,M,0.0,N,0.0,K,A*0C

1612351976000,$GPGSV,4,1,13,05,06,195,23,10,08,328,29,12,13,217,25,13,63,142,48*74

1612351976000,$GPGSV,4,2,13,14,35,051,12,15,69,267,45,17,33,103,39,19,24,130,38*79

1612351976000,$GPGSV,4,3,13,20,21,296,43,23,24,300,39,24,43,284,35,28,43,052,39*70

1612351976000,$GPGSV,4,4,13,30,11,085,37*41

1612351976000,$GLGSV,2,1,06,65,05,169,43,66,60,210,47,67,45,313,44,75,20,052,38*64

1612351976000,$GLGSV,2,2,06,76,68,005,44,85,18,061,42*6C

1612351976000,$GAGSV,1,1,03,104,32,157,37,105,32,309,35,131,88,233,43*67

1612351976000,$BDGSV,2,1,07,205,23,121,28,210,23,051,36,219,50,237,43,227,13,121,37*6C

1612351976000,$BDGSV,2,2,07,228,18,069,38,236,32,260,43,237,33,066,40*6D

1612351976000,$GPGSA,A,3,15,13,24,28,17,19,20,30,10,,,,1.0,0.6,0.8*39

1612351976000,$GNGSA,A,3,65,67,76,85,,,,,,,,,1.0,0.6,0.8*2D

1612351976000,$GAGSA,A,3,104,105,131,,,,,,,,,,1.0,0.6,0.8*1E

1612351976000,$BDGSA,A,3,219,227,228,236,237,,,,,,,,1.0,0.6,0.8*18

1612351976000,$GPRMC,113255.000,A,4540.3653,N,01156.0205,E,0.0,6.7,030221,,,A*6E

1612351976000,$PSAMCLK,2143,30079300,21,9730220,2933742,300793000*7B

1612351977000,$PSAMCLK,2143,30079400,20,9730225,2995505,300794000*72

1612351977000,$GPGGA,113256.000,4540.3653,N,01156.0205,E,1,20,0.6,44.4,M,47.1,M,,*6E

1612351977000,$PSAMSA,113256.000,4540.3653,N,01156.0205,E,1,M,,*68

1612351977000,$GPGLL,4540.3653,N,01156.0205,E,113256.000,A,A*59

1612351977000,$GPVTG,6.7,T,,M,0.0,N,0.0,K,A*0C

1612351977000,$GPGSV,3,1,12,05,06,195,23,10,08,328,29,12,13,217,25,13,63,142,48*72

1612351977000,$GPGSV,3,2,12,15,69,267,44,17,33,103,39,19,24,130,38,20,21,296,43*71

1612351977000,$GPGSV,3,3,12,23,24,300,39,24,43,284,35,28,43,052,39,30,11,085,37*77

1612351977000,$GLGSV,2,1,06,65,05,169,43,66,60,210,47,67,45,313,44,75,20,052,38*64

1612351977000,$GLGSV,2,2,06,76,68,005,44,85,18,061,42*6C

1612351977000,$GAGSV,1,1,03,104,32,157,37,105,32,309,35,131,88,233,43*67

1612351977000,$BDGSV,2,1,07,205,23,121,27,210,23,051,36,219,50,237,43,227,13,121,37*63

1612351977000,$BDGSV,2,2,07,228,18,069,38,236,32,260,43,237,33,066,40*6D

1612351977000,$GPGSA,A,3,15,13,24,28,17,19,20,30,10,,,,1.0,0.6,0.8*39

1612351977000,$GNGSA,A,3,65,67,76,,,,,,,,,,1.0,0.6,0.8*20

1612351977000,$GAGSA,A,3,104,105,131,,,,,,,,,,1.0,0.6,0.8*1E

1612351977000,$BDGSA,A,3,219,227,228,236,237,,,,,,,,1.0,0.6,0.8*18

1612351977000,$GPRMC,113256.000,A,4540.3653,N,01156.0205,E,0.0,6.7,030221,,,A*6D

1612351977000,$PSAMCLK,2143,30079400,20,9730225,2995505,300794000*72

1612351978000,$PSAMCLK,2143,30079500,21,9730214,3057267,300795000*74

1612351978000,$GPGGA,113257.000,4540.3653,N,01156.0205,E,1,21,0.6,44.4,M,47.1,M,,*6E

1612351978000,$PSAMSA,113257.000,4540.3653,N,01156.0205,E,1,M,,*69

1612351978000,$GPGLL,4540.3653,N,01156.0205,E,113257.000,A,A*58

1612351978000,$GPVTG,6.7,T,,M,0.0,N,0.0,K,A*0C

1612351978000,$GPGSV,3,1,12,05,06,195,23,10,08,328,29,12,13,217,25,13,63,142,48*72

1612351978000,$GPGSV,3,2,12,15,69,267,44,17,33,103,38,19,24,130,38,20,21,296,43*70

1612351978000,$GPGSV,3,3,12,23,24,300,39,24,43,284,35,28,43,052,39,30,11,085,37*77

1612351978000,$GLGSV,2,1,06,65,05,169,43,66,60,210,47,67,45,313,44,75,20,052,38*64

1612351978000,$GLGSV,2,2,06,76,68,005,44,85,18,061,42*6C

1612351978000,$GAGSV,1,1,03,104,32,157,37,105,32,309,35,131,88,233,43*67

1612351978000,$BDGSV,2,1,07,205,23,121,25,210,23,051,36,219,50,237,43,227,13,121,37*61

1612351978000,$BDGSV,2,2,07,228,18,069,38,236,32,260,43,237,33,066,40*6D

1612351978000,$GPGSA,A,3,15,13,24,28,17,19,20,30,10,,,,1.0,0.6,0.8*39

1612351978000,$GNGSA,A,3,65,67,76,85,,,,,,,,,1.0,0.6,0.8*2D

1612351978000,$GAGSA,A,3,104,105,131,,,,,,,,,,1.0,0.6,0.8*1E

1612351978000,$BDGSA,A,3,219,227,228,236,237,,,,,,,,1.0,0.6,0.8*18

1612351978000,$GPRMC,113257.000,A,4540.3653,N,01156.0205,E,0.0,6.7,030221,,,A*6C

1612351978000,$PSAMCLK,2143,30079500,21,9730214,3057267,300795000*74

1612351979000,$PSAMCLK,2143,30079600,20,9730193,3119029,300796000*7A

1612351979000,$GPGGA,113258.000,4540.3653,N,01156.0205,E,1,20,0.6,44.4,M,47.1,M,,*60

1612351979000,$PSAMSA,113258.000,4540.3653,N,01156.0205,E,1,M,,*66

1612351979000,$GPGLL,4540.3653,N,01156.0205,E,113258.000,A,A*57

1612351979000,$GPVTG,6.7,T,,M,0.0,N,0.0,K,A*0C

1612351979000,$GPGSV,3,1,12,05,06,195,23,10,08,328,29,12,13,217,26,13,63,142,48*71

1612351979000,$GPGSV,3,2,12,15,69,267,44,17,33,103,38,19,24,130,38,20,21,296,43*70

1612351979000,$GPGSV,3,3,12,23,24,300,39,24,43,284,35,28,43,052,39,30,11,085,37*77

1612351979000,$GLGSV,2,1,06,65,05,169,43,66,60,210,47,67,45,313,44,75,20,052,38*64

1612351979000,$GLGSV,2,2,06,76,68,005,44,85,18,061,42*6C

1612351979000,$GAGSV,1,1,03,104,32,157,37,105,32,309,35,131,88,233,43*67

1612351979000,$BDGSV,2,1,07,205,23,121,24,210,23,051,36,219,50,237,43,227,13,121,38*6F

1612351979000,$BDGSV,2,2,07,228,18,069,38,236,32,260,43,237,33,066,40*6D

1612351979000,$GPGSA,A,3,15,13,24,28,17,19,20,30,10,,,,1.0,0.6,0.8*39

1612351979000,$GNGSA,A,3,65,67,85,,,,,,,,,,1.0,0.6,0.8*2C

1612351979000,$GAGSA,A,3,104,105,131,,,,,,,,,,1.0,0.6,0.8*1E

1612351979000,$BDGSA,A,3,219,227,228,236,237,,,,,,,,1.0,0.6,0.8*18

1612351979000,$GPRMC,113258.000,A,4540.3653,N,01156.0205,E,0.0,6.7,030221,,,A*63

1612351979000,$PSAMCLK,2143,30079600,20,9730193,3119029,300796000*7A

1612351980000,$PSAMCLK,2143,30079700,22,9730197,3180792,300797000*7B

1612351980000,$GPGGA,113259.000,4540.3653,N,01156.0205,E,1,22,0.4,44.4,M,47.1,M,,*61

1612351980000,$PSAMSA,113259.000,4540.3653,N,01156.0205,E,1,M,,*67

1612351980000,$GPGLL,4540.3653,N,01156.0205,E,113259.000,A,A*56

1612351980000,$GPVTG,6.7,T,,M,0.0,N,0.0,K,A*0C

1612351980000,$GPGSV,3,1,12,05,06,195,24,10,08,328,29,12,13,217,26,13,63,142,48*76

1612351980000,$GPGSV,3,2,12,15,69,267,44,17,33,103,38,19,24,130,38,20,21,296,43*70

1612351980000,$GPGSV,3,3,12,23,24,300,39,24,43,284,35,28,43,052,39,30,11,085,37*77

1612351980000,$GLGSV,2,1,06,65,05,169,43,66,60,210,47,67,45,313,44,75,20,052,38*64

1612351980000,$GLGSV,2,2,06,76,68,005,44,85,18,061,42*6C

1612351980000,$GAGSV,1,1,03,104,32,157,37,105,32,309,35,131,88,233,43*67

1612351980000,$BDGSV,2,1,07,205,23,121,22,210,23,051,36,219,50,237,43,227,13,121,38*69

1612351980000,$BDGSV,2,2,07,228,18,069,38,236,32,260,43,237,33,066,40*6D

1612351980000,$GPGSA,A,3,15,13,24,28,17,19,20,30,10,,,,1.0,0.4,0.8*3B

1612351980000,$GNGSA,A,3,65,66,67,76,85,,,,,,,,1.0,0.4,0.8*2F

1612351980000,$GAGSA,A,3,104,105,131,,,,,,,,,,1.0,0.4,0.8*1C

1612351980000,$BDGSA,A,3,219,227,228,236,237,,,,,,,,1.0,0.4,0.8*1A

1612351980000,$GPRMC,113259.000,A,4540.3653,N,01156.0205,E,0.0,6.7,030221,,,A*62

1612351980000,$PSAMCLK,2143,30079700,22,9730197,3180792,300797000*7B

1612351981000,$PSAMCLK,2143,30079800,22,9730171,3242556,300798000*74

1612351981000,$GPGGA,113300.000,4540.3653,N,01156.0205,E,1,22,0.4,44.4,M,47.1,M,,*6C

1612351981000,$PSAMSA,113300.000,4540.3653,N,01156.0205,E,1,M,,*6A

1612351981000,$GPGLL,4540.3653,N,01156.0205,E,113300.000,A,A*5B

1612351981000,$GPVTG,6.7,T,,M,0.0,N,0.0,K,A*0C

1612351981000,$GPGSV,3,1,12,05,06,195,24,10,08,328,29,12,13,217,26,13,63,142,48*76

1612351981000,$GPGSV,3,2,12,15,69,267,44,17,33,103,38,19,24,130,38,20,21,296,43*70

1612351981000,$GPGSV,3,3,12,23,24,300,39,24,43,284,35,28,43,052,39,30,11,085,37*77

1612351981000,$GLGSV,2,1,06,65,05,169,43,66,60,210,47,67,45,313,44,75,20,052,38*64

1612351981000,$GLGSV,2,2,06,76,68,005,44,85,18,061,42*6C

1612351981000,$GAGSV,1,1,03,104,32,157,37,105,32,309,34,131,88,233,43*66

1612351981000,$BDGSV,2,1,07,205,23,121,21,210,23,051,36,219,50,237,43,227,13,121,38*6A

1612351981000,$BDGSV,2,2,07,228,18,069,37,236,32,260,43,237,33,066,40*62

1612351981000,$GPGSA,A,3,15,13,24,28,17,19,20,30,10,,,,1.0,0.4,0.8*3B

1612351981000,$GNGSA,A,3,65,66,67,76,85,,,,,,,,1.0,0.4,0.8*2F

1612351981000,$GAGSA,A,3,104,105,131,,,,,,,,,,1.0,0.4,0.8*1C

1612351981000,$BDGSA,A,3,219,227,228,236,237,,,,,,,,1.0,0.4,0.8*1A

1612351981000,$GPRMC,113300.000,A,4540.3653,N,01156.0205,E,0.0,6.7,030221,,,A*6F

1612351981000,$PSAMCLK,2143,30079800,22,9730171,3242556,300798000*74

1612351982000,$PSAMCLK,2143,30079900,20,9730152,3304318,300799000*78

1612351982000,$GPGGA,113301.000,4540.3653,N,01156.0205,E,1,20,0.6,44.4,M,47.1,M,,*6D

1612351982000,$PSAMSA,113301.000,4540.3653,N,01156.0205,E,1,M,,*6B

1612351982000,$GPGLL,4540.3653,N,01156.0205,E,113301.000,A,A*5A

1612351982000,$GPVTG,6.7,T,,M,0.0,N,0.0,K,A*0C

1612351982000,$GPGSV,3,1,12,05,06,195,24,10,08,328,28,12,13,217,26,13,63,142,47*78

1612351982000,$GPGSV,3,2,12,15,69,267,44,17,33,103,38,19,24,130,38,20,21,296,43*70

1612351982000,$GPGSV,3,3,12,23,24,300,39,24,43,284,35,28,43,052,39,30,11,085,37*77

1612351982000,$GLGSV,2,1,06,65,05,169,43,66,60,210,47,67,45,313,44,75,20,052,38*64

1612351982000,$GLGSV,2,2,06,76,68,005,44,85,18,061,42*6C

1612351982000,$GAGSV,1,1,03,104,32,157,36,105,32,309,34,131,88,233,43*67

1612351982000,$BDGSV,2,1,07,205,23,121,19,210,23,051,36,219,50,237,43,227,13,121,38*61

1612351982000,$BDGSV,2,2,07,228,18,069,37,236,32,260,43,237,33,066,40*62

1612351982000,$GPGSA,A,3,15,13,24,28,17,19,20,30,10,,,,1.0,0.6,0.8*39

1612351982000,$GNGSA,A,3,65,67,76,,,,,,,,,,1.0,0.6,0.8*20

1612351982000,$GAGSA,A,3,104,105,131,,,,,,,,,,1.0,0.6,0.8*1E

1612351982000,$BDGSA,A,3,219,227,228,236,237,,,,,,,,1.0,0.6,0.8*18

1612351982000,$GPRMC,113301.000,A,4540.3653,N,01156.0205,E,0.0,6.7,030221,,,A*6E

1612351982000,$PSAMCLK,2143,30079900,20,9730152,3304318,300799000*78

1612351983000,$PSAMCLK,2143,30080000,20,9730132,3366081,300800000*79

1612351983000,$GPGGA,113302.000,4540.3653,N,01156.0205,E,1,20,0.6,44.4,M,47.1,M,,*6E

1612351983000,$PSAMSA,113302.000,4540.3653,N,01156.0205,E,1,M,,*68

1612351983000,$GPGLL,4540.3653,N,01156.0205,E,113302.000,A,A*59

1612351983000,$GPVTG,6.7,T,,M,0.0,N,0.0,K,A*0C

1612351983000,$GPGSV,3,1,12,05,06,195,25,10,08,328,28,12,13,217,27,13,63,142,47*78

1612351983000,$GPGSV,3,2,12,15,69,267,44,17,33,103,39,19,24,130,38,20,21,296,43*71

1612351983000,$GPGSV,3,3,12,23,24,300,39,24,43,284,35,28,43,052,39,30,11,085,37*77

1612351983000,$GLGSV,2,1,06,65,05,169,44,66,60,210,47,67,45,313,44,75,20,052,38*63

1612351983000,$GLGSV,2,2,06,76,68,005,44,85,18,061,42*6C

1612351983000,$GAGSV,1,1,03,104,32,157,36,105,32,309,34,131,88,236,43*62

1612351983000,$BDGSV,2,1,07,205,23,121,18,210,23,051,36,219,50,237,43,227,13,121,38*60

1612351983000,$BDGSV,2,2,07,228,18,069,37,236,32,260,43,237,33,066,40*62

1612351983000,$GPGSA,A,3,15,13,24,28,17,19,20,30,10,,,,1.0,0.6,0.8*39

1612351983000,$GNGSA,A,3,65,67,76,,,,,,,,,,1.0,0.6,0.8*20

1612351983000,$GAGSA,A,3,104,105,131,,,,,,,,,,1.0,0.6,0.8*1E

1612351983000,$BDGSA,A,3,219,227,228,236,237,,,,,,,,1.0,0.6,0.8*18

1612351983000,$GPRMC,113302.000,A,4540.3653,N,01156.0205,E,0.0,6.7,030221,,,A*6D

1612351983000,$PSAMCLK,2143,30080000,20,9730132,3366081,300800000*79

1612351984000,$PSAMCLK,2143,30080100,19,9730148,3427843,300801000*7A

1612351984000,$GPGGA,113303.000,4540.3653,N,01156.0205,E,1,19,0.6,44.4,M,47.1,M,,*65

1612351984000,$PSAMSA,113303.000,4540.3653,N,01156.0205,E,1,M,,*69

1612351984000,$GPGLL,4540.3653,N,01156.0205,E,113303.000,A,A*58

1612351984000,$GPVTG,6.7,T,,M,0.0,N,0.0,K,A*0C

1612351984000,$GPGSV,3,1,12,05,06,195,25,10,08,328,28,12,13,217,27,13,63,142,47*78

1612351984000,$GPGSV,3,2,12,15,69,267,44,17,33,103,39,19,24,130,38,20,21,296,43*71

1612351984000,$GPGSV,3,3,12,23,24,300,39,24,43,284,35,28,43,052,39,30,11,085,37*77

1612351984000,$GLGSV,2,1,06,65,05,169,44,66,60,210,47,67,45,313,44,75,20,052,38*63

1612351984000,$GLGSV,2,2,06,76,68,005,44,85,18,061,42*6C

1612351984000,$GAGSV,1,1,03,104,32,157,36,105,32,309,34,131,88,236,43*62

1612351984000,$BDGSV,2,1,07,205,23,121,16,210,23,051,36,219,50,237,43,227,13,121,38*6E

1612351984000,$BDGSV,2,2,07,228,18,069,37,236,32,260,43,237,33,066,40*62

1612351984000,$GPGSA,A,3,15,13,24,28,17,19,20,30,10,,,,1.0,0.6,0.8*39

1612351984000,$GNGSA,A,3,65,76,,,,,,,,,,,1.0,0.6,0.8*21

1612351984000,$GAGSA,A,3,104,105,131,,,,,,,,,,1.0,0.6,0.8*1E

1612351984000,$BDGSA,A,3,219,227,228,236,237,,,,,,,,1.0,0.6,0.8*18

1612351984000,$GPRMC,113303.000,A,4540.3653,N,01156.0205,E,0.0,6.7,030221,,,A*6C

1612351984000,$PSAMCLK,2143,30080100,19,9730148,3427843,300801000*7A

1612351985000,$PSAMCLK,2143,30080200,18,9730125,3489605,300802000*78

1612351985000,$GPGGA,113304.000,4540.3653,N,01156.0205,E,1,18,0.6,44.4,M,47.1,M,,*63

1612351985000,$PSAMSA,113304.000,4540.3653,N,01156.0205,E,1,M,,*6E

1612351985000,$GPGLL,4540.3653,N,01156.0205,E,113304.000,A,A*5F

1612351985000,$GPVTG,6.7,T,,M,0.0,N,0.0,K,A*0C

1612351985000,$GPGSV,3,1,12,05,06,195,25,10,08,328,28,12,13,217,27,13,63,142,47*78

1612351985000,$GPGSV,3,2,12,15,69,267,44,17,33,103,39,19,24,130,38,20,21,296,43*71

1612351985000,$GPGSV,3,3,12,23,24,300,39,24,43,284,35,28,43,052,39,30,11,085,37*77

1612351985000,$GLGSV,2,1,06,65,05,169,44,66,60,210,48,67,45,313,44,75,20,052,38*6C

1612351985000,$GLGSV,2,2,06,76,68,005,43,85,18,061,42*6B

1612351985000,$GAGSV,1,1,03,104,32,157,36,105,32,309,34,131,88,236,43*62

1612351985000,$BDGSV,2,1,07,205,23,121,15,210,23,051,36,219,50,237,43,227,13,121,38*6D

1612351985000,$BDGSV,2,2,07,228,18,069,37,236,32,260,43,237,33,066,40*62

1612351985000,$GPGSA,A,3,15,13,24,28,17,19,20,30,,,,,1.2,0.6,0.8*3A

1612351985000,$GNGSA,A,3,65,76,,,,,,,,,,,1.2,0.6,0.8*23

1612351985000,$GAGSA,A,3,104,105,131,,,,,,,,,,1.2,0.6,0.8*1C

1612351985000,$BDGSA,A,3,219,227,228,236,237,,,,,,,,1.2,0.6,0.8*1A

1612351985000,$GPRMC,113304.000,A,4540.3653,N,01156.0205,E,0.0,6.7,030221,,,A*6B

1612351985000,$PSAMCLK,2143,30080200,18,9730125,3489605,300802000*78

1612351986000,$PSAMCLK,2143,30080300,20,9730083,3551368,300803000*74

1612351986000,$GPGGA,113305.000,4540.3653,N,01156.0205,E,1,20,0.6,44.4,M,47.1,M,,*69

1612351986000,$PSAMSA,113305.000,4540.3653,N,01156.0205,E,1,M,,*6F

1612351986000,$GPGLL,4540.3653,N,01156.0205,E,113305.000,A,A*5E

1612351986000,$GPVTG,6.7,T,,M,0.0,N,0.0,K,A*0C

1612351986000,$GPGSV,3,1,12,05,06,195,25,10,08,328,28,12,13,217,27,13,63,142,47*78

1612351986000,$GPGSV,3,2,12,15,69,267,44,17,33,103,39,19,24,130,38,20,21,296,43*71

1612351986000,$GPGSV,3,3,12,23,24,300,39,24,43,284,35,28,43,052,38,30,11,085,37*76

1612351986000,$GLGSV,2,1,06,65,05,169,44,66,60,210,48,67,45,313,44,75,20,052,38*6C

1612351986000,$GLGSV,2,2,06,76,68,005,43,85,18,061,42*6B

1612351986000,$GAGSV,1,1,03,104,32,157,36,105,32,309,34,131,88,236,43*62

1612351986000,$BDGSV,2,1,07,205,23,121,14,210,23,051,36,219,50,237,43,227,13,121,38*6C

1612351986000,$BDGSV,2,2,07,228,18,069,37,236,32,260,43,237,33,066,40*62

1612351986000,$GPGSA,A,3,15,13,24,28,17,19,20,30,,,,,1.0,0.6,0.8*38

1612351986000,$GNGSA,A,3,65,67,76,85,,,,,,,,,1.0,0.6,0.8*2D

1612351986000,$GAGSA,A,3,104,105,131,,,,,,,,,,1.0,0.6,0.8*1E

1612351986000,$BDGSA,A,3,219,227,228,236,237,,,,,,,,1.0,0.6,0.8*18

1612351986000,$GPRMC,113305.000,A,4540.3653,N,01156.0205,E,0.0,6.7,030221,,,A*6A

1612351986000,$PSAMCLK,2143,30080300,20,9730083,3551368,300803000*74

1612351987000,$PSAMCLK,2143,30080400,21,9730038,3613129,300804000*77

1612351987000,$GPGGA,113306.000,4540.3653,N,01156.0205,E,1,21,0.6,44.4,M,47.1,M,,*6B

1612351987000,$PSAMSA,113306.000,4540.3653,N,01156.0205,E,1,M,,*6C

1612351987000,$GPGLL,4540.3653,N,01156.0205,E,113306.000,A,A*5D

1612351987000,$GPVTG,6.7,T,,M,0.0,N,0.0,K,A*0C

1612351987000,$GPGSV,3,1,12,05,06,195,25,10,08,328,28,12,13,217,27,13,63,142,47*78

1612351987000,$GPGSV,3,2,12,15,69,267,44,17,33,103,39,19,24,130,38,20,21,296,43*71

1612351987000,$GPGSV,3,3,12,23,24,300,39,24,43,284,35,28,43,052,38,30,11,085,37*76

1612351987000,$GLGSV,2,1,06,65,05,169,44,66,60,210,48,67,45,313,44,75,20,052,38*6C

1612351987000,$GLGSV,2,2,06,76,68,005,43,85,18,061,42*6B

1612351987000,$GAGSV,1,1,03,104,32,157,36,105,32,309,34,131,88,236,43*62

1612351987000,$BDGSV,2,1,07,205,23,121,13,210,23,051,36,219,50,237,43,227,13,121,38*6B

1612351987000,$BDGSV,2,2,07,228,18,069,37,236,32,260,43,237,33,066,40*62

1612351987000,$GPGSA,A,3,15,13,24,28,17,19,20,30,10,,,,1.0,0.6,0.8*39

1612351987000,$GNGSA,A,3,65,67,76,85,,,,,,,,,1.0,0.6,0.8*2D

1612351987000,$GAGSA,A,3,104,105,131,,,,,,,,,,1.0,0.6,0.8*1E

1612351987000,$BDGSA,A,3,219,227,228,236,237,,,,,,,,1.0,0.6,0.8*18

1612351987000,$GPRMC,113306.000,A,4540.3653,N,01156.0205,E,0.0,6.7,030221,,,A*69

1612351987000,$PSAMCLK,2143,30080400,21,9730038,3613129,300804000*77

1612351988000,$PSAMCLK,2143,30080500,18,9730006,3674891,300805000*7B

1612351988000,$GPGGA,113307.000,4540.3653,N,01156.0205,E,1,18,0.6,44.4,M,47.1,M,,*60

1612351988000,$PSAMSA,113307.000,4540.3653,N,01156.0205,E,1,M,,*6D

1612351988000,$GPGLL,4540.3653,N,01156.0205,E,113307.000,A,A*5C

1612351988000,$GPVTG,6.7,T,,M,0.0,N,0.0,K,A*0C

1612351988000,$GPGSV,3,1,12,05,06,195,25,10,08,328,28,12,13,217,27,13,63,142,47*78

1612351988000,$GPGSV,3,2,12,15,69,267,44,17,33,103,39,19,24,130,38,20,21,296,43*71

1612351988000,$GPGSV,3,3,12,23,24,300,39,24,43,284,35,28,43,052,37,30,11,085,36*78

1612351988000,$GLGSV,2,1,06,65,05,169,44,66,60,210,48,67,45,313,44,75,20,052,37*63

1612351988000,$GLGSV,2,2,06,76,68,005,43,85,18,061,42*6B

1612351988000,$GAGSV,1,1,03,104,32,157,35,105,32,309,34,131,88,236,43*61

1612351988000,$BDGSV,2,1,07,205,23,121,13,210,23,051,36,219,50,237,43,227,13,121,38*6B

1612351988000,$BDGSV,2,2,07,228,18,069,37,236,32,260,43,237,33,066,40*62

1612351988000,$GPGSA,A,3,15,13,24,28,17,19,20,30,,,,,1.2,0.6,0.8*3A

1612351988000,$GNGSA,A,3,65,76,,,,,,,,,,,1.2,0.6,0.8*23

1612351988000,$GAGSA,A,3,104,105,131,,,,,,,,,,1.2,0.6,0.8*1C

1612351988000,$BDGSA,A,3,219,227,228,236,237,,,,,,,,1.2,0.6,0.8*1A

1612351988000,$GPRMC,113307.000,A,4540.3653,N,01156.0205,E,0.0,6.7,030221,,,A*68

1612351988000,$PSAMCLK,2143,30080500,18,9730006,3674891,300805000*7B

1612351989000,$PSAMCLK,2143,30080600,20,9729974,3736652,300806000*72

1612351989000,$GPGGA,113308.000,4540.3653,N,01156.0205,E,1,20,0.6,44.4,M,47.1,M,,*64

1612351989000,$PSAMSA,113308.000,4540.3653,N,01156.0205,E,1,M,,*62

1612351989000,$GPGLL,4540.3653,N,01156.0205,E,113308.000,A,A*53

1612351989000,$GPVTG,6.7,T,,M,0.0,N,0.0,K,A*0C

1612351989000,$GPGSV,3,1,12,05,06,195,25,10,08,328,28,12,13,217,27,13,63,142,47*78

1612351989000,$GPGSV,3,2,12,15,69,267,44,17,33,103,39,19,24,130,38,20,21,296,43*71

1612351989000,$GPGSV,3,3,12,23,24,300,39,24,43,284,35,28,43,052,37,30,11,085,36*78

1612351989000,$GLGSV,2,1,06,65,05,169,44,66,60,210,48,67,45,313,44,75,20,052,36*62

1612351989000,$GLGSV,2,2,06,76,68,005,43,85,18,061,42*6B

1612351989000,$GAGSV,1,1,03,104,32,157,35,105,32,309,34,131,88,236,43*61

1612351989000,$BDGSV,2,1,06,210,23,051,36,219,50,237,43,227,13,121,38,228,18,069,37*66

1612351989000,$BDGSV,2,2,06,236,32,260,43,237,33,066,40*69

1612351989000,$GPGSA,A,3,15,13,24,28,17,19,20,30,,,,,1.0,0.6,0.8*38

1612351989000,$GNGSA,A,3,65,67,76,85,,,,,,,,,1.0,0.6,0.8*2D

1612351989000,$GAGSA,A,3,104,105,131,,,,,,,,,,1.0,0.6,0.8*1E

1612351989000,$BDGSA,A,3,219,227,228,236,237,,,,,,,,1.0,0.6,0.8*18

1612351989000,$GPRMC,113308.000,A,4540.3653,N,01156.0205,E,0.0,6.7,030221,,,A*67

1612351989000,$PSAMCLK,2143,30080600,20,9729974,3736652,300806000*72

1612351990000,$PSAMCLK,2143,30080700,19,9729938,3798413,300807000*73

1612351990000,$GPGGA,113309.000,4540.3653,N,01156.0205,E,1,19,0.6,44.4,M,47.1,M,,*6F

1612351990000,$PSAMSA,113309.000,4540.3653,N,01156.0205,E,1,M,,*63

1612351990000,$GPGLL,4540.3653,N,01156.0205,E,113309.000,A,A*52

1612351990000,$GPVTG,6.7,T,,M,0.0,N,0.0,K,A*0C

1612351990000,$GPGSV,3,1,12,05,05,195,25,10,09,328,28,12,13,217,27,13,63,142,47*7A

1612351990000,$GPGSV,3,2,12,15,69,267,44,17,33,103,39,19,24,130,38,20,21,296,43*71

1612351990000,$GPGSV,3,3,12,23,24,300,39,24,43,284,36,28,43,052,36,30,11,085,36*7A

1612351990000,$GLGSV,2,1,06,65,05,169,44,66,60,210,48,67,45,313,44,75,20,052,34*60

1612351990000,$GLGSV,2,2,06,76,68,005,43,85,18,061,42*6B

1612351990000,$GAGSV,1,1,03,104,32,157,35,105,32,309,34,131,88,236,43*61

1612351990000,$BDGSV,2,1,06,210,23,051,36,219,50,237,43,227,13,121,38,228,18,069,37*66

1612351990000,$BDGSV,2,2,06,236,32,260,42,237,33,066,40*68

1612351990000,$GPGSA,A,3,15,13,24,28,17,19,20,30,,,,,1.2,0.6,0.8*3A

1612351990000,$GNGSA,A,3,65,67,76,,,,,,,,,,1.2,0.6,0.8*22

1612351990000,$GAGSA,A,3,104,105,131,,,,,,,,,,1.2,0.6,0.8*1C

1612351990000,$BDGSA,A,3,219,227,228,236,237,,,,,,,,1.2,0.6,0.8*1A

1612351990000,$GPRMC,113309.000,A,4540.3653,N,01156.0205,E,0.0,6.7,030221,,,A*66

1612351990000,$PSAMCLK,2143,30080700,19,9729938,3798413,300807000*73

1612351991000,$PSAMCLK,2143,30080800,19,9729909,3860173,300808000*7A

1612351991000,$GPGGA,113310.000,4540.3653,N,01156.0205,E,1,19,0.6,44.4,M,47.1,M,,*67

1612351991000,$PSAMSA,113310.000,4540.3653,N,01156.0205,E,1,M,,*6B

1612351991000,$GPGLL,4540.3653,N,01156.0205,E,113310.000,A,A*5A

1612351991000,$GPVTG,6.7,T,,M,0.0,N,0.0,K,A*0C

1612351991000,$GPGSV,3,1,12,05,05,195,25,10,09,328,28,12,13,218,27,13,63,142,47*75

1612351991000,$GPGSV,3,2,12,15,69,267,44,17,33,103,39,19,24,130,38,20,21,296,43*71

1612351991000,$GPGSV,3,3,12,23,24,300,40,24,43,284,36,28,43,052,36,30,11,085,36*74

1612351991000,$GLGSV,2,1,06,65,05,169,44,66,60,210,48,67,45,313,44,75,20,052,33*67

1612351991000,$GLGSV,2,2,06,76,68,005,43,85,18,061,42*6B

1612351991000,$GAGSV,1,1,03,104,32,157,35,105,32,309,33,131,88,236,43*66

1612351991000,$BDGSV,2,1,06,210,23,051,36,219,50,237,43,227,13,121,38,228,18,069,37*66

1612351991000,$BDGSV,2,2,06,236,32,260,42,237,33,066,40*68

1612351991000,$GPGSA,A,3,15,13,24,28,17,19,20,30,,,,,1.2,0.6,0.8*3A

1612351991000,$GNGSA,A,3,65,67,76,,,,,,,,,,1.2,0.6,0.8*22

1612351991000,$GAGSA,A,3,104,105,131,,,,,,,,,,1.2,0.6,0.8*1C

1612351991000,$BDGSA,A,3,219,227,228,236,237,,,,,,,,1.2,0.6,0.8*1A

1612351991000,$GPRMC,113310.000,A,4540.3653,N,01156.0205,E,0.0,6.7,030221,,,A*6E

1612351991000,$PSAMCLK,2143,30080800,19,9729909,3860173,300808000*7A

1612351992000,$PSAMCLK,2143,30080900,18,9729877,3921933,300809000*7B

1612351992000,$GPGGA,113311.000,4540.3653,N,01156.0205,E,1,18,0.6,44.4,M,47.1,M,,*67

1612351992000,$PSAMSA,113311.000,4540.3653,N,01156.0205,E,1,M,,*6A

1612351992000,$GPGLL,4540.3653,N,01156.0205,E,113311.000,A,A*5B

1612351992000,$GPVTG,6.7,T,,M,0.0,N,0.0,K,A*0C

1612351992000,$GPGSV,3,1,12,05,05,195,25,10,09,328,28,12,13,218,27,13,63,142,47*75

1612351992000,$GPGSV,3,2,12,15,69,267,44,17,33,103,39,19,24,130,38,20,21,296,43*71

1612351992000,$GPGSV,3,3,12,23,24,300,40,24,43,284,36,28,43,052,35,30,11,085,36*77

1612351992000,$GLGSV,2,1,06,65,05,169,44,66,60,210,48,67,45,313,44,75,20,052,31*65

1612351992000,$GLGSV,2,2,06,76,68,005,43,85,18,061,42*6B

1612351992000,$GAGSV,1,1,03,104,32,157,35,105,32,309,33,131,88,236,43*66

1612351992000,$BDGSV,2,1,06,210,23,051,36,219,50,237,43,227,13,121,38,228,18,069,37*66

1612351992000,$BDGSV,2,2,06,236,32,260,42,237,33,066,40*68

