# 2021 01 28 13:13:01
#
# Version: 10 Manufacturer: samsung Make: SM-A515F
#
1611835981000,$GPGGA,121302.000,4540.3709,N,01156.0206,E,1,20,0.6,50.0,M,47.1,M,,*63

1611835981000,$PSAMSA,121302.000,4540.3709,N,01156.0206,E,0,M,,*65

1611835981000,$GPGLL,4540.3709,N,01156.0206,E,121302.000,A,A*55

1611835981000,$GPVTG,210.8,T,,M,0.5,N,0.9,K,A*0A

1611835981000,$GPGSV,3,1,12,10,12,323,25,12,19,220,30,13,55,145,40,14,28,051,29*71

1611835981000,$GPGSV,3,2,12,15,70,247,42,17,36,096,39,19,30,125,39,20,20,289,34*7A

1611835981000,$GPGSV,3,3,12,23,25,293,31,24,49,289,43,28,37,050,34,30,06,089,28*7B

1611835981000,$GLGSV,2,1,07,68,50,202,42,69,53,301,36,77,14,057,20,78,63,020,40*6B

1611835981000,$GLGSV,2,2,07,79,46,269,47,87,20,064,37,88,12,102,35*5D

1611835981000,$GAGSV,1,1,02,104,56,290,34,121,63,051,27*66

1611835981000,$BDGSV,1,1,03,220,47,243,38,223,36,068,30,228,16,123,26*66

1611835981000,$GPGSA,A,3,15,13,24,28,17,19,23,20,12,10,,,1.0,0.6,0.8*38

1611835981000,$GNGSA,A,3,68,69,78,79,87,88,,,,,,,1.0,0.6,0.8*2C

1611835981000,$GAGSA,A,3,104,121,,,,,,,,,,,1.0,0.6,0.8*2B

1611835981000,$BDGSA,A,3,223,228,,,,,,,,,,,1.0,0.6,0.8*27

1611835981000,$GPRMC,121302.000,A,4540.3709,N,01156.0206,E,0.5,210.8,280121,,,A*64

1611835981000,$PSAMCLK,2142,38960000,20,9735202,37276,389600000*73

1611835982000,$PSAMCLK,2142,38960000,20,9735202,37276,389600000*73

1611835982000,$GPGGA,121303.000,4540.3713,N,01156.0210,E,1,22,0.6,48.6,M,47.1,M,,*63

1611835982000,$PSAMSA,121303.000,4540.3713,N,01156.0210,E,0,M,,*68

1611835982000,$GPGLL,4540.3713,N,01156.0210,E,121303.000,A,A*58

1611835982000,$GPVTG,210.6,T,,M,0.0,N,0.0,K,A*08

1611835982000,$GPGSV,3,1,12,10,12,323,25,12,19,220,30,13,55,145,40,14,28,051,27*7F

1611835982000,$GPGSV,3,2,12,15,70,247,40,17,36,096,39,19,30,125,38,20,20,289,34*79

1611835982000,$GPGSV,3,3,12,23,25,293,31,24,49,289,42,28,37,050,33,30,06,089,28*7D

1611835982000,$GLGSV,2,1,07,68,50,202,41,69,53,301,35,77,14,057,20,78,63,020,39*65

1611835982000,$GLGSV,2,2,07,79,46,269,46,87,20,064,36,88,12,102,35*5D

1611835982000,$GAGSV,1,1,02,104,56,289,35,121,63,051,29*61

1611835982000,$BDGSV,1,1,03,220,47,243,38,223,36,068,31,228,16,123,26*67

1611835982000,$GPGSA,A,3,15,13,24,28,17,19,23,20,12,10,30,,1.0,0.6,0.8*3B

1611835982000,$GNGSA,A,3,68,77,78,79,87,88,,,,,,,1.0,0.6,0.8*23

1611835982000,$GAGSA,A,3,104,121,,,,,,,,,,,1.0,0.6,0.8*2B

1611835982000,$BDGSA,A,3,220,223,228,,,,,,,,,,1.0,0.6,0.8*17

1611835982000,$GPRMC,121303.000,A,4540.3713,N,01156.0210,E,0.0,210.6,280121,,,A*62

1611835982000,$PSAMCLK,2142,38960100,22,9735397,99067,389601000*7A

1611835982000,$PSAMCLK,2142,38960100,22,9735397,99067,389601000*7A

1611835983000,$GPGGA,121304.000,4540.3713,N,01156.0210,E,1,22,0.6,48.6,M,47.1,M,,*64

1611835983000,$PSAMSA,121304.000,4540.3713,N,01156.0210,E,0,M,,*6F

1611835983000,$GPGLL,4540.3713,N,01156.0210,E,121304.000,A,A*5F

1611835983000,$GPVTG,210.9,T,,M,0.0,N,0.0,K,A*07

1611835983000,$GPGSV,3,1,12,10,12,323,25,12,19,220,29,13,55,145,40,14,28,051,26*76

1611835983000,$GPGSV,3,2,12,15,70,247,40,17,36,096,38,19,30,125,38,20,20,289,33*7F

1611835983000,$GPGSV,3,3,12,23,25,293,31,24,49,289,42,28,37,050,33,30,06,089,27*72

1611835983000,$GLGSV,2,1,07,68,50,202,40,69,53,301,33,77,14,057,20,78,63,020,38*63

1611835983000,$GLGSV,2,2,07,79,46,269,46,87,20,064,35,88,12,102,35*5E

1611835983000,$GAGSV,1,1,02,104,56,289,35,121,63,051,31*68

1611835983000,$BDGSV,1,1,03,220,47,243,38,223,36,068,31,228,16,123,28*69

1611835983000,$GPGSA,A,3,15,13,24,28,17,19,23,20,12,10,30,,1.0,0.6,0.8*3B

1611835983000,$GNGSA,A,3,68,77,78,79,87,88,,,,,,,1.0,0.6,0.8*23

1611835983000,$GAGSA,A,3,104,121,,,,,,,,,,,1.0,0.6,0.8*2B

1611835983000,$BDGSA,A,3,220,223,228,,,,,,,,,,1.0,0.6,0.8*17

1611835983000,$GPRMC,121304.000,A,4540.3713,N,01156.0210,E,0.0,210.9,280121,,,A*6A

1611835983000,$PSAMCLK,2142,38960200,22,9735394,160861,389602000*40

1611835984000,$PSAMCLK,2142,38960200,22,9735394,160861,389602000*40

1611835985000,$GPGGA,121305.000,4540.3713,N,01156.0210,E,1,21,0.6,48.6,M,47.1,M,,*66

1611835985000,$PSAMSA,121305.000,4540.3713,N,01156.0210,E,0,M,,*6E

1611835985000,$GPGLL,4540.3713,N,01156.0210,E,121305.000,A,A*5E

1611835985000,$GPVTG,211.0,T,,M,0.0,N,0.0,K,A*0F

1611835985000,$GPGSV,3,1,12,10,12,323,25,12,19,220,29,13,55,145,40,14,28,051,24*74

1611835985000,$GPGSV,3,2,12,15,70,247,40,17,36,096,38,19,30,125,37,20,20,289,33*70

1611835985000,$GPGSV,3,3,12,23,25,293,31,24,49,289,41,28,37,050,32,30,06,089,27*70

1611835985000,$GLGSV,2,1,07,68,50,202,40,69,53,301,32,77,14,057,20,78,63,020,38*62

1611835985000,$GLGSV,2,2,07,79,46,269,45,87,20,064,34,88,12,102,34*5D

1611835985000,$GAGSV,1,1,02,104,56,289,35,121,63,051,31*68

1611835985000,$BDGSV,1,1,03,220,47,243,38,223,36,068,31,228,16,123,30*60

1611835985000,$GPGSA,A,3,15,13,24,28,17,19,23,20,12,30,,,1.0,0.6,0.8*3A

1611835985000,$GNGSA,A,3,68,77,78,79,87,88,,,,,,,1.0,0.6,0.8*23

1611835985000,$GAGSA,A,3,104,121,,,,,,,,,,,1.0,0.6,0.8*2B

1611835985000,$BDGSA,A,3,220,223,228,,,,,,,,,,1.0,0.6,0.8*17

1611835985000,$GPRMC,121305.000,A,4540.3713,N,01156.0210,E,0.0,211.0,280121,,,A*63

1611835985000,$PSAMCLK,2142,38960300,21,9735355,222657,389603000*40

1611835985000,$PSAMCLK,2142,38960300,21,9735355,222657,389603000*40

1611835986000,$GPGGA,121306.000,4540.3713,N,01156.0210,E,1,21,0.6,48.6,M,47.1,M,,*65

1611835986000,$PSAMSA,121306.000,4540.3713,N,01156.0210,E,1,M,,*6C

1611835986000,$GPGLL,4540.3713,N,01156.0210,E,121306.000,A,A*5D

1611835986000,$GPVTG,211.1,T,,M,0.0,N,0.0,K,A*0E

1611835986000,$GPGSV,3,1,12,10,12,323,25,12,19,220,28,13,55,145,40,14,28,051,24*75

1611835986000,$GPGSV,3,2,12,15,70,247,39,17,36,096,37,19,30,125,37,20,20,289,32*70

1611835986000,$GPGSV,3,3,12,23,25,293,31,24,49,289,40,28,37,050,31,30,06,089,26*73

1611835986000,$GLGSV,2,1,07,68,50,202,42,69,53,301,30,77,14,057,18,78,63,020,37*66

1611835986000,$GLGSV,2,2,07,79,46,269,44,87,20,064,34,88,12,102,34*5C

1611835986000,$GAGSV,1,1,02,104,56,289,35,121,63,051,31*68

1611835986000,$BDGSV,2,1,05,211,15,045,20,219,29,307,25,220,47,243,38,223,36,068,31*6E

1611835986000,$BDGSV,2,2,05,228,16,123,30*61

1611835986000,$GPGSA,A,3,15,13,24,28,17,19,23,20,12,10,30,,1.0,0.6,0.8*3B

1611835986000,$GNGSA,A,3,68,78,79,87,88,,,,,,,,1.0,0.6,0.8*23

1611835986000,$GAGSA,A,3,104,121,,,,,,,,,,,1.0,0.6,0.8*2B

1611835986000,$BDGSA,A,3,220,223,228,,,,,,,,,,1.0,0.6,0.8*17

1611835986000,$GPRMC,121306.000,A,4540.3713,N,01156.0210,E,0.0,211.1,280121,,,A*61

1611835986000,$PSAMCLK,2142,38960400,21,9735333,284452,389604000*4B

1611835986000,$PSAMCLK,2142,38960400,21,9735333,284452,389604000*4B

1611835987000,$GPGGA,121307.000,4540.3713,N,01156.0210,E,1,21,0.6,48.6,M,47.1,M,,*64

1611835987000,$PSAMSA,121307.000,4540.3713,N,01156.0210,E,1,M,,*6D

1611835987000,$GPGLL,4540.3713,N,01156.0210,E,121307.000,A,A*5C

1611835987000,$GPVTG,211.1,T,,M,0.0,N,0.0,K,A*0E

1611835987000,$GPGSV,3,1,12,10,12,323,25,12,19,220,28,13,55,145,40,14,28,051,24*75

1611835987000,$GPGSV,3,2,12,15,70,247,39,17,36,096,37,19,30,125,37,20,20,289,32*70

1611835987000,$GPGSV,3,3,12,23,25,293,31,24,49,289,40,28,37,050,31,30,06,089,26*73

1611835987000,$GLGSV,2,1,07,68,50,202,43,69,53,301,29,77,14,057,17,78,63,020,36*61

1611835987000,$GLGSV,2,2,07,79,46,269,44,87,20,064,33,88,12,102,33*5C

1611835987000,$GAGSV,1,1,02,104,56,289,35,121,63,051,32*6B

1611835987000,$BDGSV,2,1,05,211,15,045,21,219,29,307,27,220,47,243,38,223,36,068,31*6D

1611835987000,$BDGSV,2,2,05,228,16,123,31*60

1611835987000,$GPGSA,A,3,15,13,24,17,19,14,23,20,12,10,,,1.0,0.6,0.8*37

1611835987000,$GNGSA,A,3,68,78,79,87,88,,,,,,,,1.0,0.6,0.8*23

1611835987000,$GAGSA,A,3,104,121,,,,,,,,,,,1.0,0.6,0.8*2B

1611835987000,$BDGSA,A,3,219,220,223,228,,,,,,,,,1.0,0.6,0.8*2D

1611835987000,$GPRMC,121307.000,A,4540.3713,N,01156.0210,E,0.0,211.1,280121,,,A*60

1611835987000,$PSAMCLK,2142,38960500,21,9735290,346246,389605000*4F

1611835987000,$PSAMCLK,2142,38960500,21,9735290,346246,389605000*4F

1611835987000,$GPGGA,121308.000,4540.3713,N,01156.0210,E,1,23,0.4,48.6,M,47.1,M,,*6B

1611835987000,$PSAMSA,121308.000,4540.3713,N,01156.0210,E,1,M,,*62

1611835987000,$GPGLL,4540.3713,N,01156.0210,E,121308.000,A,A*53

1611835987000,$GPVTG,211.2,T,,M,0.0,N,0.0,K,A*0D

1611835987000,$GPGSV,3,1,12,10,12,323,25,12,19,220,27,13,55,145,40,14,28,051,24*7A

1611835987000,$GPGSV,3,2,12,15,70,247,39,17,36,096,37,19,30,125,36,20,20,289,31*72

1611835987000,$GPGSV,3,3,12,23,25,293,31,24,49,289,39,28,37,050,30,30,06,089,25*7F

1611835988000,$GLGSV,2,1,07,68,50,202,43,69,53,301,27,77,14,057,15,78,63,020,36*6D

1611835988000,$GLGSV,2,2,07,79,46,269,43,87,20,064,32,88,12,102,33*5A

1611835988000,$GAGSV,1,1,02,104,56,289,35,121,63,051,32*6B

1611835988000,$BDGSV,2,1,05,211,15,045,22,219,29,307,27,220,47,243,38,223,36,068,31*6E

1611835988000,$BDGSV,2,2,05,228,16,123,31*60

1611835988000,$GPGSA,A,3,15,13,24,17,19,14,23,20,12,10,30,,1.0,0.4,0.8*36

1611835988000,$GNGSA,A,3,68,78,79,87,88,,,,,,,,1.0,0.4,0.8*21

1611835988000,$GAGSA,A,3,104,121,,,,,,,,,,,1.0,0.4,0.8*29

1611835988000,$BDGSA,A,3,211,219,220,223,228,,,,,,,,1.0,0.4,0.8*1D

1611835988000,$GPRMC,121308.000,A,4540.3713,N,01156.0210,E,0.0,211.2,280121,,,A*6C

1611835988000,$PSAMCLK,2142,38960600,23,9735174,408040,389606000*4D

1611835988000,$PSAMCLK,2142,38960600,23,9735174,408040,389606000*4D

1611835989000,$GPGGA,121309.000,4540.3713,N,01156.0210,E,1,22,0.6,48.6,M,47.1,M,,*69

1611835989000,$PSAMSA,121309.000,4540.3713,N,01156.0210,E,1,M,,*63

1611835989000,$GPGLL,4540.3713,N,01156.0210,E,121309.000,A,A*52

1611835989000,$GPVTG,211.2,T,,M,0.0,N,0.0,K,A*0D

1611835989000,$GPGSV,3,1,12,10,12,323,23,12,19,220,27,13,55,145,40,14,28,051,23*7B

1611835989000,$GPGSV,3,2,12,15,70,247,38,17,36,096,36,19,30,125,36,20,20,289,31*72

1611835989000,$GPGSV,3,3,12,23,25,293,31,24,49,289,38,28,37,050,30,30,06,089,24*7F

1611835989000,$GLGSV,2,1,07,68,50,202,43,69,53,301,26,77,14,057,14,78,63,020,35*6E

1611835989000,$GLGSV,2,2,07,79,46,269,43,87,20,064,32,88,12,102,32*5B

1611835989000,$GAGSV,1,1,02,104,56,289,34,121,63,051,32*6A

1611835989000,$BDGSV,2,1,05,211,15,045,23,219,29,307,28,220,47,243,38,223,36,068,31*60

1611835989000,$BDGSV,2,2,05,228,16,123,31*60

1611835989000,$GPGSA,A,3,15,13,24,28,17,19,14,23,20,12,30,,1.0,0.6,0.8*3F

1611835989000,$GNGSA,A,3,68,78,79,88,,,,,,,,,1.0,0.6,0.8*2C

1611835989000,$GAGSA,A,3,104,121,,,,,,,,,,,1.0,0.6,0.8*2B

1611835989000,$BDGSA,A,3,211,219,220,223,228,,,,,,,,1.0,0.6,0.8*1F

1611835989000,$GPRMC,121309.000,A,4540.3713,N,01156.0210,E,0.0,211.2,280121,,,A*6D

1611835989000,$PSAMCLK,2142,38960700,22,9735033,469834,389607000*42

1611835989000,$PSAMCLK,2142,38960700,22,9735033,469834,389607000*42

1611835990000,$GPGGA,121310.000,4540.3713,N,01156.0210,E,1,21,0.6,48.6,M,47.1,M,,*62

1611835990000,$PSAMSA,121310.000,4540.3713,N,01156.0210,E,1,M,,*6B

1611835990000,$GPGLL,4540.3713,N,01156.0210,E,121310.000,A,A*5A

1611835990000,$GPVTG,211.2,T,,M,0.0,N,0.0,K,A*0D

1611835990000,$GPGSV,3,1,12,10,12,323,22,12,19,220,27,13,55,145,40,14,28,051,23*7A

1611835990000,$GPGSV,3,2,12,15,70,247,38,17,36,096,36,19,30,125,36,20,20,289,31*72

1611835990000,$GPGSV,3,3,12,23,25,293,31,24,49,289,38,28,37,050,28,30,06,089,24*76

1611835990000,$GLGSV,2,1,07,68,50,202,43,69,53,301,24,77,14,057,13,78,63,020,35*6B

1611835990000,$GLGSV,2,2,07,79,46,269,42,87,20,064,31,88,12,102,32*59

1611835990000,$GAGSV,1,1,02,104,56,289,34,121,63,051,32*6A

1611835990000,$BDGSV,2,1,05,211,15,045,23,219,29,307,28,220,47,243,37,223,36,068,31*6F

1611835990000,$BDGSV,2,2,05,228,16,123,31*60

1611835990000,$GPGSA,A,3,15,13,24,17,19,14,23,20,12,30,,,1.0,0.6,0.8*35

1611835990000,$GNGSA,A,3,68,78,79,87,88,,,,,,,,1.0,0.6,0.8*23

1611835990000,$GAGSA,A,3,104,121,,,,,,,,,,,1.0,0.6,0.8*2B

1611835990000,$BDGSA,A,3,211,220,223,228,,,,,,,,,1.0,0.6,0.8*25

1611835990000,$GPRMC,121310.000,A,4540.3713,N,01156.0210,E,0.0,211.2,280121,,,A*65

1611835990000,$PSAMCLK,2142,38960800,21,9734892,531626,389608000*42

1611835990000,$PSAMCLK,2142,38960800,21,9734892,531626,389608000*42

1611835991000,$GPGGA,121311.000,4540.3713,N,01156.0210,E,1,21,0.6,48.6,M,47.1,M,,*63

1611835991000,$PSAMSA,121311.000,4540.3713,N,01156.0210,E,1,M,,*6A

1611835991000,$GPGLL,4540.3713,N,01156.0210,E,121311.000,A,A*5B

1611835991000,$GPVTG,211.2,T,,M,0.0,N,0.0,K,A*0D

1611835991000,$GPGSV,3,1,12,10,12,323,20,12,19,220,26,13,55,145,41,14,28,051,23*78

1611835991000,$GPGSV,3,2,12,15,70,247,38,17,36,096,36,19,30,125,36,20,20,289,30*73

1611835991000,$GPGSV,3,3,12,23,25,293,31,24,49,289,37,28,37,050,27,30,06,089,23*71

1611835991000,$GLGSV,2,1,07,68,50,202,43,69,53,301,23,77,14,057,12,78,63,020,34*6C

1611835991000,$GLGSV,2,2,07,79,46,269,42,87,20,064,31,88,12,102,32*59

1611835991000,$GAGSV,1,1,02,104,56,289,34,121,63,051,32*6A

1611835991000,$BDGSV,2,1,05,211,15,045,23,219,29,307,28,220,47,243,37,223,36,068,31*6F

1611835991000,$BDGSV,2,2,05,228,16,123,31*60

1611835991000,$GPGSA,A,3,15,13,24,17,19,14,23,12,30,,,,1.2,0.6,1.0*3C

1611835991000,$GNGSA,A,3,68,78,79,87,88,,,,,,,,1.2,0.6,1.0*28

1611835991000,$GAGSA,A,3,104,121,,,,,,,,,,,1.2,0.6,1.0*20

1611835991000,$BDGSA,A,3,211,219,220,223,228,,,,,,,,1.2,0.6,1.0*14

1611835991000,$GPRMC,121311.000,A,4540.3713,N,01156.0210,E,0.0,211.2,280121,,,A*64

1611835991000,$PSAMCLK,2142,38960900,21,9734728,593417,389609000*44

1611835991000,$PSAMCLK,2142,38960900,21,9734728,593417,389609000*44

1611835992000,$GPGGA,121312.000,4540.3713,N,01156.0210,E,1,22,0.6,48.6,M,47.1,M,,*63

1611835992000,$PSAMSA,121312.000,4540.3713,N,01156.0210,E,1,M,,*69

1611835992000,$GPGLL,4540.3713,N,01156.0210,E,121312.000,A,A*58

1611835992000,$GPVTG,211.2,T,,M,0.0,N,0.0,K,A*0D

1611835992000,$GPGSV,3,1,12,10,12,323,19,12,19,220,26,13,55,145,41,14,28,051,23*72

1611835992000,$GPGSV,3,2,12,15,70,247,38,17,36,096,36,19,30,125,36,20,20,289,30*73

1611835992000,$GPGSV,3,3,12,23,25,293,31,24,49,289,37,28,37,050,25,30,06,089,23*73

1611835992000,$GLGSV,2,1,06,68,50,202,43,69,53,301,21,78,63,020,34,79,46,269,41*6F

1611835992000,$GLGSV,2,2,06,87,20,064,30,88,12,102,31*6D

1611835992000,$GAGSV,1,1,02,104,56,289,34,121,63,051,32*6A

1611835992000,$BDGSV,2,1,05,211,15,045,23,219,29,307,28,220,47,243,37,223,36,068,31*6F

1611835992000,$BDGSV,2,2,05,228,16,123,31*60

1611835992000,$GPGSA,A,3,15,13,24,17,19,14,23,20,12,30,,,1.0,0.6,0.8*35

1611835992000,$GNGSA,A,3,68,78,79,87,88,,,,,,,,1.0,0.6,0.8*23

1611835992000,$GAGSA,A,3,104,121,,,,,,,,,,,1.0,0.6,0.8*2B

1611835992000,$BDGSA,A,3,211,219,220,223,228,,,,,,,,1.0,0.6,0.8*1F

1611835992000,$GPRMC,121312.000,A,4540.3713,N,01156.0210,E,0.0,211.2,280121,,,A*67

1611835992000,$PSAMCLK,2142,38961000,22,9734562,655207,389610000*45

1611835992000,$PSAMCLK,2142,38961000,22,9734562,655207,389610000*45

1611835993000,$GPGGA,121313.000,4540.3713,N,01156.0210,E,1,20,0.6,48.6,M,47.1,M,,*60

1611835993000,$PSAMSA,121313.000,4540.3713,N,01156.0210,E,1,M,,*68

1611835993000,$GPGLL,4540.3713,N,01156.0210,E,121313.000,A,A*59

1611835993000,$GPVTG,211.2,T,,M,0.0,N,0.0,K,A*0D

1611835993000,$GPGSV,3,1,12,10,12,323,17,12,19,220,26,13,55,145,41,14,28,051,23*7C

1611835993000,$GPGSV,3,2,12,15,70,247,38,17,36,096,35,19,30,125,36,20,20,289,30*70

1611835993000,$GPGSV,3,3,12,23,25,293,30,24,49,289,36,28,37,050,24,30,06,089,22*73

1611835993000,$GLGSV,2,1,06,68,50,202,43,69,53,301,20,78,63,020,34,79,46,269,41*6E

1611835993000,$GLGSV,2,2,06,87,20,064,30,88,12,102,31*6D

1611835993000,$GAGSV,1,1,02,104,56,289,34,121,63,051,32*6A

1611835993000,$BDGSV,2,1,05,211,15,045,23,219,29,307,28,220,47,243,37,223,36,068,31*6F

1611835993000,$BDGSV,2,2,05,228,16,123,32*63

1611835993000,$GPGSA,A,3,15,13,24,17,19,14,23,20,12,30,,,1.0,0.6,0.8*35

1611835993000,$GNGSA,A,3,68,78,79,88,,,,,,,,,1.0,0.6,0.8*2C

1611835993000,$GAGSA,A,3,104,121,,,,,,,,,,,1.0,0.6,0.8*2B

1611835993000,$BDGSA,A,3,211,220,223,228,,,,,,,,,1.0,0.6,0.8*25

1611835993000,$GPRMC,121313.000,A,4540.3713,N,01156.0210,E,0.0,211.2,280121,,,A*66

1611835993000,$PSAMCLK,2142,38961100,20,9734372,716996,389611000*45

1611835993000,$PSAMCLK,2142,38961100,20,9734372,716996,389611000*45

1611835993000,$GPGGA,121314.000,4540.3713,N,01156.0210,E,1,22,0.6,48.6,M,47.1,M,,*65

1611835993000,$PSAMSA,121314.000,4540.3713,N,01156.0210,E,1,M,,*6F

1611835993000,$GPGLL,4540.3713,N,01156.0210,E,121314.000,A,A*5E

1611835993000,$GPVTG,211.2,T,,M,0.0,N,0.0,K,A*0D

1611835993000,$GPGSV,3,1,12,10,12,323,16,12,19,220,26,13,55,145,41,14,28,051,23*7D

1611835993000,$GPGSV,3,2,12,15,70,247,37,17,36,096,35,19,30,125,36,20,20,289,29*77

1611835993000,$GPGSV,3,3,12,23,25,293,30,24,49,289,36,28,37,050,23,30,06,089,22*74

1611835993000,$GLGSV,2,1,06,68,50,202,43,69,53,301,18,78,63,020,33,79,46,269,40*63

1611835993000,$GLGSV,2,2,06,87,20,064,29,88,12,102,31*65

1611835993000,$GAGSV,1,1,02,104,56,289,34,121,63,051,32*6A

1611835993000,$BDGSV,2,1,05,211,15,045,23,219,29,307,28,220,47,243,37,223,36,068,30*6E

1611835993000,$BDGSV,2,2,05,228,16,123,32*63

1611835993000,$GPGSA,A,3,15,13,24,17,19,14,23,20,12,30,,,1.0,0.6,0.8*35

1611835993000,$GNGSA,A,3,68,78,79,87,88,,,,,,,,1.0,0.6,0.8*23

1611835993000,$GAGSA,A,3,104,121,,,,,,,,,,,1.0,0.6,0.8*2B

1611835993000,$BDGSA,A,3,211,219,220,223,228,,,,,,,,1.0,0.6,0.8*1F

1611835993000,$GPRMC,121314.000,A,4540.3713,N,01156.0210,E,0.0,211.2,280121,,,A*61

1611835993000,$PSAMCLK,2142,38961200,22,9734192,778784,389612000*4E

1611835993000,$PSAMCLK,2142,38961200,22,9734192,778784,389612000*4E

1611835995000,$GPGGA,121315.000,4540.3713,N,01156.0210,E,1,23,0.6,48.6,M,47.1,M,,*65

1611835995000,$PSAMSA,121315.000,4540.3713,N,01156.0210,E,1,M,,*6E

1611835995000,$GPGLL,4540.3713,N,01156.0210,E,121315.000,A,A*5F

1611835995000,$GPVTG,211.2,T,,M,0.0,N,0.0,K,A*0D

1611835995000,$GPGSV,3,1,12,10,12,323,14,12,19,220,26,13,55,145,41,14,28,051,23*7F

1611835995000,$GPGSV,3,2,12,15,70,247,37,17,36,096,35,19,30,125,36,20,20,289,29*77

1611835995000,$GPGSV,3,3,12,23,25,293,30,24,49,289,35,28,37,050,23,30,06,089,22*77

1611835995000,$GLGSV,2,1,06,68,50,202,43,69,53,301,17,78,63,020,33,79,46,269,40*6C

1611835995000,$GLGSV,2,2,06,87,20,064,29,88,12,102,30*64

1611835995000,$GAGSV,1,1,02,104,56,289,34,121,63,051,32*6A

1611835995000,$BDGSV,2,1,05,211,15,045,23,219,29,307,28,220,47,243,37,223,36,068,30*6E

1611835995000,$BDGSV,2,2,05,228,16,123,32*63

1611835995000,$GPGSA,A,3,15,13,24,28,17,19,14,23,20,12,30,,1.0,0.6,0.8*3F

1611835995000,$GNGSA,A,3,68,78,79,87,88,,,,,,,,1.0,0.6,0.8*23

1611835995000,$GAGSA,A,3,104,121,,,,,,,,,,,1.0,0.6,0.8*2B

1611835995000,$BDGSA,A,3,211,219,220,223,228,,,,,,,,1.0,0.6,0.8*1F

1611835995000,$GPRMC,121315.000,A,4540.3713,N,01156.0210,E,0.0,211.2,280121,,,A*60

1611835995000,$PSAMCLK,2142,38961300,23,9734039,840571,389613000*43

1611835995000,$PSAMCLK,2142,38961300,23,9734039,840571,389613000*43

1611835996000,$GPGGA,121316.000,4540.3713,N,01156.0210,E,1,23,0.6,48.6,M,47.1,M,,*66

1611835996000,$PSAMSA,121316.000,4540.3713,N,01156.0210,E,1,M,,*6D

1611835996000,$GPGLL,4540.3713,N,01156.0210,E,121316.000,A,A*5C

1611835996000,$GPVTG,211.2,T,,M,0.0,N,0.0,K,A*0D

1611835996000,$GPGSV,3,1,12,10,12,323,13,12,19,220,26,13,55,145,41,14,28,051,23*78

1611835996000,$GPGSV,3,2,12,15,70,247,37,17,36,096,35,19,30,125,36,20,20,289,29*77

1611835996000,$GPGSV,3,3,12,23,25,293,30,24,49,289,35,28,37,050,22,30,06,089,21*75

1611835996000,$GLGSV,2,1,06,68,50,202,43,69,53,301,15,78,63,020,32,79,46,269,40*6F

1611835996000,$GLGSV,2,2,06,87,20,064,29,88,12,102,30*64

1611835996000,$GAGSV,1,1,02,104,56,289,34,121,63,051,32*6A

1611835996000,$BDGSV,2,1,05,211,15,045,23,219,29,307,28,220,47,243,37,223,36,068,30*6E

1611835996000,$BDGSV,2,2,05,228,16,123,32*63

1611835996000,$GPGSA,A,3,15,13,24,28,17,19,14,23,20,12,30,,1.0,0.6,0.8*3F

1611835996000,$GNGSA,A,3,68,78,79,87,88,,,,,,,,1.0,0.6,0.8*23

1611835996000,$GAGSA,A,3,104,121,,,,,,,,,,,1.0,0.6,0.8*2B

1611835996000,$BDGSA,A,3,211,219,220,223,228,,,,,,,,1.0,0.6,0.8*1F

1611835996000,$GPRMC,121316.000,A,4540.3713,N,01156.0210,E,0.0,211.2,280121,,,A*63

1611835996000,$PSAMCLK,2142,38961400,23,9733880,902356,389614000*4A

1611835996000,$PSAMCLK,2142,38961400,23,9733880,902356,389614000*4A

1611835996000,$GPGGA,121317.000,4540.3713,N,01156.0210,E,1,21,0.6,48.6,M,47.1,M,,*65

1611835996000,$PSAMSA,121317.000,4540.3713,N,01156.0210,E,1,M,,*6C

1611835996000,$GPGLL,4540.3713,N,01156.0210,E,121317.000,A,A*5D

1611835996000,$GPVTG,211.2,T,,M,0.0,N,0.0,K,A*0D

1611835996000,$GPGSV,3,1,12,10,12,323,13,12,19,220,25,13,55,145,41,14,28,051,23*7B

1611835996000,$GPGSV,3,2,12,15,70,247,37,17,36,096,35,19,30,125,36,20,20,289,28*76

1611835996000,$GPGSV,3,3,12,23,25,293,30,24,49,289,35,28,37,050,22,30,06,089,21*75

1611835996000,$GLGSV,2,1,06,68,50,202,43,69,53,301,14,78,63,020,32,79,46,269,39*60

1611835996000,$GLGSV,2,2,06,87,20,064,28,88,12,102,30*65

1611835996000,$GAGSV,1,1,02,104,56,289,34,121,63,051,32*6A

1611835996000,$BDGSV,2,1,05,211,15,045,23,219,29,307,28,220,47,243,37,223,36,068,30*6E

1611835996000,$BDGSV,2,2,05,228,16,123,32*63

1611835996000,$GPGSA,A,3,15,13,24,28,17,19,14,23,12,30,,,1.0,0.6,1.0*34

1611835996000,$GNGSA,A,3,68,78,79,88,,,,,,,,,1.0,0.6,1.0*25

1611835996000,$GAGSA,A,3,104,121,,,,,,,,,,,1.0,0.6,1.0*22

1611835996000,$BDGSA,A,3,211,219,220,223,228,,,,,,,,1.0,0.6,1.0*16

1611835996000,$GPRMC,121317.000,A,4540.3713,N,01156.0210,E,0.0,211.2,280121,,,A*62

1611835996000,$PSAMCLK,2142,38961500,21,9733704,964140,389615000*4E

1611835997000,$PSAMCLK,2142,38961500,21,9733704,964140,389615000*4E

1611835997000,$GPGGA,121318.000,4540.3713,N,01156.0210,E,1,21,0.6,48.6,M,47.1,M,,*6A

1611835997000,$PSAMSA,121318.000,4540.3713,N,01156.0210,E,1,M,,*63

1611835997000,$GPGLL,4540.3713,N,01156.0210,E,121318.000,A,A*52

1611835997000,$GPVTG,211.2,T,,M,0.0,N,0.0,K,A*0D

1611835997000,$GPGSV,3,1,12,10,12,323,12,12,19,220,25,13,55,145,41,14,28,051,22*7B

1611835997000,$GPGSV,3,2,12,15,70,247,37,17,36,096,35,19,30,125,36,20,20,289,28*76

1611835997000,$GPGSV,3,3,12,23,25,293,30,24,49,289,34,28,37,050,22,30,06,089,21*74

1611835997000,$GLGSV,2,1,06,68,50,202,43,69,53,301,13,78,62,020,32,79,47,269,39*67

1611835997000,$GLGSV,2,2,06,87,20,064,28,88,12,102,30*65

1611835997000,$GAGSV,1,1,02,104,56,289,34,121,63,051,32*6A

1611835997000,$BDGSV,2,1,05,211,15,045,23,219,29,307,28,220,47,243,37,223,36,068,30*6E

1611835997000,$BDGSV,2,2,05,228,16,123,32*63

1611835997000,$GPGSA,A,3,15,13,24,28,17,19,14,23,12,30,,,1.0,0.6,1.0*34

1611835997000,$GNGSA,A,3,68,78,79,88,,,,,,,,,1.0,0.6,1.0*25

1611835997000,$GAGSA,A,3,104,121,,,,,,,,,,,1.0,0.6,1.0*22

1611835998000,$BDGSA,A,3,211,219,220,223,228,,,,,,,,1.0,0.6,1.0*16

1611835998000,$GPRMC,121318.000,A,4540.3713,N,01156.0210,E,0.0,211.2,280121,,,A*6D

1611835998000,$PSAMCLK,2142,38961600,21,9733523,1025923,389616000*79

1611835998000,$PSAMCLK,2142,38961600,21,9733523,1025923,389616000*79

1611835999000,$GPGGA,121319.000,4540.3713,N,01156.0210,E,1,21,0.6,48.6,M,47.1,M,,*6B

1611835999000,$PSAMSA,121319.000,4540.3713,N,01156.0210,E,1,M,,*62

1611835999000,$GPGLL,4540.3713,N,01156.0210,E,121319.000,A,A*53

1611835999000,$GPVTG,211.2,T,,M,0.0,N,0.0,K,A*0D

1611835999000,$GPGSV,3,1,11,12,19,220,25,13,55,145,41,14,28,051,22,15,70,247,37*7D

1611835999000,$GPGSV,3,2,11,17,36,096,35,19,30,125,36,20,20,289,28,23,25,293,30*7E

1611835999000,$GPGSV,3,3,11,24,49,289,34,28,37,050,22,30,06,089,21*4A

1611835999000,$GLGSV,2,1,06,68,50,202,43,69,53,301,12,78,62,020,32,79,47,269,39*66

1611835999000,$GLGSV,2,2,06,87,20,064,26,88,12,102,29*63

1611835999000,$GAGSV,1,1,02,104,56,289,34,121,63,051,32*6A

1611835999000,$BDGSV,2,1,05,211,15,045,23,219,29,307,28,220,47,243,37,223,36,068,30*6E

1611835999000,$BDGSV,2,2,05,228,16,123,32*63

1611835999000,$GPGSA,A,3,15,13,24,28,17,19,14,23,12,30,,,1.0,0.6,1.0*34

1611835999000,$GNGSA,A,3,68,78,79,88,,,,,,,,,1.0,0.6,1.0*25

1611835999000,$GAGSA,A,3,104,121,,,,,,,,,,,1.0,0.6,1.0*22

1611835999000,$BDGSA,A,3,211,219,220,223,228,,,,,,,,1.0,0.6,1.0*16

1611835999000,$GPRMC,121319.000,A,4540.3713,N,01156.0210,E,0.0,211.2,280121,,,A*6C

1611835999000,$PSAMCLK,2142,38961700,21,9733380,1087706,389617000*77

1611835999000,$PSAMCLK,2142,38961700,21,9733380,1087706,389617000*77

1611836000000,$GPGGA,121320.000,4540.3713,N,01156.0210,E,1,22,0.6,48.6,M,47.1,M,,*62

1611836000000,$PSAMSA,121320.000,4540.3713,N,01156.0210,E,1,M,,*68

1611836000000,$GPGLL,4540.3713,N,01156.0210,E,121320.000,A,A*59

1611836000000,$GPVTG,211.2,T,,M,0.0,N,0.0,K,A*0D

1611836000000,$GPGSV,3,1,11,12,19,220,25,13,55,145,41,14,28,051,22,15,70,247,37*7D

1611836000000,$GPGSV,3,2,11,17,36,096,34,19,30,125,36,20,20,289,27,23,25,293,30*70

1611836000000,$GPGSV,3,3,11,24,49,289,34,28,37,050,22,30,06,089,21*4A

1611836000000,$GLGSV,2,1,05,68,50,202,43,78,62,020,31,79,47,269,39,87,20,064,25*66

1611836000000,$GLGSV,2,2,05,88,12,102,29*5B

1611836000000,$GAGSV,1,1,02,104,56,289,34,121,63,051,32*6A

1611836000000,$BDGSV,2,1,05,211,15,045,23,219,29,307,28,220,47,243,37,223,36,068,30*6E

1611836000000,$BDGSV,2,2,05,228,16,123,32*63

1611836000000,$GPGSA,A,3,15,13,24,28,17,19,14,23,20,12,30,,1.0,0.6,0.8*3F

1611836000000,$GNGSA,A,3,68,78,79,88,,,,,,,,,1.0,0.6,0.8*2C

1611836000000,$GAGSA,A,3,104,121,,,,,,,,,,,1.0,0.6,0.8*2B

1611836000000,$BDGSA,A,3,211,219,220,223,228,,,,,,,,1.0,0.6,0.8*1F

1611836000000,$GPRMC,121320.000,A,4540.3713,N,01156.0210,E,0.0,211.2,280121,,,A*66

1611836000000,$PSAMCLK,2142,38961800,22,9733265,1149488,389618000*78

1611836000000,$PSAMCLK,2142,38961800,22,9733265,1149488,389618000*78

1611836001000,$GPGGA,121321.000,4540.3713,N,01156.0210,E,1,22,0.6,48.6,M,47.1,M,,*63

1611836001000,$PSAMSA,121321.000,4540.3713,N,01156.0210,E,1,M,,*69

1611836001000,$GPGLL,4540.3713,N,01156.0210,E,121321.000,A,A*58

1611836001000,$GPVTG,211.2,T,,M,0.0,N,0.0,K,A*0D

1611836001000,$GPGSV,3,1,11,12,19,220,25,13,55,145,41,14,28,051,22,15,70,247,37*7D

1611836001000,$GPGSV,3,2,11,17,36,096,34,19,30,125,36,20,20,289,27,23,25,293,30*70

1611836001000,$GPGSV,3,3,11,24,49,289,33,28,37,050,22,30,06,089,20*4C

1611836001000,$GLGSV,2,1,05,68,50,202,43,78,62,020,31,79,47,269,38,87,20,064,23*61

1611836001000,$GLGSV,2,2,05,88,12,102,29*5B

1611836001000,$GAGSV,1,1,02,104,56,289,34,121,63,051,32*6A

1611836001000,$BDGSV,2,1,05,211,15,045,23,219,29,307,28,220,47,243,37,223,36,068,30*6E

1611836001000,$BDGSV,2,2,05,228,16,123,33*62

1611836001000,$GPGSA,A,3,15,13,24,28,17,19,14,23,20,12,30,,1.0,0.6,0.8*3F

1611836001000,$GNGSA,A,3,68,78,79,88,,,,,,,,,1.0,0.6,0.8*2C

1611836001000,$GAGSA,A,3,104,121,,,,,,,,,,,1.0,0.6,0.8*2B

1611836001000,$BDGSA,A,3,211,219,220,223,228,,,,,,,,1.0,0.6,0.8*1F

1611836001000,$GPRMC,121321.000,A,4540.3713,N,01156.0210,E,0.0,211.2,280121,,,A*67

1611836001000,$PSAMCLK,2142,38961900,22,9733159,1211270,389619000*7B

1611836001000,$PSAMCLK,2142,38961900,22,9733159,1211270,389619000*7B

1611836002000,$GPGGA,121322.000,4540.3713,N,01156.0210,E,1,22,0.6,48.6,M,47.1,M,,*60

1611836002000,$PSAMSA,121322.000,4540.3713,N,01156.0210,E,1,M,,*6A

1611836002000,$GPGLL,4540.3713,N,01156.0210,E,121322.000,A,A*5B

1611836002000,$GPVTG,211.2,T,,M,0.0,N,0.0,K,A*0D

1611836002000,$GPGSV,3,1,11,12,19,220,25,13,55,145,41,14,28,051,23,15,70,247,37*7C

1611836002000,$GPGSV,3,2,11,17,36,096,34,19,30,125,36,20,20,289,27,23,25,293,30*70

1611836002000,$GPGSV,3,3,11,24,49,289,33,28,37,050,22,30,06,089,20*4C

1611836002000,$GLGSV,2,1,05,68,50,202,43,78,62,020,31,79,47,269,38,87,20,064,22*60

1611836002000,$GLGSV,2,2,05,88,12,102,29*5B

1611836002000,$GAGSV,1,1,02,104,56,289,34,121,63,051,32*6A

1611836002000,$BDGSV,2,1,05,211,15,045,23,219,29,307,28,220,47,243,37,223,36,068,30*6E

1611836002000,$BDGSV,2,2,05,228,16,123,33*62

1611836002000,$GPGSA,A,3,15,13,24,28,17,19,14,23,20,12,30,,1.0,0.6,0.8*3F

1611836002000,$GNGSA,A,3,68,78,79,88,,,,,,,,,1.0,0.6,0.8*2C

1611836002000,$GAGSA,A,3,104,121,,,,,,,,,,,1.0,0.6,0.8*2B

1611836002000,$BDGSA,A,3,211,219,220,223,228,,,,,,,,1.0,0.6,0.8*1F

1611836002000,$GPRMC,121322.000,A,4540.3713,N,01156.0210,E,0.0,211.2,280121,,,A*64

1611836002000,$PSAMCLK,2142,38962000,22,9733049,1273050,389620000*7F

1611836002000,$PSAMCLK,2142,38962000,22,9733049,1273050,389620000*7F

1611836002000,$GPGGA,121323.000,4540.3713,N,01156.0210,E,1,20,0.6,48.6,M,47.1,M,,*63

1611836002000,$PSAMSA,121323.000,4540.3713,N,01156.0210,E,1,M,,*6B

1611836002000,$GPGLL,4540.3713,N,01156.0210,E,121323.000,A,A*5A

1611836002000,$GPVTG,211.2,T,,M,0.0,N,0.0,K,A*0D

1611836002000,$GPGSV,3,1,11,12,19,220,25,13,55,145,40,14,28,051,23,15,70,247,37*7D

1611836002000,$GPGSV,3,2,11,17,36,096,34,19,30,125,36,20,20,289,27,23,25,293,30*70

1611836002000,$GPGSV,3,3,11,24,49,289,33,28,37,050,22,30,06,089,20*4C

1611836002000,$GLGSV,2,1,05,68,50,202,42,78,62,020,31,79,47,269,38,87,20,064,20*63

1611836002000,$GLGSV,2,2,05,88,12,102,28*5A

1611836002000,$GAGSV,1,1,02,104,56,289,34,121,63,051,32*6A

1611836002000,$BDGSV,2,1,05,211,15,045,22,219,29,307,28,220,47,243,37,223,36,068,29*67

1611836002000,$BDGSV,2,2,05,228,16,123,33*62

1611836002000,$GPGSA,A,3,15,13,24,28,17,19,14,23,12,30,,,1.2,0.6,1.0*36

1611836002000,$GNGSA,A,3,68,78,79,,,,,,,,,,1.2,0.6,1.0*27

1611836002000,$GAGSA,A,3,104,121,,,,,,,,,,,1.2,0.6,1.0*20

1611836002000,$BDGSA,A,3,211,219,220,223,228,,,,,,,,1.2,0.6,1.0*14

1611836002000,$GPRMC,121323.000,A,4540.3713,N,01156.0210,E,0.0,211.2,280121,,,A*65

1611836002000,$PSAMCLK,2142,38962100,20,9732964,1334830,389621000*76

1611836003000,$PSAMCLK,2142,38962100,20,9732964,1334830,389621000*76

1611836004000,$GPGGA,121324.000,4540.3713,N,01156.0210,E,1,20,0.6,48.6,M,47.1,M,,*64

1611836004000,$PSAMSA,121324.000,4540.3713,N,01156.0210,E,1,M,,*6C

1611836004000,$GPGLL,4540.3713,N,01156.0210,E,121324.000,A,A*5D

1611836004000,$GPVTG,211.2,T,,M,0.0,N,0.0,K,A*0D

1611836004000,$GPGSV,3,1,11,12,19,220,25,13,55,145,40,14,28,051,23,15,70,247,37*7D

1611836004000,$GPGSV,3,2,11,17,36,096,34,19,30,125,36,20,20,289,26,23,25,293,30*71

1611836004000,$GPGSV,3,3,11,24,49,289,32,28,37,050,23,30,06,089,20*4C

1611836004000,$GLGSV,2,1,05,68,50,202,42,78,62,020,31,79,47,269,38,87,20,064,19*69

1611836004000,$GLGSV,2,2,05,88,12,102,28*5A

1611836004000,$GAGSV,1,1,02,104,56,289,34,121,63,051,32*6A

1611836004000,$BDGSV,2,1,05,211,15,045,22,219,29,307,28,220,47,243,37,223,36,068,29*67

1611836004000,$BDGSV,2,2,05,228,16,123,33*62

1611836004000,$GPGSA,A,3,15,13,24,28,17,19,14,23,12,30,,,1.2,0.6,1.0*36

1611836004000,$GNGSA,A,3,68,78,79,,,,,,,,,,1.2,0.6,1.0*27

1611836004000,$GAGSA,A,3,104,121,,,,,,,,,,,1.2,0.6,1.0*20

1611836004000,$BDGSA,A,3,211,219,220,223,228,,,,,,,,1.2,0.6,1.0*14

1611836004000,$GPRMC,121324.000,A,4540.3713,N,01156.0210,E,0.0,211.2,280121,,,A*62

1611836004000,$PSAMCLK,2142,38962200,20,9732882,1396610,389622000*7B

1611836004000,$PSAMCLK,2142,38962200,20,9732882,1396610,389622000*7B

1611836005000,$GPGGA,121325.000,4540.3713,N,01156.0210,E,1,21,0.6,48.6,M,47.1,M,,*64

1611836005000,$PSAMSA,121325.000,4540.3713,N,01156.0210,E,1,M,,*6D

1611836005000,$GPGLL,4540.3713,N,01156.0210,E,121325.000,A,A*5C

1611836005000,$GPVTG,211.2,T,,M,0.0,N,0.0,K,A*0D

1611836005000,$GPGSV,3,1,11,12,19,220,25,13,55,145,40,14,28,051,23,15,70,247,37*7D

1611836005000,$GPGSV,3,2,11,17,36,096,34,19,30,125,36,20,20,289,26,23,25,293,30*71

1611836005000,$GPGSV,3,3,11,24,49,289,32,28,37,050,23,30,06,089,20*4C

1611836005000,$GLGSV,2,1,05,68,50,202,42,78,62,020,31,79,47,269,38,87,20,064,17*67

1611836005000,$GLGSV,2,2,05,88,12,102,28*5A

1611836005000,$GAGSV,1,1,02,104,56,289,34,121,63,051,32*6A

1611836005000,$BDGSV,2,1,05,211,15,045,22,219,29,307,28,220,47,243,37,223,36,068,29*67

1611836005000,$BDGSV,2,2,05,228,16,123,34*65

1611836005000,$GPGSA,A,3,15,13,24,28,17,19,14,23,20,12,30,,1.0,0.6,0.8*3F

1611836005000,$GNGSA,A,3,68,78,79,88,,,,,,,,,1.0,0.6,0.8*2C

1611836005000,$GAGSA,A,3,104,121,,,,,,,,,,,1.0,0.6,0.8*2B

1611836005000,$BDGSA,A,3,219,220,223,228,,,,,,,,,1.0,0.6,0.8*2D

1611836005000,$GPRMC,121325.000,A,4540.3713,N,01156.0210,E,0.0,211.2,280121,,,A*63

1611836005000,$PSAMCLK,2142,38962300,21,9732798,1458389,389623000*7E

1611836005000,$PSAMCLK,2142,38962300,21,9732798,1458389,389623000*7E

1611836006000,$GPGGA,121326.000,4540.3713,N,01156.0210,E,1,21,0.6,48.6,M,47.1,M,,*67

1611836006000,$PSAMSA,121326.000,4540.3713,N,01156.0210,E,1,M,,*6E

1611836006000,$GPGLL,4540.3713,N,01156.0210,E,121326.000,A,A*5F

1611836006000,$GPVTG,211.2,T,,M,0.0,N,0.0,K,A*0D

1611836006000,$GPGSV,3,1,11,12,19,220,26,13,55,145,40,14,28,051,23,15,70,247,37*7E

1611836006000,$GPGSV,3,2,11,17,36,096,34,19,30,125,36,20,20,289,26,23,25,293,30*71

1611836006000,$GPGSV,3,3,11,24,49,289,32,28,37,050,23,30,06,089,20*4C

1611836006000,$GLGSV,2,1,05,68,50,202,42,78,62,020,30,79,47,269,37,87,20,064,18*66

1611836006000,$GLGSV,2,2,05,88,12,102,28*5A

1611836006000,$GAGSV,1,1,02,104,56,289,34,121,63,051,32*6A

1611836006000,$BDGSV,2,1,05,211,15,045,22,219,29,307,27,220,47,243,37,223,36,068,29*68

1611836006000,$BDGSV,2,2,05,228,16,123,34*65

1611836006000,$GPGSA,A,3,15,13,24,28,17,19,14,23,12,30,,,1.2,0.6,1.0*36

1611836006000,$GNGSA,A,3,68,78,79,88,,,,,,,,,1.2,0.6,1.0*27

1611836006000,$GAGSA,A,3,104,121,,,,,,,,,,,1.2,0.6,1.0*20

1611836006000,$BDGSA,A,3,211,219,220,223,228,,,,,,,,1.2,0.6,1.0*14

1611836006000,$GPRMC,121326.000,A,4540.3713,N,01156.0210,E,0.0,211.2,280121,,,A*60

1611836006000,$PSAMCLK,2142,38962400,21,9732687,1520168,389624000*72

1611836006000,$PSAMCLK,2142,38962400,21,9732687,1520168,389624000*72

1611836007000,$GPGGA,121327.000,4540.3713,N,01156.0210,E,1,22,0.6,48.6,M,47.1,M,,*65

1611836007000,$PSAMSA,121327.000,4540.3713,N,01156.0210,E,1,M,,*6F

1611836007000,$GPGLL,4540.3713,N,01156.0210,E,121327.000,A,A*5E

1611836007000,$GPVTG,211.2,T,,M,0.0,N,0.0,K,A*0D

1611836007000,$GPGSV,3,1,11,12,19,220,26,13,55,145,40,14,28,051,23,15,70,247,37*7E

1611836007000,$GPGSV,3,2,11,17,36,096,34,19,30,125,36,20,20,289,26,23,25,293,30*71

1611836007000,$GPGSV,3,3,11,24,49,289,32,28,37,050,23,30,06,089,19*46

1611836007000,$GLGSV,2,1,05,68,50,202,42,78,62,020,30,79,47,269,37,87,20,064,19*67

1611836007000,$GLGSV,2,2,05,88,12,102,28*5A

1611836007000,$GAGSV,1,1,02,104,56,289,34,121,63,051,32*6A

1611836007000,$BDGSV,2,1,05,211,15,045,22,219,29,307,27,220,47,243,37,223,36,068,29*68

1611836007000,$BDGSV,2,2,05,228,16,123,34*65

1611836007000,$GPGSA,A,3,15,13,24,28,17,19,14,23,20,12,30,,1.0,0.6,0.8*3F

1611836007000,$GNGSA,A,3,68,78,79,88,,,,,,,,,1.0,0.6,0.8*2C

1611836007000,$GAGSA,A,3,104,121,,,,,,,,,,,1.0,0.6,0.8*2B

1611836007000,$BDGSA,A,3,211,219,220,223,228,,,,,,,,1.0,0.6,0.8*1F

1611836007000,$GPRMC,121327.000,A,4540.3713,N,01156.0210,E,0.0,211.2,280121,,,A*61

1611836007000,$PSAMCLK,2142,38962500,22,9732581,1581946,389625000*7B

1611836007000,$PSAMCLK,2142,38962500,22,9732581,1581946,389625000*7B

1611836008000,$GPGGA,121328.000,4540.3713,N,01156.0210,E,1,22,0.6,48.6,M,47.1,M,,*6A

1611836008000,$PSAMSA,121328.000,4540.3713,N,01156.0210,E,1,M,,*60

1611836008000,$GPGLL,4540.3713,N,01156.0210,E,121328.000,A,A*51

1611836008000,$GPVTG,211.2,T,,M,0.0,N,0.0,K,A*0D

1611836008000,$GPGSV,3,1,11,12,19,220,26,13,55,145,40,14,28,051,23,15,70,247,37*7E

1611836008000,$GPGSV,3,2,11,17,36,096,34,19,30,125,36,20,20,289,26,23,25,293,30*71

1611836008000,$GPGSV,3,3,11,24,49,289,31,28,37,050,23,30,06,089,19*45

1611836008000,$GLGSV,2,1,05,68,50,202,42,78,62,020,30,79,47,269,37,87,20,064,19*67

1611836008000,$GLGSV,2,2,05,88,12,102,27*55

1611836008000,$GAGSV,1,1,02,104,56,289,34,121,63,051,32*6A

1611836008000,$BDGSV,2,1,05,211,15,045,22,219,29,307,27,220,47,243,37,223,36,068,29*68

1611836008000,$BDGSV,2,2,05,228,16,123,34*65

1611836008000,$GPGSA,A,3,15,13,24,28,17,19,14,23,20,12,30,,1.0,0.6,0.8*3F

1611836008000,$GNGSA,A,3,68,78,79,87,88,,,,,,,,1.0,0.6,0.8*23

1611836008000,$GAGSA,A,3,104,121,,,,,,,,,,,1.0,0.6,0.8*2B

1611836008000,$BDGSA,A,3,219,220,223,228,,,,,,,,,1.0,0.6,0.8*2D

1611836008000,$GPRMC,121328.000,A,4540.3713,N,01156.0210,E,0.0,211.2,280121,,,A*6E

1611836008000,$PSAMCLK,2142,38962600,22,9732476,1643722,389626000*73

1611836008000,$PSAMCLK,2142,38962600,22,9732476,1643722,389626000*73

1611836009000,$GPGGA,121329.000,4540.3713,N,01156.0210,E,1,21,0.6,48.6,M,47.1,M,,*68

1611836009000,$PSAMSA,121329.000,4540.3713,N,01156.0210,E,1,M,,*61

1611836009000,$GPGLL,4540.3713,N,01156.0210,E,121329.000,A,A*50

1611836009000,$GPVTG,211.2,T,,M,0.0,N,0.0,K,A*0D

1611836009000,$GPGSV,3,1,11,12,19,220,26,13,55,145,41,14,28,051,23,15,70,247,37*7F

1611836009000,$GPGSV,3,2,11,17,36,096,34,19,30,125,36,20,20,289,25,23,25,293,30*72

1611836009000,$GPGSV,3,3,11,24,49,289,31,28,37,050,24,30,06,089,19*42

1611836009000,$GLGSV,2,1,05,68,50,202,42,78,62,020,30,79,47,269,37,87,20,064,19*67

1611836009000,$GLGSV,2,2,05,88,12,102,27*55

1611836009000,$GAGSV,1,1,02,104,56,289,34,121,63,051,32*6A

1611836009000,$BDGSV,2,1,05,211,15,045,22,219,29,307,27,220,47,243,37,223,36,068,29*68

1611836009000,$BDGSV,2,2,05,228,16,123,34*65

1611836009000,$GPGSA,A,3,15,13,24,28,17,19,14,23,20,12,30,,1.0,0.6,0.8*3F

1611836009000,$GNGSA,A,3,68,78,79,87,,,,,,,,,1.0,0.6,0.8*23

1611836009000,$GAGSA,A,3,104,121,,,,,,,,,,,1.0,0.6,0.8*2B

1611836009000,$BDGSA,A,3,211,220,223,228,,,,,,,,,1.0,0.6,0.8*25

1611836009000,$GPRMC,121329.000,A,4540.3713,N,01156.0210,E,0.0,211.2,280121,,,A*6F

1611836009000,$PSAMCLK,2142,38962700,21,9732393,1705499,389627000*7C

1611836009000,$PSAMCLK,2142,38962700,21,9732393,1705499,389627000*7C

1611836010000,$GPGGA,121330.000,4540.3713,N,01156.0210,E,1,22,0.6,48.6,M,47.1,M,,*63

1611836010000,$PSAMSA,121330.000,4540.3713,N,01156.0210,E,1,M,,*69

1611836010000,$GPGLL,4540.3713,N,01156.0210,E,121330.000,A,A*58

1611836010000,$GPVTG,211.2,T,,M,0.0,N,0.0,K,A*0D

1611836010000,$GPGSV,3,1,11,12,19,220,27,13,55,145,41,14,28,051,23,15,70,247,37*7E

1611836010000,$GPGSV,3,2,11,17,36,096,34,19,30,125,36,20,20,289,25,23,25,293,30*72

1611836010000,$GPGSV,3,3,11,24,49,289,31,28,37,050,24,30,06,089,19*42

1611836010000,$GLGSV,2,1,05,68,50,202,42,78,62,020,30,79,47,269,37,87,20,064,19*67

1611836010000,$GLGSV,2,2,05,88,12,102,27*55

1611836010000,$GAGSV,1,1,02,104,56,289,34,121,63,051,32*6A

1611836010000,$BDGSV,2,1,05,211,15,045,22,219,29,307,27,220,47,243,37,223,36,068,29*68

1611836010000,$BDGSV,2,2,05,228,16,123,34*65

1611836010000,$GPGSA,A,3,15,13,24,28,17,19,14,23,20,12,30,,1.0,0.6,0.8*3F

1611836010000,$GNGSA,A,3,68,78,79,87,88,,,,,,,,1.0,0.6,0.8*23

1611836010000,$GAGSA,A,3,104,121,,,,,,,,,,,1.0,0.6,0.8*2B

1611836010000,$BDGSA,A,3,219,220,223,228,,,,,,,,,1.0,0.6,0.8*2D

1611836010000,$GPRMC,121330.000,A,4540.3713,N,01156.0210,E,0.0,211.2,280121,,,A*67

1611836010000,$PSAMCLK,2142,38962800,22,9732326,1767276,389628000*72

1611836010000,$PSAMCLK,2142,38962800,22,9732326,1767276,389628000*72

1611836011000,$GPGGA,121331.000,4540.3713,N,01156.0210,E,1,22,0.6,48.6,M,47.1,M,,*62

1611836011000,$PSAMSA,121331.000,4540.3713,N,01156.0210,E,1,M,,*68

1611836011000,$GPGLL,4540.3713,N,01156.0210,E,121331.000,A,A*59

1611836011000,$GPVTG,211.2,T,,M,0.0,N,0.0,K,A*0D

1611836011000,$GPGSV,3,1,11,12,19,220,27,13,55,146,41,14,28,051,23,15,70,246,37*7C

1611836011000,$GPGSV,3,2,11,17,36,095,34,19,30,125,36,20,20,289,25,23,25,293,30*71

1611836011000,$GPGSV,3,3,11,24,49,289,31,28,37,050,24,30,06,089,19*42

1611836011000,$GLGSV,2,1,05,68,50,202,42,78,62,020,30,79,47,269,37,87,20,064,19*67

1611836011000,$GLGSV,2,2,05,88,12,102,27*55

1611836011000,$GAGSV,1,1,02,104,56,289,34,121,63,051,32*6A

1611836011000,$BDGSV,2,1,05,211,15,045,22,219,29,307,27,220,47,243,37,223,36,068,29*68

1611836011000,$BDGSV,2,2,05,228,16,123,34*65

1611836011000,$GPGSA,A,3,15,13,24,28,17,19,23,20,12,30,,,1.0,0.6,0.8*3A

1611836011000,$GNGSA,A,3,68,78,79,87,88,,,,,,,,1.0,0.6,0.8*23

1611836011000,$GAGSA,A,3,104,121,,,,,,,,,,,1.0,0.6,0.8*2B

1611836011000,$BDGSA,A,3,211,219,220,223,228,,,,,,,,1.0,0.6,0.8*1F

1611836011000,$GPRMC,121331.000,A,4540.3713,N,01156.0210,E,0.0,211.2,280121,,,A*66

1611836011000,$PSAMCLK,2142,38962900,22,9732249,1829051,389629000*78

1611836011000,$PSAMCLK,2142,38962900,22,9732249,1829051,389629000*78

1611836012000,$GPGGA,121332.000,4540.3713,N,01156.0210,E,1,20,0.6,48.6,M,47.1,M,,*63

1611836012000,$PSAMSA,121332.000,4540.3713,N,01156.0210,E,1,M,,*6B

1611836012000,$GPGLL,4540.3713,N,01156.0210,E,121332.000,A,A*5A

1611836012000,$GPVTG,211.2,T,,M,0.0,N,0.0,K,A*0D

1611836012000,$GPGSV,3,1,11,12,19,220,27,13,55,146,41,14,28,051,23,15,70,246,37*7C

1611836012000,$GPGSV,3,2,11,17,36,095,35,19,30,125,36,20,20,289,25,23,25,293,30*70

1611836012000,$GPGSV,3,3,11,24,49,289,30,28,37,050,24,30,06,089,19*43

1611836012000,$GLGSV,2,1,05,68,50,202,42,78,62,020,30,79,47,269,37,87,20,064,19*67

1611836012000,$GLGSV,2,2,05,88,12,102,27*55

1611836012000,$GAGSV,1,1,02,104,56,289,34,121,63,051,32*6A

1611836012000,$BDGSV,2,1,05,211,15,045,21,219,29,307,27,220,47,243,37,223,36,068,29*6B

1611836012000,$BDGSV,2,2,05,228,16,123,34*65

1611836012000,$GPGSA,A,3,15,13,24,28,17,19,14,20,12,30,,,1.2,0.6,1.0*35

1611836012000,$GNGSA,A,3,68,78,79,87,,,,,,,,,1.2,0.6,1.0*28

1611836012000,$GAGSA,A,3,104,121,,,,,,,,,,,1.2,0.6,1.0*20

1611836012000,$BDGSA,A,3,219,220,223,228,,,,,,,,,1.2,0.6,1.0*26

1611836012000,$GPRMC,121332.000,A,4540.3713,N,01156.0210,E,0.0,211.2,280121,,,A*65

1611836012000,$PSAMCLK,2142,38963000,20,9732162,1890826,389630000*7A

1611836012000,$PSAMCLK,2142,38963000,20,9732162,1890826,389630000*7A

1611836013000,$GPGGA,121333.000,4540.3713,N,01156.0210,E,1,21,0.6,48.6,M,47.1,M,,*63

1611836013000,$PSAMSA,121333.000,4540.3713,N,01156.0210,E,1,M,,*6A

1611836013000,$GPGLL,4540.3713,N,01156.0210,E,121333.000,A,A*5B

1611836013000,$GPVTG,211.2,T,,M,0.0,N,0.0,K,A*0D

1611836013000,$GPGSV,3,1,11,12,19,220,27,13,55,146,41,14,28,051,23,15,70,246,37*7C

1611836013000,$GPGSV,3,2,11,17,36,095,35,19,30,125,36,20,20,289,25,23,25,293,30*70

1611836013000,$GPGSV,3,3,11,24,49,289,30,28,37,050,24,30,06,089,19*43

1611836013000,$GLGSV,2,1,05,68,50,202,42,78,62,020,30,79,47,269,37,87,20,064,19*67

1611836013000,$GLGSV,2,2,05,88,12,102,26*54

1611836013000,$GAGSV,1,1,02,104,56,289,34,121,63,051,32*6A

1611836013000,$BDGSV,2,1,05,211,15,045,21,219,29,307,27,220,47,243,37,223,36,068,29*6B

1611836013000,$BDGSV,2,2,05,228,16,123,34*65

1611836013000,$GPGSA,A,3,15,13,24,28,17,19,14,23,20,12,30,,1.0,0.6,0.8*3F

1611836013000,$GNGSA,A,3,68,78,79,88,,,,,,,,,1.0,0.6,0.8*2C

1611836013000,$GAGSA,A,3,104,121,,,,,,,,,,,1.0,0.6,0.8*2B

1611836013000,$BDGSA,A,3,211,220,223,228,,,,,,,,,1.0,0.6,0.8*25

1611836013000,$GPRMC,121333.000,A,4540.3713,N,01156.0210,E,0.0,211.2,280121,,,A*64

1611836013000,$PSAMCLK,2142,38963100,21,9732086,1952601,389631000*74

1611836013000,$PSAMCLK,2142,38963100,21,9732086,1952601,389631000*74

1611836014000,$GPGGA,121334.000,4540.3713,N,01156.0210,E,1,22,0.6,48.6,M,47.1,M,,*67

1611836014000,$PSAMSA,121334.000,4540.3713,N,01156.0210,E,1,M,,*6D

1611836014000,$GPGLL,4540.3713,N,01156.0210,E,121334.000,A,A*5C

1611836014000,$GPVTG,211.2,T,,M,0.0,N,0.0,K,A*0D

1611836014000,$GPGSV,3,1,11,12,19,220,27,13,55,146,41,14,28,051,24,15,70,246,37*7B

1611836014000,$GPGSV,3,2,11,17,36,095,35,19,30,125,36,20,20,289,25,23,25,293,30*70

1611836014000,$GPGSV,3,3,11,24,49,289,30,28,37,050,24,30,06,089,19*43

1611836014000,$GLGSV,2,1,05,68,50,202,42,78,62,020,30,79,47,269,37,87,20,064,19*67

1611836014000,$GLGSV,2,2,05,88,12,102,26*54

1611836014000,$GAGSV,1,1,02,104,56,289,34,121,63,051,32*6A

1611836014000,$BDGSV,2,1,05,211,15,045,21,219,29,307,26,220,47,243,37,223,36,068,29*6A

1611836014000,$BDGSV,2,2,05,228,16,123,34*65

1611836014000,$GPGSA,A,3,15,13,24,28,17,19,14,23,20,12,30,,1.0,0.6,0.8*3F

1611836014000,$GNGSA,A,3,68,78,79,87,88,,,,,,,,1.0,0.6,0.8*23

1611836014000,$GAGSA,A,3,104,121,,,,,,,,,,,1.0,0.6,0.8*2B

1611836014000,$BDGSA,A,3,211,220,223,228,,,,,,,,,1.0,0.6,0.8*25

1611836014000,$GPRMC,121334.000,A,4540.3713,N,01156.0210,E,0.0,211.2,280121,,,A*63

1611836014000,$PSAMCLK,2142,38963200,22,9732005,2014375,389632000*72

1611836014000,$PSAMCLK,2142,38963200,22,9732005,2014375,389632000*72

1611836015000,$GPGGA,121335.000,4540.3713,N,01156.0210,E,1,21,0.6,48.6,M,47.1,M,,*65

1611836015000,$PSAMSA,121335.000,4540.3713,N,01156.0210,E,1,M,,*6C

1611836015000,$GPGLL,4540.3713,N,01156.0210,E,121335.000,A,A*5D

1611836015000,$GPVTG,211.2,T,,M,0.0,N,0.0,K,A*0D

1611836015000,$GPGSV,3,1,11,12,19,220,27,13,55,146,41,14,28,051,24,15,70,246,37*7B

1611836015000,$GPGSV,3,2,11,17,36,095,35,19,30,125,36,20,20,289,25,23,25,293,30*70

1611836015000,$GPGSV,3,3,11,24,49,289,30,28,37,050,25,30,06,089,19*42

1611836015000,$GLGSV,2,1,05,68,50,202,42,78,62,020,30,79,47,269,36,87,20,064,19*66

1611836015000,$GLGSV,2,2,05,88,12,102,26*54

1611836015000,$GAGSV,1,1,02,104,56,289,34,121,63,051,32*6A

1611836015000,$BDGSV,2,1,05,211,15,045,21,219,29,307,26,220,47,243,37,223,36,068,29*6A

1611836015000,$BDGSV,2,2,05,228,16,123,34*65

1611836015000,$GPGSA,A,3,15,13,24,28,17,19,14,20,12,30,,,1.2,0.6,1.0*35

1611836015000,$GNGSA,A,3,68,78,79,87,88,,,,,,,,1.2,0.6,1.0*28

1611836015000,$GAGSA,A,3,104,121,,,,,,,,,,,1.2,0.6,1.0*20

1611836015000,$BDGSA,A,3,211,220,223,228,,,,,,,,,1.2,0.6,1.0*2E

1611836015000,$GPRMC,121335.000,A,4540.3713,N,01156.0210,E,0.0,211.2,280121,,,A*62

1611836015000,$PSAMCLK,2142,38963300,21,9731909,2076148,389633000*7F

1611836015000,$PSAMCLK,2142,38963300,21,9731909,2076148,389633000*7F

1611836016000,$GPGGA,121336.000,4540.3713,N,01156.0210,E,1,22,0.6,48.6,M,47.1,M,,*65

1611836016000,$PSAMSA,121336.000,4540.3713,N,01156.0210,E,1,M,,*6F

1611836016000,$GPGLL,4540.3713,N,01156.0210,E,121336.000,A,A*5E

1611836016000,$GPVTG,211.2,T,,M,0.0,N,0.0,K,A*0D

1611836016000,$GPGSV,3,1,11,12,19,220,27,13,55,146,41,14,28,051,24,15,70,246,37*7B

1611836016000,$GPGSV,3,2,11,17,36,095,35,19,30,125,36,20,20,289,25,23,25,293,29*78

1611836016000,$GPGSV,3,3,11,24,49,289,30,28,37,050,25,30,06,089,19*42

1611836016000,$GLGSV,2,1,05,68,50,202,42,78,62,020,30,79,47,269,36,87,20,064,19*66

1611836016000,$GLGSV,2,2,05,88,12,102,26*54

1611836016000,$GAGSV,1,1,02,104,56,289,34,121,63,051,32*6A

1611836016000,$BDGSV,2,1,05,211,15,045,21,219,29,307,26,220,47,243,37,223,36,068,29*6A

1611836016000,$BDGSV,2,2,05,228,16,123,34*65

1611836016000,$GPGSA,A,3,15,13,24,28,17,19,14,23,20,12,30,,1.0,0.6,0.8*3F

1611836016000,$GNGSA,A,3,68,78,79,87,88,,,,,,,,1.0,0.6,0.8*23

1611836016000,$GAGSA,A,3,104,121,,,,,,,,,,,1.0,0.6,0.8*2B

1611836016000,$BDGSA,A,3,211,220,223,228,,,,,,,,,1.0,0.6,0.8*25

1611836016000,$GPRMC,121336.000,A,4540.3713,N,01156.0210,E,0.0,211.2,280121,,,A*61

1611836016000,$PSAMCLK,2142,38963400,22,9731814,2137921,389634000*72

1611836016000,$PSAMCLK,2142,38963400,22,9731814,2137921,389634000*72

1611836017000,$GPGGA,121337.000,4540.3713,N,01156.0210,E,1,22,0.6,48.6,M,47.1,M,,*64

1611836017000,$PSAMSA,121337.000,4540.3713,N,01156.0210,E,1,M,,*6E

1611836017000,$GPGLL,4540.3713,N,01156.0210,E,121337.000,A,A*5F

1611836017000,$GPVTG,211.2,T,,M,0.0,N,0.0,K,A*0D

1611836017000,$GPGSV,3,1,11,12,19,220,27,13,55,146,41,14,28,051,24,15,70,246,37*7B

1611836017000,$GPGSV,3,2,11,17,36,095,35,19,30,125,36,20,20,289,26,23,25,293,30*73

1611836017000,$GPGSV,3,3,11,24,49,289,29,28,37,050,25,30,06,089,19*4A

1611836017000,$GLGSV,2,1,05,68,50,202,42,78,62,020,29,79,47,269,36,87,20,064,19*6E

1611836017000,$GLGSV,2,2,05,88,12,102,26*54

1611836017000,$GAGSV,1,1,02,104,56,289,34,121,63,051,32*6A

1611836017000,$BDGSV,2,1,05,211,15,045,21,219,29,307,26,220,47,243,37,223,36,068,29*6A

1611836017000,$BDGSV,2,2,05,228,16,123,34*65

1611836017000,$GPGSA,A,3,15,13,24,28,17,19,14,23,20,12,30,,1.0,0.6,0.8*3F

1611836017000,$GNGSA,A,3,68,78,79,87,88,,,,,,,,1.0,0.6,0.8*23

1611836017000,$GAGSA,A,3,104,121,,,,,,,,,,,1.0,0.6,0.8*2B

1611836017000,$BDGSA,A,3,211,220,223,228,,,,,,,,,1.0,0.6,0.8*25

1611836017000,$GPRMC,121337.000,A,4540.3713,N,01156.0210,E,0.0,211.2,280121,,,A*60

1611836017000,$PSAMCLK,2142,38963500,22,9731725,2199692,389635000*7C

1611836017000,$PSAMCLK,2142,38963500,22,9731725,2199692,389635000*7C

1611836018000,$GPGGA,121338.000,4540.3713,N,01156.0210,E,1,21,0.6,48.6,M,47.1,M,,*68

1611836018000,$PSAMSA,121338.000,4540.3713,N,01156.0210,E,1,M,,*61

1611836018000,$GPGLL,4540.3713,N,01156.0210,E,121338.000,A,A*50

1611836018000,$GPVTG,211.2,T,,M,0.0,N,0.0,K,A*0D

1611836018000,$GPGSV,3,1,11,12,19,220,27,13,55,146,41,14,28,051,24,15,70,246,37*7B

1611836018000,$GPGSV,3,2,11,17,36,095,35,19,30,125,36,20,20,289,26,23,25,293,30*73

1611836018000,$GPGSV,3,3,11,24,49,289,29,28,37,050,25,30,06,089,18*4B

1611836018000,$GLGSV,2,1,05,68,50,202,42,78,62,020,29,79,47,269,36,87,20,064,19*6E

1611836018000,$GLGSV,2,2,05,88,12,102,26*54

1611836018000,$GAGSV,1,1,02,104,56,289,34,121,63,051,33*6B

1611836018000,$BDGSV,2,1,05,211,15,045,21,219,29,307,26,220,47,243,37,223,36,068,29*6A

1611836018000,$BDGSV,2,2,05,228,16,123,34*65

1611836018000,$GPGSA,A,3,15,13,24,28,17,19,23,20,12,30,,,1.0,0.6,0.8*3A

1611836018000,$GNGSA,A,3,68,78,79,87,88,,,,,,,,1.0,0.6,0.8*23

1611836018000,$GAGSA,A,3,104,121,,,,,,,,,,,1.0,0.6,0.8*2B

1611836018000,$BDGSA,A,3,211,220,223,228,,,,,,,,,1.0,0.6,0.8*25

1611836018000,$GPRMC,121338.000,A,4540.3713,N,01156.0210,E,0.0,211.2,280121,,,A*6F

1611836018000,$PSAMCLK,2142,38963600,21,9731662,2261463,389636000*75

1611836018000,$PSAMCLK,2142,38963600,21,9731662,2261463,389636000*75

1611836019000,$GPGGA,121339.000,4540.3713,N,01156.0210,E,1,21,0.6,48.6,M,47.1,M,,*69

1611836019000,$PSAMSA,121339.000,4540.3713,N,01156.0210,E,1,M,,*60

1611836019000,$GPGLL,4540.3713,N,01156.0210,E,121339.000,A,A*51

1611836019000,$GPVTG,211.2,T,,M,0.0,N,0.0,K,A*0D

1611836019000,$GPGSV,3,1,11,12,19,220,27,13,55,146,41,14,28,051,24,15,70,246,37*7B

1611836019000,$GPGSV,3,2,11,17,36,095,35,19,30,125,36,20,20,289,26,23,25,293,29*7B

1611836019000,$GPGSV,3,3,11,24,49,289,29,28,37,050,25,30,06,089,18*4B

1611836019000,$GLGSV,2,1,05,68,50,202,42,78,62,020,29,79,47,269,36,87,20,064,19*6E

1611836019000,$GLGSV,2,2,05,88,12,102,25*57

1611836019000,$GAGSV,1,1,02,104,56,289,34,121,63,051,33*6B

1611836019000,$BDGSV,2,1,05,211,15,045,20,219,29,307,25,220,47,243,37,223,36,068,29*68

1611836019000,$BDGSV,2,2,05,228,16,123,34*65

1611836019000,$GPGSA,A,3,15,13,24,28,17,19,14,23,12,30,,,1.2,0.6,1.0*36

1611836019000,$GNGSA,A,3,68,78,79,87,88,,,,,,,,1.2,0.6,1.0*28

1611836019000,$GAGSA,A,3,104,121,,,,,,,,,,,1.2,0.6,1.0*20

1611836019000,$BDGSA,A,3,211,220,223,228,,,,,,,,,1.2,0.6,1.0*2E

1611836019000,$GPRMC,121339.000,A,4540.3713,N,01156.0210,E,0.0,211.2,280121,,,A*6E

1611836019000,$PSAMCLK,2142,38963700,21,9731589,2323234,389637000*70

1611836019000,$PSAMCLK,2142,38963700,21,9731589,2323234,389637000*70

1611836020000,$GPGGA,121340.000,4540.3713,N,01156.0210,E,1,22,0.6,48.6,M,47.1,M,,*64

1611836020000,$PSAMSA,121340.000,4540.3713,N,01156.0210,E,1,M,,*6E

1611836020000,$GPGLL,4540.3713,N,01156.0210,E,121340.000,A,A*5F

1611836020000,$GPVTG,211.2,T,,M,0.0,N,0.0,K,A*0D

1611836020000,$GPGSV,3,1,11,12,19,220,27,13,55,146,41,14,28,051,24,15,70,246,37*7B

1611836020000,$GPGSV,3,2,11,17,36,095,35,19,30,125,36,20,20,289,26,23,25,293,29*7B

1611836020000,$GPGSV,3,3,11,24,49,289,29,28,37,050,25,30,06,089,18*4B

1611836020000,$GLGSV,2,1,05,68,50,202,42,78,62,020,29,79,47,269,36,87,20,064,19*6E

1611836020000,$GLGSV,2,2,05,88,12,102,25*57

1611836020000,$GAGSV,1,1,02,104,56,289,34,121,63,051,33*6B

1611836020000,$BDGSV,2,1,05,211,15,045,20,219,29,307,25,220,47,242,37,223,36,068,29*69

1611836020000,$BDGSV,2,2,05,228,16,123,34*65

1611836020000,$GPGSA,A,3,15,13,24,28,17,19,14,23,20,12,30,,1.0,0.6,0.8*3F

1611836020000,$GNGSA,A,3,68,78,79,87,88,,,,,,,,1.0,0.6,0.8*23

1611836020000,$GAGSA,A,3,104,121,,,,,,,,,,,1.0,0.6,0.8*2B

1611836020000,$BDGSA,A,3,211,220,223,228,,,,,,,,,1.0,0.6,0.8*25

1611836020000,$GPRMC,121340.000,A,4540.3713,N,01156.0210,E,0.0,211.2,280121,,,A*60

1611836020000,$PSAMCLK,2142,38963800,22,9731506,2385004,389638000*79

1611836020000,$PSAMCLK,2142,38963800,22,9731506,2385004,389638000*79

1611836020000,$GPGGA,121341.000,4540.3713,N,01156.0210,E,1,22,0.6,48.6,M,47.1,M,,*65

1611836020000,$PSAMSA,121341.000,4540.3713,N,01156.0210,E,1,M,,*6F

1611836020000,$GPGLL,4540.3713,N,01156.0210,E,121341.000,A,A*5E

1611836020000,$GPVTG,211.2,T,,M,0.0,N,0.0,K,A*0D

1611836020000,$GPGSV,3,1,11,12,19,220,27,13,55,146,41,14,28,051,24,15,70,246,37*7B

1611836020000,$GPGSV,3,2,11,17,36,095,35,19,30,125,36,20,20,289,26,23,25,293,29*7B

1611836020000,$GPGSV,3,3,11,24,49,290,29,28,37,050,25,30,06,089,18*43

1611836020000,$GLGSV,2,1,05,68,50,202,42,78,62,020,29,79,47,269,36,87,20,064,19*6E

1611836020000,$GLGSV,2,2,05,88,12,102,25*57

1611836020000,$GAGSV,1,1,02,104,56,289,34,121,63,051,33*6B

1611836020000,$BDGSV,2,1,05,211,15,045,20,219,29,307,25,220,47,242,37,223,36,068,30*61

1611836020000,$BDGSV,2,2,05,228,16,123,34*65

1611836020000,$GPGSA,A,3,15,13,24,28,17,19,14,23,20,12,30,,1.0,0.6,0.8*3F

1611836021000,$GNGSA,A,3,68,78,79,87,88,,,,,,,,1.0,0.6,0.8*23

1611836021000,$GAGSA,A,3,104,121,,,,,,,,,,,1.0,0.6,0.8*2B

1611836021000,$BDGSA,A,3,211,220,223,228,,,,,,,,,1.0,0.6,0.8*25

1611836021000,$GPRMC,121341.000,A,4540.3713,N,01156.0210,E,0.0,211.2,280121,,,A*61

1611836021000,$PSAMCLK,2142,38963900,22,9731414,2446772,389639000*75

1611836021000,$PSAMCLK,2142,38963900,22,9731414,2446772,389639000*75

1611836022000,$GPGGA,121342.000,4540.3713,N,01156.0210,E,1,20,0.6,48.6,M,47.1,M,,*64

1611836022000,$PSAMSA,121342.000,4540.3713,N,01156.0210,E,1,M,,*6C

1611836022000,$GPGLL,4540.3713,N,01156.0210,E,121342.000,A,A*5D

1611836022000,$GPVTG,211.2,T,,M,0.0,N,0.0,K,A*0D

1611836022000,$GPGSV,3,1,11,12,19,220,27,13,55,146,41,14,28,051,23,15,70,246,37*7C

1611836022000,$GPGSV,3,2,11,17,36,095,35,19,30,125,36,20,20,289,26,23,25,293,29*7B

1611836022000,$GPGSV,3,3,11,24,49,290,29,28,37,050,25,30,06,089,18*43

1611836022000,$GLGSV,2,1,05,68,50,202,42,78,62,020,29,79,47,269,36,87,20,064,19*6E

1611836022000,$GLGSV,2,2,05,88,12,102,25*57

1611836022000,$GAGSV,1,1,02,104,56,289,34,121,63,051,33*6B

1611836022000,$BDGSV,2,1,06,211,15,045,20,219,29,307,25,220,47,242,37,223,36,068,30*62

1611836022000,$BDGSV,2,2,06,228,16,123,34,237,79,333,35*6B

1611836022000,$GPGSA,A,3,15,13,24,28,17,19,14,23,12,30,,,1.2,0.6,1.0*36

1611836022000,$GNGSA,A,3,68,78,79,88,,,,,,,,,1.2,0.6,1.0*27

1611836022000,$GAGSA,A,3,104,121,,,,,,,,,,,1.2,0.6,1.0*20

1611836022000,$BDGSA,A,3,211,220,223,228,,,,,,,,,1.2,0.6,1.0*2E

1611836022000,$GPRMC,121342.000,A,4540.3713,N,01156.0210,E,0.0,211.2,280121,,,A*62

1611836022000,$PSAMCLK,2142,38964000,20,9731333,2508541,389640000*7C

1611836022000,$PSAMCLK,2142,38964000,20,9731333,2508541,389640000*7C

1611836023000,$GPGGA,121343.000,4540.3713,N,01156.0210,E,1,22,0.6,48.6,M,47.1,M,,*67

1611836023000,$PSAMSA,121343.000,4540.3713,N,01156.0210,E,1,M,,*6D

1611836023000,$GPGLL,4540.3713,N,01156.0210,E,121343.000,A,A*5C

1611836023000,$GPVTG,211.2,T,,M,0.0,N,0.0,K,A*0D

1611836023000,$GPGSV,3,1,11,12,20,220,27,13,55,146,41,14,28,051,23,15,70,246,37*76

1611836023000,$GPGSV,3,2,11,17,36,095,35,19,30,125,36,20,20,289,27,23,25,293,29*7A

1611836023000,$GPGSV,3,3,11,24,49,290,29,28,37,050,25,30,06,089,18*43

1611836023000,$GLGSV,2,1,05,68,50,202,42,78,62,020,29,79,47,269,36,87,20,064,19*6E

1611836023000,$GLGSV,2,2,05,88,12,102,25*57

1611836023000,$GAGSV,1,1,02,104,56,289,34,121,63,051,33*6B

1611836023000,$BDGSV,2,1,06,211,15,045,20,219,29,307,25,220,47,242,37,223,36,068,30*62

1611836023000,$BDGSV,2,2,06,228,16,123,34,237,79,333,35*6B

1611836023000,$GPGSA,A,3,15,13,24,28,17,19,14,23,20,12,30,,1.0,0.6,0.8*3F

1611836023000,$GNGSA,A,3,68,78,79,87,88,,,,,,,,1.0,0.6,0.8*23

1611836023000,$GAGSA,A,3,104,121,,,,,,,,,,,1.0,0.6,0.8*2B

1611836023000,$BDGSA,A,3,211,220,223,228,,,,,,,,,1.0,0.6,0.8*25

1611836023000,$GPRMC,121343.000,A,4540.3713,N,01156.0210,E,0.0,211.2,280121,,,A*63

1611836023000,$PSAMCLK,2142,38964100,22,9731265,2570309,389641000*79

1611836023000,$PSAMCLK,2142,38964100,22,9731265,2570309,389641000*79

1611836024000,$GPGGA,121344.000,4540.3713,N,01156.0210,E,1,21,0.6,48.6,M,47.1,M,,*63

1611836024000,$PSAMSA,121344.000,4540.3713,N,01156.0210,E,1,M,,*6A

1611836024000,$GPGLL,4540.3713,N,01156.0210,E,121344.000,A,A*5B

1611836024000,$GPVTG,211.2,T,,M,0.0,N,0.0,K,A*0D

1611836024000,$GPGSV,3,1,11,12,20,220,27,13,55,146,41,14,28,051,23,15,70,246,37*76

1611836024000,$GPGSV,3,2,11,17,36,095,35,19,30,125,36,20,20,289,27,23,25,293,29*7A

1611836024000,$GPGSV,3,3,11,24,49,290,28,28,36,050,24,30,06,089,18*42

1611836024000,$GLGSV,2,1,05,68,50,202,42,78,62,020,29,79,47,269,36,87,20,064,20*64

1611836024000,$GLGSV,2,2,05,88,12,102,25*57

1611836024000,$GAGSV,1,1,02,104,56,289,34,121,63,051,33*6B

1611836024000,$BDGSV,2,1,06,211,15,045,18,219,29,307,24,220,47,242,37,223,36,068,30*68

1611836024000,$BDGSV,2,2,06,228,16,123,34,237,79,333,35*6B

1611836024000,$GPGSA,A,3,15,13,24,17,28,19,14,23,20,12,30,,1.0,0.6,0.8*3F

1611836024000,$GNGSA,A,3,68,78,79,87,88,,,,,,,,1.0,0.6,0.8*23

1611836024000,$GAGSA,A,3,104,121,,,,,,,,,,,1.0,0.6,0.8*2B

1611836024000,$BDGSA,A,3,220,223,228,,,,,,,,,,1.0,0.6,0.8*17

1611836024000,$GPRMC,121344.000,A,4540.3713,N,01156.0210,E,0.0,211.2,280121,,,A*64

1611836024000,$PSAMCLK,2142,38964200,21,9731188,2632076,389642000*74

1611836024000,$PSAMCLK,2142,38964200,21,9731188,2632076,389642000*74

1611836024000,$GPGGA,121345.000,4540.3713,N,01156.0210,E,1,22,0.6,48.6,M,47.1,M,,*61

1611836024000,$PSAMSA,121345.000,4540.3713,N,01156.0210,E,1,M,,*6B

1611836024000,$GPGLL,4540.3713,N,01156.0210,E,121345.000,A,A*5A

1611836024000,$GPVTG,211.2,T,,M,0.0,N,0.0,K,A*0D

1611836024000,$GPGSV,3,1,11,12,20,220,27,13,55,146,41,14,28,051,23,15,70,246,37*76

1611836024000,$GPGSV,3,2,11,17,36,095,35,19,30,125,36,20,20,289,27,23,25,293,29*7A

1611836024000,$GPGSV,3,3,11,24,49,290,28,28,36,050,24,30,05,090,18*49

1611836024000,$GLGSV,2,1,05,68,50,202,42,78,62,020,29,79,47,269,36,87,20,064,20*64

1611836024000,$GLGSV,2,2,05,88,12,102,25*57

1611836024000,$GAGSV,1,1,02,104,56,289,34,121,63,051,33*6B

1611836024000,$BDGSV,2,1,06,211,15,045,17,219,29,307,24,220,47,242,37,223,36,068,30*67

1611836024000,$BDGSV,2,2,06,228,16,123,34,237,79,333,35*6B

1611836024000,$GPGSA,A,3,15,13,24,17,28,19,14,23,20,12,30,,1.0,0.6,0.8*3F

1611836024000,$GNGSA,A,3,68,78,79,87,88,,,,,,,,1.0,0.6,0.8*23

1611836024000,$GAGSA,A,3,104,121,,,,,,,,,,,1.0,0.6,0.8*2B

1611836024000,$BDGSA,A,3,219,220,223,228,,,,,,,,,1.0,0.6,0.8*2D

1611836024000,$GPRMC,121345.000,A,4540.3713,N,01156.0210,E,0.0,211.2,280121,,,A*65

1611836024000,$PSAMCLK,2142,38964300,22,9731115,2693844,389643000*71

1611836024000,$PSAMCLK,2142,38964300,22,9731115,2693844,389643000*71

1611836026000,$GPGGA,121346.000,4540.3713,N,01156.0210,E,1,22,0.6,48.6,M,47.1,M,,*62

1611836026000,$PSAMSA,121346.000,4540.3713,N,01156.0210,E,1,M,,*68

1611836026000,$GPGLL,4540.3713,N,01156.0210,E,121346.000,A,A*59

1611836026000,$GPVTG,211.2,T,,M,0.0,N,0.0,K,A*0D

1611836026000,$GPGSV,3,1,11,12,20,220,27,13,55,146,41,14,28,051,23,15,70,246,37*76

1611836026000,$GPGSV,3,2,11,17,36,095,35,19,30,125,36,20,20,289,27,23,25,293,28*7B

1611836026000,$GPGSV,3,3,11,24,49,290,28,28,36,050,24,30,05,090,18*49

1611836026000,$GLGSV,2,1,05,68,49,202,42,78,62,021,29,79,47,270,36,87,20,063,21*63

1611836026000,$GLGSV,2,2,05,88,12,102,25*57

1611836026000,$GAGSV,1,1,02,104,56,289,34,121,63,051,33*6B

1611836026000,$BDGSV,2,1,06,211,15,045,15,219,29,307,24,220,47,242,37,223,36,068,30*65

1611836026000,$BDGSV,2,2,06,228,16,123,34,237,79,333,35*6B

1611836026000,$GPGSA,A,3,15,13,24,17,28,19,14,23,20,12,30,,1.0,0.6,0.8*3F

1611836026000,$GNGSA,A,3,68,78,79,87,88,,,,,,,,1.0,0.6,0.8*23

1611836026000,$GAGSA,A,3,104,121,,,,,,,,,,,1.0,0.6,0.8*2B

1611836026000,$BDGSA,A,3,219,220,223,228,,,,,,,,,1.0,0.6,0.8*2D

1611836026000,$GPRMC,121346.000,A,4540.3713,N,01156.0210,E,0.0,211.2,280121,,,A*66

1611836026000,$PSAMCLK,2142,38964400,22,9731048,2755611,389644000*7D

1611836026000,$PSAMCLK,2142,38964400,22,9731048,2755611,389644000*7D

1611836027000,$GPGGA,121347.000,4540.3713,N,01156.0210,E,1,22,0.6,48.6,M,47.1,M,,*63

1611836027000,$PSAMSA,121347.000,4540.3713,N,01156.0210,E,1,M,,*69

1611836027000,$GPGLL,4540.3713,N,01156.0210,E,121347.000,A,A*58

1611836027000,$GPVTG,211.2,T,,M,0.0,N,0.0,K,A*0D

