# 2021 02 03 12:32:25
#
# Version: 10 Manufacturer: Xiaomi Make: Redmi Note 9S
#
1612351945727,$GPGSV,4,1,13,05,06,195,19,10,08,327,25,12,12,216,22,13,63,140,29,1*61

1612351945727,$GPGSV,4,2,13,14,35,050,34,15,68,270,30,17,32,104,31,19,23,130,37,1*62

1612351945727,$GPGSV,4,3,13,20,21,296,27,23,24,300,34,24,42,284,34,28,43,052,37,1*6C

1612351945727,$GPGSV,4,4,13,30,11,084,34,1*5E

1612351945727,$GLGSV,3,1,09,66,61,210,23,86,05,108,17,77,40,260,23,76,68,002,33,1*7E

1612351945727,$GLGSV,3,2,09,75,00,000,38,65,06,168,34,85,17,060,37,67,44,313,33,1*7D

1612351945727,$GLGSV,3,3,09,84,07,007,,1*4D

1612351945727,$GBGSV,3,1,11,37,33,066,34,36,31,258,31,28,17,068,29,22,30,307,31,1*71

1612351945727,$GBGSV,3,2,11,20,21,182,20,19,49,237,31,10,23,050,35,05,18,123,35,1*77

1612351945727,$GBGSV,3,3,11,02,02,102,,07,02,045,,27,12,120,,1*44

1612351945746,$GNGSA,A,3,05,10,12,13,14,15,17,19,20,23,24,28,0.8,0.5,0.6,1*3F

1612351945746,$GNGSA,A,3,65,66,67,76,77,85,86,,,,,,0.8,0.5,0.6,2*39

1612351945746,$GNGSA,A,3,05,10,19,20,28,36,37,,,,,,0.8,0.5,0.6,4*3A

1612351945746,$GNVTG,,T,,M,0.0,N,0.0,K,A*3D

1612351945746,$GNDTM,P90,,0000.000026,S,00000.000000,E,0.978,W84*5C

1612351945746,$GNRMC,113226.00,A,4540.364729,N,01156.021295,E,0.0,,030221,0.6,E,A,V*78

1612351945746,$GNGNS,113226.00,4540.364729,N,01156.021295,E,AANA,27,0.5,37.8,46.0,,,V*10

1612351945746,$GNGGA,113226.00,4540.364729,N,01156.021295,E,1,12,0.5,37.8,M,46.0,M,,*49

1612351946723,$GPGSV,4,1,13,05,06,195,23,10,08,327,23,12,12,216,22,13,63,140,29,1*6E

1612351946723,$GPGSV,4,2,13,14,35,050,35,15,68,270,30,17,32,104,33,19,23,130,39,1*6F

1612351946723,$GPGSV,4,3,13,20,21,296,30,23,24,300,31,24,42,284,35,28,43,052,37,1*6E

1612351946723,$GPGSV,4,4,13,30,11,084,33,1*59

1612351946723,$GLGSV,3,1,09,66,61,210,25,86,05,108,17,77,40,260,23,76,68,002,32,1*79

1612351946723,$GLGSV,3,2,09,75,00,000,39,65,06,168,34,85,17,060,39,67,44,313,38,1*79

1612351946723,$GLGSV,3,3,09,84,07,007,,1*4D

1612351946723,$GBGSV,3,1,11,37,33,066,37,36,31,258,33,28,17,068,30,22,30,307,28,1*70

1612351946723,$GBGSV,3,2,11,20,21,182,20,19,49,237,33,10,23,050,34,05,18,123,34,1*75

1612351946723,$GBGSV,3,3,11,02,02,102,,07,02,045,,27,12,120,,1*44

1612351946739,$GNGSA,A,3,05,10,12,13,14,15,17,19,20,23,24,28,0.8,0.5,0.6,1*3F

1612351946739,$GNGSA,A,3,65,66,67,76,77,85,86,,,,,,0.8,0.5,0.6,2*39

1612351946739,$GNGSA,A,3,05,10,19,20,28,36,37,,,,,,0.8,0.5,0.6,4*3A

1612351946739,$GNVTG,,T,,M,0.0,N,0.0,K,A*3D

1612351946739,$GNDTM,P90,,0000.000026,S,00000.000000,E,0.978,W84*5C

1612351946739,$GNRMC,113227.00,A,4540.364728,N,01156.021293,E,0.0,,030221,0.6,E,A,V*7E

1612351946739,$GNGNS,113227.00,4540.364728,N,01156.021293,E,AANA,27,0.5,37.8,46.0,,,V*16

1612351946739,$GNGGA,113227.00,4540.364728,N,01156.021293,E,1,12,0.5,37.8,M,46.0,M,,*4F

1612351947722,$GPGSV,4,1,13,05,06,195,24,10,08,327,23,12,12,216,22,13,63,140,39,1*68

1612351947722,$GPGSV,4,2,13,14,35,050,31,15,68,270,35,17,32,104,37,19,23,130,38,1*6B

1612351947722,$GPGSV,4,3,13,20,21,296,29,23,24,300,30,24,42,284,32,28,43,052,38,1*6F

1612351947722,$GPGSV,4,4,13,30,11,084,29,1*52

1612351947722,$GLGSV,3,1,09,66,61,210,24,86,05,108,20,77,40,260,23,76,68,002,25,1*7A

1612351947722,$GLGSV,3,2,09,75,00,000,41,65,06,168,33,85,17,060,40,67,44,313,37,1*70

1612351947722,$GLGSV,3,3,09,84,07,007,,1*4D

1612351947722,$GBGSV,3,1,11,37,33,066,41,36,31,258,35,28,17,068,34,22,30,307,27,1*7C

1612351947722,$GBGSV,3,2,11,19,49,237,34,10,23,050,39,05,18,123,34,02,02,102,,1*74

1612351947722,$GBGSV,3,3,11,07,02,045,,20,21,182,,27,12,120,,1*4D

1612351947739,$GNGSA,A,3,05,10,12,13,14,15,17,19,20,23,24,28,0.8,0.5,0.6,1*3F

1612351947739,$GNGSA,A,3,65,66,67,76,77,85,86,,,,,,0.8,0.5,0.6,2*39

1612351947739,$GNGSA,A,3,05,10,19,20,28,36,37,,,,,,0.8,0.5,0.6,4*3A

1612351947739,$GNVTG,,T,,M,0.0,N,0.0,K,A*3D

1612351947739,$GNDTM,P90,,0000.000026,S,00000.000000,E,0.978,W84*5C

1612351947739,$GNRMC,113228.00,A,4540.364728,N,01156.021294,E,0.0,,030221,0.6,E,A,V*76

1612351947739,$GNGNS,113228.00,4540.364728,N,01156.021294,E,AANA,27,0.5,37.8,46.0,,,V*1E

1612351947739,$GNGGA,113228.00,4540.364728,N,01156.021294,E,1,12,0.5,37.8,M,46.0,M,,*47

1612351948722,$GPGSV,4,1,13,05,06,195,23,10,08,327,22,12,12,216,22,13,63,140,41,1*61

1612351948722,$GPGSV,4,2,13,14,35,050,30,15,68,270,35,17,32,104,44,19,23,130,42,1*63

1612351948722,$GPGSV,4,3,13,20,21,296,30,23,24,300,29,24,42,284,29,28,43,052,40,1*6A

1612351948722,$GPGSV,4,4,13,30,11,084,26,1*5D

1612351948722,$GLGSV,3,1,09,66,61,210,25,86,05,108,22,77,40,260,23,76,68,002,25,1*79

1612351948722,$GLGSV,3,2,09,75,00,000,42,65,06,168,28,85,17,060,40,67,44,313,36,1*78

1612351948722,$GLGSV,3,3,09,84,07,007,,1*4D

1612351948722,$GBGSV,3,1,11,37,33,066,40,36,31,258,35,28,17,068,37,22,30,307,28,1*71

1612351948722,$GBGSV,3,2,11,19,49,237,34,10,23,050,40,05,18,123,32,02,02,102,,1*7C

1612351948722,$GBGSV,3,3,11,07,02,045,,20,21,182,,27,12,120,,1*4D

1612351948737,$GNGSA,A,3,05,10,12,13,14,15,17,19,20,23,24,28,0.8,0.5,0.6,1*3F

1612351948737,$GNGSA,A,3,65,66,67,76,77,85,86,,,,,,0.8,0.5,0.6,2*39

1612351948737,$GNGSA,A,3,05,10,19,20,28,36,37,,,,,,0.8,0.5,0.6,4*3A

1612351948737,$GNVTG,,T,,M,0.0,N,0.0,K,A*3D

1612351948737,$GNDTM,P90,,0000.000026,S,00000.000000,E,0.978,W84*5C

1612351948737,$GNRMC,113229.00,A,4540.364728,N,01156.021295,E,0.0,,030221,0.6,E,A,V*76

1612351948737,$GNGNS,113229.00,4540.364728,N,01156.021295,E,AANA,27,0.5,37.8,46.0,,,V*1E

1612351948737,$GNGGA,113229.00,4540.364728,N,01156.021295,E,1,12,0.5,37.8,M,46.0,M,,*47

1612351949723,$GPGSV,4,1,13,05,06,195,24,10,08,327,26,12,12,216,18,13,63,140,41,1*6B

1612351949723,$GPGSV,4,2,13,15,68,270,33,17,32,104,42,19,23,130,44,20,21,296,30,1*6F

1612351949723,$GPGSV,4,3,13,23,24,300,25,24,42,284,31,28,43,052,40,30,11,084,27,1*6A

1612351949723,$GPGSV,4,4,13,14,35,050,,1*50

1612351949723,$GLGSV,3,1,09,66,61,210,24,86,05,108,22,77,40,260,23,76,68,002,25,1*78

1612351949723,$GLGSV,3,2,09,75,00,000,42,65,06,168,29,85,17,060,39,67,44,313,35,1*74

1612351949723,$GLGSV,3,3,09,84,07,007,,1*4D

1612351949723,$GBGSV,3,1,11,37,33,066,39,36,31,258,34,28,17,068,36,22,30,307,26,1*71

1612351949723,$GBGSV,3,2,11,20,21,182,21,19,49,237,35,10,23,050,39,05,18,123,34,1*7F

1612351949723,$GBGSV,3,3,11,02,02,102,,07,02,045,,27,12,120,,1*44

1612351949742,$GNGSA,A,3,05,10,13,14,15,17,19,20,23,24,28,30,0.8,0.5,0.6,1*3F

1612351949742,$GNGSA,A,3,65,66,67,76,77,85,86,,,,,,0.8,0.5,0.6,2*39

1612351949742,$GNGSA,A,3,05,10,19,20,28,36,37,,,,,,0.8,0.5,0.6,4*3A

1612351949742,$GNVTG,,T,,M,0.0,N,0.0,K,A*3D

1612351949742,$GNDTM,P90,,0000.000026,S,00000.000000,E,0.978,W84*5C

1612351949742,$GNRMC,113230.00,A,4540.364728,N,01156.021296,E,0.0,,030221,0.6,E,A,V*7D

1612351949742,$GNGNS,113230.00,4540.364728,N,01156.021296,E,AANA,26,0.5,37.8,46.0,,,V*14

1612351949742,$GNGGA,113230.00,4540.364728,N,01156.021296,E,1,12,0.5,37.8,M,46.0,M,,*4C

1612351950722,$GPGSV,4,1,13,05,06,195,25,10,08,327,27,12,12,216,18,13,63,140,41,1*6B

1612351950722,$GPGSV,4,2,13,15,68,270,32,17,32,104,43,19,23,130,43,20,21,296,28,1*61

1612351950722,$GPGSV,4,3,13,23,24,300,27,24,42,284,31,28,43,052,39,30,11,084,27,1*66

1612351950722,$GPGSV,4,4,13,14,35,050,,1*50

1612351950722,$GLGSV,3,1,09,66,61,210,26,86,05,108,20,77,40,260,23,76,68,002,21,1*7C

1612351950722,$GLGSV,3,2,09,75,00,000,42,65,06,168,29,85,17,060,39,67,44,313,34,1*75

1612351950722,$GLGSV,3,3,09,84,07,007,,1*4D

1612351950722,$GBGSV,3,1,11,37,33,066,39,36,31,258,36,28,17,068,36,22,30,307,31,1*75

1612351950722,$GBGSV,3,2,11,20,21,182,21,19,49,237,34,10,23,050,40,05,18,123,35,1*71

1612351950722,$GBGSV,3,3,11,02,02,102,,07,02,045,,27,12,120,,1*44

1612351950740,$GNGSA,A,3,05,10,13,14,15,17,19,20,23,24,28,30,0.8,0.5,0.6,1*3F

1612351950740,$GNGSA,A,3,65,66,67,76,77,85,86,,,,,,0.8,0.5,0.6,2*39

1612351950740,$GNGSA,A,3,05,10,19,20,28,36,37,,,,,,0.8,0.5,0.6,4*3A

1612351950740,$GNVTG,,T,,M,0.0,N,0.0,K,A*3D

1612351950740,$GNDTM,P90,,0000.000026,S,00000.000000,E,0.978,W84*5C

1612351950740,$GNRMC,113231.00,A,4540.364729,N,01156.021297,E,0.0,,030221,0.6,E,A,V*7C

1612351950740,$GNGNS,113231.00,4540.364729,N,01156.021297,E,AANA,26,0.5,37.8,46.0,,,V*15

1612351950740,$GNGGA,113231.00,4540.364729,N,01156.021297,E,1,12,0.5,37.8,M,46.0,M,,*4D

1612351951726,$GPGSV,4,1,13,05,06,195,26,10,08,327,28,12,12,216,18,13,63,140,41,1*67

1612351951726,$GPGSV,4,2,13,14,35,050,27,15,68,270,34,17,32,104,43,19,23,130,43,1*62

1612351951726,$GPGSV,4,3,13,23,24,300,30,24,42,284,31,28,43,052,40,30,11,084,28,1*61

1612351951726,$GPGSV,4,4,13,20,21,296,,1*5A

1612351951726,$GLGSV,3,1,09,66,61,210,26,86,05,108,23,77,40,260,23,76,68,002,21,1*7F

1612351951726,$GLGSV,3,2,09,75,00,000,42,65,06,168,27,85,17,060,39,67,44,313,36,1*79

1612351951726,$GLGSV,3,3,09,84,07,007,,1*4D

1612351951726,$GBGSV,3,1,11,37,33,066,39,36,31,258,37,28,17,068,37,22,30,307,30,1*74

1612351951726,$GBGSV,3,2,11,20,21,182,21,19,49,237,35,10,23,050,40,05,18,123,33,1*76

1612351951726,$GBGSV,3,3,11,02,02,102,,07,02,045,,27,12,120,,1*44

1612351951746,$GNGSA,A,3,05,10,13,14,15,17,19,20,23,24,28,30,0.8,0.5,0.6,1*3F

1612351951746,$GNGSA,A,3,65,66,67,76,85,,,,,,,,0.8,0.5,0.6,2*37

1612351951746,$GNGSA,A,3,05,10,19,28,36,37,,,,,,,0.8,0.5,0.6,4*38

1612351951746,$GNVTG,,T,,M,0.0,N,0.0,K,A*3D

1612351951746,$GNDTM,P90,,0000.000026,S,00000.000000,E,0.978,W84*5C

1612351951746,$GNRMC,113232.00,A,4540.364729,N,01156.021299,E,0.0,,030221,0.6,E,A,V*71

1612351951746,$GNGNS,113232.00,4540.364729,N,01156.021299,E,AANA,23,0.5,37.8,46.0,,,V*1D

1612351951746,$GNGGA,113232.00,4540.364729,N,01156.021299,E,1,12,0.5,37.8,M,46.0,M,,*40

1612351952724,$GPGSV,4,1,13,05,06,195,26,10,08,327,27,12,12,216,18,13,63,140,41,1*68

1612351952724,$GPGSV,4,2,13,15,68,270,32,17,32,104,43,19,23,130,43,23,24,300,25,1*64

1612351952724,$GPGSV,4,3,13,24,42,284,29,28,43,052,40,30,11,084,27,14,35,050,,1*66

1612351952724,$GPGSV,4,4,13,20,21,296,,1*5A

1612351952724,$GLGSV,3,1,09,66,61,210,23,86,05,108,23,77,40,260,23,76,68,002,21,1*7A

1612351952724,$GLGSV,3,2,09,75,00,000,42,65,06,168,35,85,17,060,40,67,44,313,36,1*74

1612351952724,$GLGSV,3,3,09,84,07,007,,1*4D

1612351952724,$GBGSV,3,1,11,37,33,066,39,36,31,258,38,28,17,068,37,22,30,307,31,1*7A

1612351952724,$GBGSV,3,2,11,20,21,182,21,19,49,237,34,10,23,050,40,05,18,123,34,1*70

1612351952724,$GBGSV,3,3,11,02,02,102,,07,02,045,,27,12,120,,1*44

1612351952740,$GNGSA,A,3,05,10,13,14,15,17,19,20,23,24,28,30,0.8,0.5,0.6,1*3F

1612351952740,$GNGSA,A,3,65,66,67,76,85,,,,,,,,0.8,0.5,0.6,2*37

1612351952740,$GNGSA,A,3,05,10,19,28,36,37,,,,,,,0.8,0.5,0.6,4*38

1612351952740,$GNVTG,,T,,M,0.0,N,0.0,K,A*3D

1612351952740,$GNDTM,P90,,0000.000026,S,00000.000000,E,0.978,W84*5C

1612351952740,$GNRMC,113233.00,A,4540.364732,N,01156.021300,E,0.0,,030221,0.6,E,A,V*7B

1612351952740,$GNGNS,113233.00,4540.364732,N,01156.021300,E,AANA,23,0.5,37.8,46.0,,,V*17

1612351952740,$GNGGA,113233.00,4540.364732,N,01156.021300,E,1,12,0.5,37.8,M,46.0,M,,*4A

1612351953722,$GPGSV,4,1,13,05,06,195,26,10,08,327,27,12,12,216,18,13,63,140,41,1*68

1612351953722,$GPGSV,4,2,13,15,68,270,32,17,32,104,43,19,23,130,43,23,24,300,27,1*66

1612351953722,$GPGSV,4,3,13,24,42,284,29,28,43,052,40,30,11,084,26,14,35,050,,1*67

1612351953722,$GPGSV,4,4,13,20,21,296,,1*5A

1612351953722,$GLGSV,3,1,09,66,61,210,23,86,05,108,23,77,40,260,23,76,68,002,25,1*7E

1612351953722,$GLGSV,3,2,09,75,00,000,43,65,06,168,35,85,17,060,39,67,44,313,36,1*7B

1612351953722,$GLGSV,3,3,09,84,07,007,,1*4D

1612351953722,$GBGSV,3,1,11,37,33,066,40,36,31,258,38,28,17,068,37,22,30,307,31,1*74

1612351953722,$GBGSV,3,2,11,20,21,182,21,19,49,237,34,10,23,050,39,05,18,123,33,1*79

1612351953722,$GBGSV,3,3,11,02,02,102,,07,02,045,,27,12,120,,1*44

1612351953736,$GNGSA,A,3,05,10,13,14,15,17,19,20,23,24,28,30,0.8,0.5,0.6,1*3F

1612351953736,$GNGSA,A,3,65,66,67,76,85,,,,,,,,0.8,0.5,0.6,2*37

1612351953736,$GNGSA,A,3,05,10,19,28,36,37,,,,,,,0.8,0.5,0.6,4*38

1612351953736,$GNVTG,,T,,M,0.0,N,0.0,K,A*3D

1612351953736,$GNDTM,P90,,0000.000026,S,00000.000000,E,0.978,W84*5C

1612351953736,$GNRMC,113234.00,A,4540.364733,N,01156.021302,E,0.0,,030221,0.6,E,A,V*7F

1612351953736,$GNGNS,113234.00,4540.364733,N,01156.021302,E,AANA,23,0.5,37.8,46.0,,,V*13

1612351953736,$GNGGA,113234.00,4540.364733,N,01156.021302,E,1,12,0.5,37.8,M,46.0,M,,*4E

1612351954728,$GPGSV,4,1,13,05,06,195,25,10,08,327,27,12,12,216,18,13,63,140,41,1*6B

1612351954728,$GPGSV,4,2,13,15,68,270,32,17,32,104,43,19,23,130,42,23,24,300,25,1*65

1612351954728,$GPGSV,4,3,13,24,42,284,28,28,43,052,40,30,11,084,26,14,35,050,,1*66

1612351954728,$GPGSV,4,4,13,20,21,296,,1*5A

1612351954728,$GLGSV,3,1,09,66,61,210,23,86,05,108,21,77,40,260,23,76,68,002,27,1*7E

1612351954728,$GLGSV,3,2,09,75,00,000,42,65,06,168,33,85,17,060,39,67,44,313,36,1*7C

1612351954728,$GLGSV,3,3,09,84,07,007,,1*4D

1612351954728,$GBGSV,3,1,11,37,33,066,39,36,31,258,38,28,17,068,37,22,30,307,31,1*7A

1612351954728,$GBGSV,3,2,11,20,21,182,21,19,49,237,34,10,23,050,39,05,18,123,32,1*78

1612351954728,$GBGSV,3,3,11,02,02,102,,07,02,045,,27,12,120,,1*44

1612351954748,$GNGSA,A,3,05,10,13,14,15,17,19,20,23,24,28,30,0.8,0.5,0.6,1*3F

1612351954748,$GNGSA,A,3,65,66,67,76,85,,,,,,,,0.8,0.5,0.6,2*37

1612351954748,$GNGSA,A,3,05,10,19,28,36,37,,,,,,,0.8,0.5,0.6,4*38

1612351954748,$GNVTG,,T,,M,0.0,N,0.0,K,A*3D

1612351954748,$GNDTM,P90,,0000.000026,S,00000.000000,E,0.978,W84*5C

1612351954748,$GNRMC,113235.00,A,4540.364732,N,01156.021303,E,0.0,,030221,0.6,E,A,V*7E

1612351954748,$GNGNS,113235.00,4540.364732,N,01156.021303,E,AANA,23,0.5,37.8,46.0,,,V*12

1612351954748,$GNGGA,113235.00,4540.364732,N,01156.021303,E,1,12,0.5,37.8,M,46.0,M,,*4F

1612351955724,$GPGSV,4,1,13,05,06,195,26,10,08,327,25,12,12,216,18,13,63,140,42,1*69

1612351955724,$GPGSV,4,2,13,14,35,050,28,15,68,270,35,17,32,104,44,19,23,130,42,1*6A

1612351955724,$GPGSV,4,3,13,20,21,296,26,23,24,300,28,24,42,284,30,28,43,052,41,1*65

1612351955724,$GPGSV,4,4,13,30,11,084,28,1*53

1612351955724,$GLGSV,3,1,09,66,61,210,26,86,05,108,23,77,40,260,23,76,68,002,27,1*79

1612351955724,$GLGSV,3,2,09,75,00,000,43,65,06,168,30,85,17,060,40,67,44,313,38,1*7E

1612351955724,$GLGSV,3,3,09,84,07,007,,1*4D

1612351955724,$GBGSV,3,1,11,37,33,066,40,36,31,258,39,28,17,068,39,22,30,307,31,1*7B

1612351955724,$GBGSV,3,2,11,20,21,182,21,19,49,237,36,10,23,050,40,05,18,123,35,1*73

1612351955724,$GBGSV,3,3,11,02,02,102,,07,02,045,,27,12,120,,1*44

1612351955741,$GNGSA,A,3,05,10,13,14,15,17,19,20,23,24,28,30,0.8,0.5,0.6,1*3F

1612351955741,$GNGSA,A,3,65,66,67,76,85,,,,,,,,0.8,0.5,0.6,2*37

1612351955741,$GNGSA,A,3,05,10,19,28,36,37,,,,,,,0.8,0.5,0.6,4*38

1612351955741,$GNVTG,,T,,M,0.0,N,0.0,K,A*3D

1612351955741,$GNDTM,P90,,0000.000026,S,00000.000000,E,0.978,W84*5C

1612351955741,$GNRMC,113236.00,A,4540.364732,N,01156.021306,E,0.0,,030221,0.6,E,A,V*78

1612351955741,$GNGNS,113236.00,4540.364732,N,01156.021306,E,AANA,23,0.5,37.8,46.0,,,V*14

1612351955741,$GNGGA,113236.00,4540.364732,N,01156.021306,E,1,12,0.5,37.8,M,46.0,M,,*49

1612351956726,$GPGSV,4,1,13,05,06,195,25,10,08,327,25,12,12,216,18,13,63,140,41,1*69

1612351956726,$GPGSV,4,2,13,14,35,050,26,15,68,270,32,17,32,104,44,19,23,130,42,1*63

1612351956726,$GPGSV,4,3,13,24,42,284,28,28,43,052,41,30,11,084,27,20,21,296,,1*6C

1612351956726,$GPGSV,4,4,13,23,24,300,,1*52

1612351956726,$GLGSV,3,1,09,66,61,210,23,86,05,108,23,77,40,260,23,76,68,002,26,1*7D

1612351956726,$GLGSV,3,2,09,75,00,000,43,65,06,168,32,85,17,060,39,67,44,313,37,1*7D

1612351956726,$GLGSV,3,3,09,84,07,007,,1*4D

1612351956726,$GBGSV,3,1,11,37,33,066,40,36,31,258,38,28,17,068,38,22,30,307,32,1*78

1612351956726,$GBGSV,3,2,11,19,49,237,34,10,23,050,40,05,18,123,33,02,02,102,,1*7D

1612351956726,$GBGSV,3,3,11,07,02,045,,20,21,182,,27,12,120,,1*4D

1612351956744,$GNGSA,A,3,05,10,13,14,15,17,19,20,23,24,28,30,0.8,0.5,0.6,1*3F

1612351956744,$GNGSA,A,3,65,66,67,76,85,,,,,,,,0.8,0.5,0.6,2*37

1612351956744,$GNGSA,A,3,05,10,19,28,36,37,,,,,,,0.8,0.5,0.6,4*38

1612351956744,$GNVTG,,T,,M,0.0,N,0.0,K,A*3D

1612351956744,$GNDTM,P90,,0000.000026,S,00000.000000,E,0.978,W84*5C

1612351956744,$GNRMC,113237.00,A,4540.364731,N,01156.021308,E,0.0,,030221,0.6,E,A,V*74

1612351956744,$GNGNS,113237.00,4540.364731,N,01156.021308,E,AANA,23,0.5,37.8,46.0,,,V*18

1612351956744,$GNGGA,113237.00,4540.364731,N,01156.021308,E,1,12,0.5,37.8,M,46.0,M,,*45

1612351957725,$GPGSV,4,1,13,05,06,195,26,10,08,327,25,12,12,216,18,13,63,140,43,1*68

1612351957725,$GPGSV,4,2,13,14,35,050,35,15,68,270,37,17,32,104,44,19,23,130,41,1*67

1612351957725,$GPGSV,4,3,13,24,42,284,35,28,43,052,42,30,11,084,25,20,21,296,,1*61

1612351957725,$GPGSV,4,4,13,23,24,300,,1*52

1612351957725,$GLGSV,3,1,09,66,61,210,34,86,05,108,22,77,40,260,23,76,68,002,28,1*74

1612351957725,$GLGSV,3,2,09,75,00,000,43,65,06,168,34,85,17,060,40,67,44,313,41,1*74

1612351957725,$GLGSV,3,3,09,84,07,007,,1*4D

1612351957725,$GBGSV,3,1,11,37,33,066,41,36,31,258,40,28,17,068,41,22,30,307,27,1*7C

1612351957725,$GBGSV,3,2,11,19,49,237,39,10,23,050,40,05,18,123,38,02,02,102,,1*7B

1612351957725,$GBGSV,3,3,11,07,02,045,,20,21,182,,27,12,120,,1*4D

1612351957742,$GNGSA,A,3,05,10,13,14,15,17,19,20,23,24,28,30,0.8,0.5,0.6,1*3F

1612351957742,$GNGSA,A,3,65,66,67,76,85,,,,,,,,0.8,0.5,0.6,2*37

1612351957742,$GNGSA,A,3,05,10,19,28,36,37,,,,,,,0.8,0.5,0.6,4*38

1612351957742,$GNVTG,,T,,M,0.0,N,0.0,K,A*3D

1612351957742,$GNDTM,P90,,0000.000026,S,00000.000000,E,0.978,W84*5C

1612351957742,$GNRMC,113238.00,A,4540.364729,N,01156.021314,E,0.0,,030221,0.6,E,A,V*7F

1612351957742,$GNGNS,113238.00,4540.364729,N,01156.021314,E,AANA,23,0.5,37.8,46.0,,,V*13

1612351957742,$GNGGA,113238.00,4540.364729,N,01156.021314,E,1,12,0.5,37.8,M,46.0,M,,*4E

1612351958718,$GPGSV,4,1,13,05,06,195,26,10,08,327,23,12,12,216,18,13,63,140,41,1*6C

1612351958718,$GPGSV,4,2,13,14,35,050,32,15,68,270,35,17,32,104,44,19,23,130,41,1*62

1612351958718,$GPGSV,4,3,13,20,21,296,28,24,42,284,32,28,43,052,41,30,11,084,24,1*6E

1612351958718,$GPGSV,4,4,13,23,24,300,,1*52

1612351958718,$GLGSV,3,1,09,66,61,210,28,86,05,108,22,77,40,260,15,76,68,002,26,1*72

1612351958718,$GLGSV,3,2,09,75,00,000,43,65,06,168,30,85,17,060,39,67,44,313,39,1*71

1612351958718,$GLGSV,3,3,09,84,07,007,,1*4D

1612351958718,$GBGSV,3,1,11,37,33,066,40,36,31,258,39,28,17,068,39,22,30,307,31,1*7B

1612351958718,$GBGSV,3,2,11,19,49,237,36,10,23,050,39,05,18,123,35,02,02,102,,1*77

1612351958718,$GBGSV,3,3,11,07,02,045,,20,21,182,,27,12,120,,1*4D

1612351958736,$GNGSA,A,3,05,10,13,14,15,17,19,20,23,24,28,30,0.8,0.5,0.6,1*3F

1612351958736,$GNGSA,A,3,65,66,67,76,85,,,,,,,,0.8,0.5,0.6,2*37

1612351958736,$GNGSA,A,3,05,10,19,28,36,37,,,,,,,0.8,0.5,0.6,4*38

1612351958736,$GNVTG,,T,,M,0.0,N,0.0,K,A*3D

1612351958736,$GNDTM,P90,,0000.000026,S,00000.000000,E,0.978,W84*5C

1612351958736,$GNRMC,113239.00,A,4540.364726,N,01156.021318,E,0.0,,030221,0.6,E,A,V*7D

1612351958736,$GNGNS,113239.00,4540.364726,N,01156.021318,E,AANA,23,0.5,37.8,46.0,,,V*11

1612351958736,$GNGGA,113239.00,4540.364726,N,01156.021318,E,1,12,0.5,37.8,M,46.0,M,,*4C

1612351959724,$GPGSV,4,1,13,05,06,195,26,10,08,327,22,12,12,216,18,13,63,140,41,1*6D

1612351959724,$GPGSV,4,2,13,14,35,050,31,15,68,270,35,17,32,104,44,19,23,130,41,1*61

1612351959724,$GPGSV,4,3,13,20,21,296,28,23,24,300,27,24,42,284,33,28,43,052,41,1*67

1612351959724,$GPGSV,4,4,13,30,11,084,26,1*5D

1612351959724,$GLGSV,3,1,09,66,61,210,30,86,05,108,22,77,40,260,15,76,68,002,26,1*7B

1612351959724,$GLGSV,3,2,09,75,00,000,43,65,06,168,32,85,17,060,39,67,44,313,38,1*72

1612351959724,$GLGSV,3,3,09,84,07,007,,1*4D

1612351959724,$GBGSV,3,1,11,37,33,066,39,36,31,258,38,28,17,068,38,22,30,307,30,1*74

1612351959724,$GBGSV,3,2,11,19,49,237,36,10,23,050,39,05,18,123,35,02,02,102,,1*77

1612351959724,$GBGSV,3,3,11,07,02,045,,20,21,182,,27,12,120,,1*4D

1612351959739,$GNGSA,A,3,05,10,13,14,15,17,19,20,23,24,28,30,0.8,0.5,0.6,1*3F

1612351959739,$GNGSA,A,3,65,66,67,76,85,,,,,,,,0.8,0.5,0.6,2*37

1612351959739,$GNGSA,A,3,05,10,19,28,36,37,,,,,,,0.8,0.5,0.6,4*38

1612351959739,$GNVTG,,T,,M,0.0,N,0.0,K,A*3D

1612351959739,$GNDTM,P90,,0000.000026,S,00000.000000,E,0.978,W84*5C

1612351959739,$GNRMC,113240.00,A,4540.364724,N,01156.021321,E,0.0,,030221,0.6,E,A,V*7B

1612351959739,$GNGNS,113240.00,4540.364724,N,01156.021321,E,AANA,23,0.5,37.8,46.0,,,V*17

1612351959739,$GNGGA,113240.00,4540.364724,N,01156.021321,E,1,12,0.5,37.8,M,46.0,M,,*4A

1612351960721,$GPGSV,4,1,13,05,06,195,26,10,08,327,23,12,12,216,18,13,63,140,41,1*6C

1612351960721,$GPGSV,4,2,13,14,35,050,30,15,68,270,35,17,32,104,44,19,23,130,42,1*63

1612351960721,$GPGSV,4,3,13,20,21,296,28,23,24,300,27,24,42,284,33,28,43,052,40,1*66

1612351960721,$GPGSV,4,4,13,30,11,084,25,1*5E

1612351960721,$GLGSV,3,1,09,66,61,210,30,86,05,108,21,77,40,260,15,76,68,002,29,1*77

1612351960721,$GLGSV,3,2,09,75,00,000,43,65,06,168,33,85,17,060,39,67,44,313,38,1*73

1612351960721,$GLGSV,3,3,09,84,07,007,,1*4D

1612351960721,$GBGSV,3,1,11,37,33,066,40,36,31,258,38,28,17,068,39,22,30,307,32,1*79

1612351960721,$GBGSV,3,2,11,19,49,237,36,10,23,050,40,05,18,123,35,02,02,102,,1*79

1612351960721,$GBGSV,3,3,11,07,02,045,,20,21,182,,27,12,120,,1*4D

1612351960737,$GNGSA,A,3,05,10,13,14,15,17,19,20,23,24,28,30,0.8,0.5,0.6,1*3F

1612351960737,$GNGSA,A,3,65,66,67,76,85,,,,,,,,0.8,0.5,0.6,2*37

1612351960737,$GNGSA,A,3,05,10,19,28,36,37,,,,,,,0.8,0.5,0.6,4*38

1612351960737,$GNVTG,,T,,M,0.0,N,0.0,K,A*3D

1612351960737,$GNDTM,P90,,0000.000026,S,00000.000000,E,0.978,W84*5C

1612351960737,$GNRMC,113241.00,A,4540.364721,N,01156.021325,E,0.0,,030221,0.6,E,A,V*7B

1612351960737,$GNGNS,113241.00,4540.364721,N,01156.021325,E,AANA,23,0.5,37.8,46.0,,,V*17

1612351960737,$GNGGA,113241.00,4540.364721,N,01156.021325,E,1,12,0.5,37.8,M,46.0,M,,*4A

1612351961724,$GPGSV,4,1,13,05,06,195,26,10,08,327,23,12,12,216,11,13,63,140,41,1*65

1612351961724,$GPGSV,4,2,13,14,35,050,30,15,68,270,35,17,32,104,44,19,23,130,42,1*63

1612351961724,$GPGSV,4,3,13,20,21,296,28,23,24,300,27,24,42,284,33,28,43,052,40,1*66

1612351961724,$GPGSV,4,4,13,30,11,084,26,1*5D

1612351961724,$GLGSV,3,1,09,66,61,210,31,86,05,108,22,77,40,260,15,76,68,002,30,1*7D

1612351961724,$GLGSV,3,2,09,75,00,000,43,65,06,168,36,85,17,060,39,67,44,313,38,1*76

1612351961724,$GLGSV,3,3,09,84,07,007,,1*4D

1612351961724,$GBGSV,3,1,11,37,33,066,40,36,31,258,38,28,17,068,40,22,30,307,32,1*77

1612351961724,$GBGSV,3,2,11,19,49,237,36,10,23,050,39,05,18,123,35,02,02,102,,1*77

1612351961724,$GBGSV,3,3,11,07,02,045,,20,21,182,,27,12,120,,1*4D

1612351961743,$GNGSA,A,3,05,10,13,14,15,17,19,20,23,24,28,30,0.8,0.5,0.6,1*3F

1612351961743,$GNGSA,A,3,65,66,67,76,85,,,,,,,,0.8,0.5,0.6,2*37

1612351961743,$GNGSA,A,3,05,10,19,28,36,37,,,,,,,0.8,0.5,0.6,4*38

1612351961743,$GNVTG,,T,,M,0.0,N,0.0,K,A*3D

1612351961743,$GNDTM,P90,,0000.000026,S,00000.000000,E,0.978,W84*5C

1612351961743,$GNRMC,113242.00,A,4540.364721,N,01156.021328,E,0.0,,030221,0.6,E,A,V*75

1612351961743,$GNGNS,113242.00,4540.364721,N,01156.021328,E,AANA,23,0.5,37.8,46.0,,,V*19

1612351961743,$GNGGA,113242.00,4540.364721,N,01156.021328,E,1,12,0.5,37.8,M,46.0,M,,*44

1612351962725,$GPGSV,4,1,13,05,06,195,26,10,08,327,21,12,12,216,11,13,63,140,42,1*64

1612351962725,$GPGSV,4,2,13,14,35,050,32,15,68,270,36,17,32,104,44,19,23,130,42,1*62

1612351962725,$GPGSV,4,3,13,20,21,296,29,23,24,300,28,24,42,284,33,28,43,052,40,1*68

1612351962725,$GPGSV,4,4,13,30,11,084,25,1*5E

1612351962725,$GLGSV,3,1,09,66,61,210,32,86,05,108,23,77,40,260,15,76,68,002,29,1*77

1612351962725,$GLGSV,3,2,09,75,00,000,43,65,06,168,28,85,17,060,39,67,44,313,39,1*78

1612351962725,$GLGSV,3,3,09,84,07,007,,1*4D

1612351962725,$GBGSV,3,1,11,37,33,066,40,36,31,258,38,28,17,068,40,22,30,307,32,1*77

1612351962725,$GBGSV,3,2,11,20,21,182,18,19,49,237,37,10,23,050,39,05,18,123,35,1*76

1612351962725,$GBGSV,3,3,11,02,02,102,,07,02,045,,27,12,120,,1*44

1612351962741,$GNGSA,A,3,05,10,13,14,15,17,19,20,23,24,28,30,0.8,0.5,0.6,1*3F

1612351962741,$GNGSA,A,3,65,66,67,76,85,,,,,,,,0.8,0.5,0.6,2*37

1612351962741,$GNGSA,A,3,05,10,19,28,36,37,,,,,,,0.8,0.5,0.6,4*38

1612351962741,$GNVTG,,T,,M,0.0,N,0.0,K,A*3D

1612351962741,$GNDTM,P90,,0000.000026,S,00000.000000,E,0.978,W84*5C

1612351962741,$GNRMC,113243.00,A,4540.364720,N,01156.021330,E,0.0,,030221,0.6,E,A,V*7C

1612351962741,$GNGNS,113243.00,4540.364720,N,01156.021330,E,AANA,23,0.5,37.8,46.0,,,V*10

1612351962741,$GNGGA,113243.00,4540.364720,N,01156.021330,E,1,12,0.5,37.8,M,46.0,M,,*4D

1612351963721,$GPGSV,4,1,13,05,06,195,25,10,08,327,21,12,12,216,11,13,63,140,41,1*64

1612351963721,$GPGSV,4,2,13,14,35,050,31,15,68,270,35,17,32,104,44,19,23,130,42,1*62

1612351963721,$GPGSV,4,3,13,20,21,296,30,23,24,300,29,24,42,284,33,28,43,052,40,1*61

1612351963721,$GPGSV,4,4,13,30,11,084,24,1*5F

1612351963721,$GLGSV,3,1,09,66,60,209,31,86,06,106,22,77,40,260,15,76,68,002,29,1*71

1612351963721,$GLGSV,3,2,09,75,00,000,43,65,06,168,29,85,17,060,39,67,44,313,39,1*79

1612351963721,$GLGSV,3,3,09,84,07,005,,1*4F

1612351963721,$GBGSV,3,1,11,37,33,066,40,36,31,258,37,28,17,068,40,22,30,307,32,1*78

1612351963721,$GBGSV,3,2,11,20,21,182,18,19,49,237,36,10,23,050,39,05,18,123,36,1*74

1612351963721,$GBGSV,3,3,11,02,02,102,,07,02,045,,27,12,120,,1*44

1612351963737,$GNGSA,A,3,05,13,14,15,17,19,20,23,24,28,30,,0.9,0.6,0.7,1*3D

1612351963737,$GNGSA,A,3,65,66,67,76,85,,,,,,,,0.9,0.6,0.7,2*34

1612351963737,$GNGSA,A,3,05,10,19,28,36,37,,,,,,,0.9,0.6,0.7,4*3B

1612351963737,$GNVTG,,T,,M,0.0,N,0.0,K,A*3D

1612351963737,$GNDTM,P90,,0000.000026,S,00000.000000,E,0.978,W84*5C

1612351963737,$GNRMC,113244.00,A,4540.364718,N,01156.021332,E,0.0,,030221,0.6,E,A,V*72

1612351963737,$GNGNS,113244.00,4540.364718,N,01156.021332,E,AANA,22,0.6,37.8,46.0,,,V*1C

1612351963737,$GNGGA,113244.00,4540.364718,N,01156.021332,E,1,12,0.6,37.8,M,46.0,M,,*40

1612351964727,$GPGSV,4,1,13,05,06,195,25,10,08,327,21,12,12,216,11,13,63,140,41,1*64

1612351964727,$GPGSV,4,2,13,14,35,050,31,15,68,270,35,17,32,104,43,19,23,130,42,1*65

1612351964727,$GPGSV,4,3,13,20,21,296,29,23,24,300,27,24,42,284,31,28,43,052,40,1*65

1612351964727,$GPGSV,4,4,13,30,11,084,25,1*5E

1612351964727,$GLGSV,3,1,09,66,60,209,31,86,06,106,22,77,40,260,17,76,68,002,29,1*73

1612351964727,$GLGSV,3,2,09,75,00,000,43,65,06,168,33,85,17,060,40,67,44,313,38,1*7D

1612351964727,$GLGSV,3,3,09,84,07,005,,1*4F

1612351964727,$GBGSV,3,1,11,37,33,066,40,36,31,258,37,28,17,068,40,22,30,307,32,1*78

1612351964727,$GBGSV,3,2,11,20,21,182,18,19,49,237,36,10,23,050,39,05,18,123,36,1*74

1612351964727,$GBGSV,3,3,11,02,02,102,,07,02,045,,27,12,120,,1*44

1612351964747,$GNGSA,A,3,05,13,14,15,17,19,20,23,24,28,30,,0.9,0.6,0.7,1*3D

1612351964747,$GNGSA,A,3,65,66,67,76,85,,,,,,,,0.9,0.6,0.7,2*34

1612351964747,$GNGSA,A,3,05,10,19,28,36,37,,,,,,,0.9,0.6,0.7,4*3B

1612351964747,$GNVTG,,T,,M,0.0,N,0.0,K,A*3D

1612351964747,$GNDTM,P90,,0000.000026,S,00000.000000,E,0.978,W84*5C

1612351964747,$GNRMC,113245.00,A,4540.364717,N,01156.021333,E,0.0,,030221,0.6,E,A,V*7D

1612351964747,$GNGNS,113245.00,4540.364717,N,01156.021333,E,AANA,22,0.6,37.8,46.0,,,V*13

1612351964747,$GNGGA,113245.00,4540.364717,N,01156.021333,E,1,12,0.6,37.8,M,46.0,M,,*4F

1612351965726,$GPGSV,4,1,13,05,06,195,25,10,08,327,23,12,12,216,11,13,63,140,42,1*65

1612351965726,$GPGSV,4,2,13,14,35,050,32,15,68,270,36,17,32,104,44,19,23,130,43,1*63

1612351965726,$GPGSV,4,3,13,20,21,296,30,23,24,300,29,24,42,284,30,28,43,052,40,1*62

1612351965726,$GPGSV,4,4,13,30,11,084,24,1*5F

1612351965726,$GLGSV,3,1,09,66,60,209,33,86,06,106,22,77,40,260,17,76,68,002,29,1*71

1612351965726,$GLGSV,3,2,09,75,00,000,44,65,06,168,30,85,17,060,39,67,44,313,39,1*76

1612351965726,$GLGSV,3,3,09,84,07,005,,1*4F

1612351965726,$GBGSV,3,1,11,37,33,066,39,36,31,258,38,28,17,068,41,22,30,307,32,1*78

1612351965726,$GBGSV,3,2,11,20,21,182,18,19,49,237,37,10,23,050,39,05,18,123,36,1*75

1612351965726,$GBGSV,3,3,11,02,02,102,,07,02,045,,27,12,120,,1*44

1612351965742,$GNGSA,A,3,05,13,14,15,17,19,20,23,24,28,30,,0.9,0.6,0.7,1*3D

1612351965742,$GNGSA,A,3,65,66,67,76,85,,,,,,,,0.9,0.6,0.7,2*34

1612351965742,$GNGSA,A,3,05,10,19,28,36,37,,,,,,,0.9,0.6,0.7,4*3B

1612351965742,$GNVTG,,T,,M,0.0,N,0.0,K,A*3D

1612351965742,$GNDTM,P90,,0000.000026,S,00000.000000,E,0.978,W84*5C

1612351965742,$GNRMC,113246.00,A,4540.364716,N,01156.021333,E,0.0,,030221,0.6,E,A,V*7F

1612351965742,$GNGNS,113246.00,4540.364716,N,01156.021333,E,AANA,22,0.6,37.8,46.0,,,V*11

1612351965742,$GNGGA,113246.00,4540.364716,N,01156.021333,E,1,12,0.6,37.8,M,46.0,M,,*4D

1612351966725,$GPGSV,4,1,13,05,06,195,24,10,08,327,23,12,12,216,11,13,63,140,40,1*66

1612351966725,$GPGSV,4,2,13,14,35,050,31,15,68,270,35,17,32,104,44,19,23,130,42,1*62

1612351966725,$GPGSV,4,3,13,20,21,296,31,23,24,300,26,24,42,284,30,28,43,052,39,1*62

1612351966725,$GPGSV,4,4,13,30,11,084,24,1*5F

1612351966725,$GLGSV,3,1,09,66,60,209,31,86,06,106,21,77,40,260,17,76,68,002,30,1*78

1612351966725,$GLGSV,3,2,09,75,00,000,43,65,06,168,31,85,17,060,39,67,44,313,38,1*71

1612351966725,$GLGSV,3,3,09,84,07,005,,1*4F

1612351966725,$GBGSV,3,1,11,37,33,066,39,36,31,258,37,28,17,068,41,22,30,307,33,1*76

1612351966725,$GBGSV,3,2,11,20,21,182,18,19,49,237,35,10,23,050,39,05,18,123,35,1*74

1612351966725,$GBGSV,3,3,11,02,02,102,,07,02,045,,27,12,120,,1*44

1612351966741,$GNGSA,A,3,05,13,14,15,17,19,20,23,24,28,30,,0.9,0.6,0.7,1*3D

1612351966741,$GNGSA,A,3,65,66,67,76,85,,,,,,,,0.9,0.6,0.7,2*34

1612351966741,$GNGSA,A,3,05,10,19,28,36,37,,,,,,,0.9,0.6,0.7,4*3B

1612351966741,$GNVTG,,T,,M,0.0,N,0.0,K,A*3D

1612351966741,$GNDTM,P90,,0000.000026,S,00000.000000,E,0.978,W84*5C

1612351966741,$GNRMC,113247.00,A,4540.364715,N,01156.021332,E,0.0,,030221,0.6,E,A,V*7C

1612351966741,$GNGNS,113247.00,4540.364715,N,01156.021332,E,AANA,22,0.6,37.8,46.0,,,V*12

1612351966741,$GNGGA,113247.00,4540.364715,N,01156.021332,E,1,12,0.6,37.8,M,46.0,M,,*4E

1612351967726,$GPGSV,4,1,13,05,06,195,24,10,08,327,23,12,12,216,11,13,63,140,40,1*66

1612351967726,$GPGSV,4,2,13,14,35,050,29,15,68,270,34,17,32,104,44,19,23,130,42,1*6A

1612351967726,$GPGSV,4,3,13,20,21,296,29,24,42,284,30,28,43,052,39,30,11,084,25,1*63

1612351967726,$GPGSV,4,4,13,23,24,300,,1*52

1612351967726,$GLGSV,3,1,09,66,60,209,31,86,06,106,22,77,40,260,17,76,68,002,30,1*7B

1612351967726,$GLGSV,3,2,09,75,00,000,43,65,06,168,31,85,17,060,39,67,44,313,37,1*7E

1612351967726,$GLGSV,3,3,09,84,07,005,,1*4F

1612351967726,$GBGSV,3,1,11,37,33,066,39,36,31,258,37,28,17,068,40,22,30,307,34,1*70

1612351967726,$GBGSV,3,2,11,19,49,237,34,10,23,050,39,05,18,123,35,02,02,102,,1*75

1612351967726,$GBGSV,3,3,11,07,02,045,,20,21,182,,27,12,120,,1*4D

1612351967740,$GNGSA,A,3,05,13,14,15,17,19,20,23,24,28,30,,0.9,0.6,0.7,1*3D

1612351967740,$GNGSA,A,3,65,66,67,76,85,,,,,,,,0.9,0.6,0.7,2*34

1612351967740,$GNGSA,A,3,05,10,19,28,36,37,,,,,,,0.9,0.6,0.7,4*3B

1612351967740,$GNVTG,,T,,M,0.0,N,0.0,K,A*3D

1612351967740,$GNDTM,P90,,0000.000026,S,00000.000000,E,0.978,W84*5C

1612351967740,$GNRMC,113248.00,A,4540.364715,N,01156.021332,E,0.0,,030221,0.6,E,A,V*73

1612351967740,$GNGNS,113248.00,4540.364715,N,01156.021332,E,AANA,22,0.6,37.8,46.0,,,V*1D

1612351967740,$GNGGA,113248.00,4540.364715,N,01156.021332,E,1,12,0.6,37.8,M,46.0,M,,*41

1612351968718,$GPGSV,4,1,13,05,06,195,22,10,08,327,20,12,12,216,11,13,63,140,43,1*60

1612351968718,$GPGSV,4,2,13,14,35,050,33,15,68,270,38,17,32,104,45,19,23,130,43,1*6D

1612351968718,$GPGSV,4,3,13,20,21,296,34,23,24,300,32,24,42,284,33,28,43,052,42,1*6D

1612351968718,$GPGSV,4,4,13,30,11,084,25,1*5E

1612351968718,$GLGSV,3,1,09,66,60,209,35,86,06,106,22,77,40,260,19,76,68,002,29,1*79

1612351968718,$GLGSV,3,2,09,75,00,000,44,65,06,168,33,85,17,060,41,67,44,313,42,1*76

1612351968718,$GLGSV,3,3,09,84,07,005,,1*4F

1612351968718,$GBGSV,3,1,11,37,33,066,39,36,31,258,38,28,17,068,42,22,30,307,31,1*78

1612351968718,$GBGSV,3,2,11,20,21,182,24,19,49,237,38,10,23,050,39,05,18,123,37,1*74

1612351968718,$GBGSV,3,3,11,02,02,102,,07,02,045,,27,12,120,,1*44

1612351968729,$GNGSA,A,3,05,13,14,15,17,19,20,23,24,28,30,,0.9,0.6,0.7,1*3D

1612351968729,$GNGSA,A,3,65,66,67,76,85,,,,,,,,0.9,0.6,0.7,2*34

1612351968729,$GNGSA,A,3,05,10,19,28,36,37,,,,,,,0.9,0.6,0.7,4*3B

1612351968729,$GNVTG,,T,,M,0.0,N,0.0,K,A*3D

1612351968729,$GNDTM,P90,,0000.000026,S,00000.000000,E,0.978,W84*5C

1612351968729,$GNRMC,113249.00,A,4540.364716,N,01156.021332,E,0.0,,030221,0.6,E,A,V*71

1612351968729,$GNGNS,113249.00,4540.364716,N,01156.021332,E,AANA,22,0.6,37.8,46.0,,,V*1F

1612351968729,$GNGGA,113249.00,4540.364716,N,01156.021332,E,1,12,0.6,37.8,M,46.0,M,,*43

1612351969723,$GPGSV,4,1,13,05,06,195,22,10,08,327,20,12,12,216,11,13,63,140,40,1*63

1612351969723,$GPGSV,4,2,13,14,35,050,30,15,68,270,34,17,32,104,44,19,23,130,42,1*62

1612351969723,$GPGSV,4,3,13,20,21,296,29,24,42,284,27,28,43,052,38,30,11,084,26,1*67

1612351969723,$GPGSV,4,4,13,23,24,300,,1*52

1612351969723,$GLGSV,3,1,10,66,60,209,30,86,06,106,22,77,40,260,19,76,68,002,29,1*74

1612351969723,$GLGSV,3,2,10,75,00,000,44,65,06,168,29,85,17,060,39,67,44,313,36,1*79

1612351969723,$GLGSV,3,3,10,84,07,005,,68,00,000,,1*79

1612351969723,$GBGSV,3,1,11,37,33,066,38,36,31,258,36,28,17,068,40,22,30,307,34,1*70

1612351969723,$GBGSV,3,2,11,20,21,182,22,19,49,237,32,10,23,050,39,05,18,123,34,1*7B

1612351969723,$GBGSV,3,3,11,02,02,102,,07,02,045,,27,12,120,,1*44

1612351969739,$GNGSA,A,3,05,13,14,15,17,19,20,23,24,28,30,,0.9,0.6,0.7,1*3D

1612351969739,$GNGSA,A,3,65,66,67,76,85,,,,,,,,0.9,0.6,0.7,2*34

1612351969739,$GNGSA,A,3,05,10,19,28,36,37,,,,,,,0.9,0.6,0.7,4*3B

1612351969739,$GNVTG,,T,,M,0.0,N,0.0,K,A*3D

1612351969739,$GNDTM,P90,,0000.000026,S,00000.000000,E,0.978,W84*5C

1612351969739,$GNRMC,113250.00,A,4540.364716,N,01156.021331,E,0.0,,030221,0.6,E,A,V*7A

1612351969739,$GNGNS,113250.00,4540.364716,N,01156.021331,E,AANA,22,0.6,37.8,46.0,,,V*14

1612351969739,$GNGGA,113250.00,4540.364716,N,01156.021331,E,1,12,0.6,37.8,M,46.0,M,,*48

1612351970726,$GPGSV,4,1,13,05,06,195,22,10,08,327,21,12,12,216,11,13,63,140,39,1*6C

1612351970726,$GPGSV,4,2,13,14,35,050,32,15,68,270,34,17,32,104,44,19,23,130,43,1*61

1612351970726,$GPGSV,4,3,13,20,21,296,29,24,42,284,28,28,43,052,38,30,11,084,26,1*68

1612351970726,$GPGSV,4,4,13,23,24,300,,1*52

1612351970726,$GLGSV,3,1,10,66,60,209,30,86,06,106,20,77,40,260,21,76,68,002,30,1*75

1612351970726,$GLGSV,3,2,10,75,00,000,43,65,06,168,29,85,17,060,39,67,44,313,35,1*7D

1612351970726,$GLGSV,3,3,10,84,07,005,,68,00,000,,1*79

1612351970726,$GBGSV,3,1,11,37,33,066,39,36,31,258,36,28,17,068,40,22,30,307,34,1*71

1612351970726,$GBGSV,3,2,11,20,21,182,24,19,49,237,32,10,23,050,39,05,18,123,33,1*7A

1612351970726,$GBGSV,3,3,11,02,02,102,,07,02,045,,27,12,120,,1*44

1612351970745,$GNGSA,A,3,05,13,14,15,17,19,20,23,24,28,30,,0.9,0.6,0.7,1*3D

1612351970745,$GNGSA,A,3,65,66,67,76,85,,,,,,,,0.9,0.6,0.7,2*34

1612351970745,$GNGSA,A,3,05,10,19,28,36,37,,,,,,,0.9,0.6,0.7,4*3B

1612351970745,$GNVTG,,T,,M,0.0,N,0.0,K,A*3D

1612351970745,$GNDTM,P90,,0000.000026,S,00000.000000,E,0.978,W84*5C

1612351970745,$GNRMC,113251.00,A,4540.364716,N,01156.021329,E,0.0,,030221,0.6,E,A,V*72

1612351970745,$GNGNS,113251.00,4540.364716,N,01156.021329,E,AANA,22,0.6,37.8,46.0,,,V*1C

1612351970745,$GNGGA,113251.00,4540.364716,N,01156.021329,E,1,12,0.6,37.8,M,46.0,M,,*40

1612351971724,$GPGSV,4,1,13,10,08,327,21,12,12,216,16,13,63,140,39,14,35,050,32,1*62

1612351971724,$GPGSV,4,2,13,15,68,270,34,17,32,104,44,19,23,130,43,20,21,296,29,1*61

1612351971724,$GPGSV,4,3,13,24,42,284,29,28,43,052,39,30,11,084,27,05,06,195,,1*60

1612351971724,$GPGSV,4,4,13,23,24,300,,1*52

1612351971724,$GLGSV,3,1,10,66,60,209,30,86,06,106,23,77,40,260,21,76,68,002,28,1*7F

1612351971724,$GLGSV,3,2,10,75,00,000,43,65,06,168,28,85,17,060,39,67,44,313,35,1*7C

1612351971724,$GLGSV,3,3,10,84,07,005,,68,00,000,,1*79

1612351971724,$GBGSV,3,1,11,37,33,066,38,36,31,258,36,28,17,068,40,22,30,307,34,1*70

1612351971724,$GBGSV,3,2,11,20,21,182,23,19,49,237,31,10,23,050,39,05,18,123,34,1*79

1612351971724,$GBGSV,3,3,11,02,02,102,,07,02,045,,27,12,120,,1*44

1612351971742,$GNGSA,A,3,05,13,14,15,17,19,20,23,24,28,30,,0.9,0.6,0.7,1*3D

1612351971742,$GNGSA,A,3,65,66,67,76,85,,,,,,,,0.9,0.6,0.7,2*34

1612351971742,$GNGSA,A,3,05,10,19,28,36,37,,,,,,,0.9,0.6,0.7,4*3B

1612351971742,$GNVTG,,T,,M,0.0,N,0.0,K,A*3D

1612351971742,$GNDTM,P90,,0000.000026,S,00000.000000,E,0.978,W84*5C

1612351971742,$GNRMC,113252.00,A,4540.364716,N,01156.021328,E,0.0,,030221,0.6,E,A,V*70

1612351971742,$GNGNS,113252.00,4540.364716,N,01156.021328,E,AANA,22,0.6,37.8,46.0,,,V*1E

1612351971742,$GNGGA,113252.00,4540.364716,N,01156.021328,E,1,12,0.6,37.8,M,46.0,M,,*42

1612351972723,$GPGSV,4,1,13,10,08,327,21,12,12,216,16,13,63,140,41,14,35,050,31,1*6E

1612351972723,$GPGSV,4,2,13,15,68,270,34,17,32,104,44,19,23,130,43,20,21,296,31,1*68

1612351972723,$GPGSV,4,3,13,24,42,284,29,28,43,052,39,30,11,084,28,05,06,195,,1*6F

1612351972723,$GPGSV,4,4,13,23,24,300,,1*52

1612351972723,$GLGSV,3,1,10,66,60,209,31,86,06,106,22,77,40,260,21,76,68,002,27,1*70

1612351972723,$GLGSV,3,2,10,75,00,000,43,65,06,168,32,85,17,060,39,67,44,313,37,1*75

1612351972723,$GLGSV,3,3,10,84,07,005,,68,00,000,,1*79

1612351972723,$GBGSV,3,1,11,37,33,066,38,36,31,258,36,28,17,068,40,22,30,307,35,1*71

1612351972723,$GBGSV,3,2,11,20,21,182,25,19,49,237,32,10,23,050,39,05,18,123,34,1*7C

1612351972723,$GBGSV,3,3,11,02,02,102,,07,02,045,,27,12,120,,1*44

1612351972741,$GNGSA,A,3,13,14,15,17,19,20,23,24,28,30,,,0.9,0.6,0.7,1*38

1612351972741,$GNGSA,A,3,65,66,67,76,85,,,,,,,,0.9,0.6,0.7,2*34

1612351972741,$GNGSA,A,3,05,10,19,20,28,36,37,,,,,,0.9,0.6,0.7,4*39

1612351972741,$GNVTG,,T,,M,0.0,N,0.0,K,A*3D

1612351972741,$GNDTM,P90,,0000.000026,S,00000.000000,E,0.978,W84*5C

1612351972741,$GNRMC,113253.00,A,4540.364716,N,01156.021327,E,0.0,,030221,0.6,E,A,V*7E

1612351972741,$GNGNS,113253.00,4540.364716,N,01156.021327,E,AANA,22,0.6,37.8,46.0,,,V*10

1612351972741,$GNGGA,113253.00,4540.364716,N,01156.021327,E,1,12,0.6,37.8,M,46.0,M,,*4C

1612351973722,$GPGSV,4,1,13,05,06,195,22,10,08,327,21,12,12,216,16,13,63,140,40,1*65

1612351973722,$GPGSV,4,2,13,14,35,050,32,15,68,270,33,17,32,104,44,19,23,130,43,1*66

1612351973722,$GPGSV,4,3,13,20,21,296,29,24,42,284,27,28,43,052,39,30,11,084,28,1*68

1612351973722,$GPGSV,4,4,13,23,24,300,,1*52

1612351973722,$GLGSV,3,1,10,66,60,209,31,86,06,106,22,77,40,260,21,76,68,002,28,1*7F

1612351973722,$GLGSV,3,2,10,75,00,000,43,65,06,168,32,85,17,060,39,67,44,313,36,1*74

1612351973722,$GLGSV,3,3,10,84,07,005,,68,00,000,,1*79

1612351973722,$GBGSV,3,1,11,37,33,066,37,36,31,258,36,28,17,068,40,22,30,307,35,1*7E

1612351973722,$GBGSV,3,2,11,20,21,182,26,19,49,237,32,10,23,050,39,05,18,123,33,1*78

1612351973722,$GBGSV,3,3,11,02,02,102,,07,02,045,,27,12,120,,1*44

1612351973727,$GNGSA,A,3,13,14,15,17,19,20,23,24,28,30,,,0.9,0.6,0.7,1*38

1612351973727,$GNGSA,A,3,65,66,67,76,85,,,,,,,,0.9,0.6,0.7,2*34

1612351973727,$GNGSA,A,3,05,10,19,20,28,36,37,,,,,,0.9,0.6,0.7,4*39

1612351973727,$GNVTG,,T,,M,0.0,N,0.0,K,A*3D

1612351973727,$GNDTM,P90,,0000.000026,S,00000.000000,E,0.978,W84*5C

1612351973727,$GNRMC,113254.00,A,4540.364717,N,01156.021327,E,0.0,,030221,0.6,E,A,V*78

1612351973727,$GNGNS,113254.00,4540.364717,N,01156.021327,E,AANA,22,0.6,37.8,46.0,,,V*16

1612351973727,$GNGGA,113254.00,4540.364717,N,01156.021327,E,1,12,0.6,37.8,M,46.0,M,,*4A

1612351974723,$GPGSV,4,1,13,05,06,195,22,10,08,327,21,12,12,216,20,13,63,140,40,1*60

1612351974723,$GPGSV,4,2,13,14,35,050,32,15,68,270,34,17,32,104,44,19,23,130,43,1*61

1612351974723,$GPGSV,4,3,13,20,21,296,28,24,42,284,27,28,43,052,40,30,11,084,28,1*67

1612351974723,$GPGSV,4,4,13,23,24,300,,1*52

1612351974723,$GLGSV,3,1,10,66,60,209,31,86,06,106,22,77,40,260,21,76,68,002,28,1*7F

1612351974723,$GLGSV,3,2,10,75,00,000,43,65,06,168,32,85,17,060,39,67,44,313,36,1*74

1612351974723,$GLGSV,3,3,10,84,07,005,,68,00,000,,1*79

1612351974723,$GBGSV,3,1,11,37,33,066,37,36,31,258,36,28,17,068,40,22,30,307,34,1*7F

1612351974723,$GBGSV,3,2,11,20,21,182,25,19,49,237,31,10,23,050,38,05,18,123,32,1*78

1612351974723,$GBGSV,3,3,11,02,02,102,,07,02,045,,27,12,120,,1*44

1612351974743,$GNGSA,A,3,13,14,15,17,19,20,24,28,30,,,,0.9,0.6,0.7,1*39

1612351974743,$GNGSA,A,3,65,66,67,76,85,,,,,,,,0.9,0.6,0.7,2*34

1612351974743,$GNGSA,A,3,05,10,19,20,28,36,37,,,,,,0.9,0.6,0.7,4*39

1612351974743,$GNVTG,,T,,M,0.0,N,0.0,K,A*3D

1612351974743,$GNDTM,P90,,0000.000026,S,00000.000000,E,0.978,W84*5C

1612351974743,$GNRMC,113255.00,A,4540.364717,N,01156.021326,E,0.0,,030221,0.6,E,A,V*78

1612351974743,$GNGNS,113255.00,4540.364717,N,01156.021326,E,AANA,21,0.6,37.8,46.0,,,V*15

1612351974743,$GNGGA,113255.00,4540.364717,N,01156.021326,E,1,12,0.6,37.8,M,46.0,M,,*4A

1612351975726,$GPGSV,4,1,13,05,06,195,22,10,08,327,21,12,12,216,20,13,63,140,40,1*60

1612351975726,$GPGSV,4,2,13,14,35,050,33,15,68,270,33,17,32,104,45,19,23,130,43,1*66

1612351975726,$GPGSV,4,3,13,20,21,296,29,24,42,284,27,28,43,052,40,30,11,084,27,1*69

1612351975726,$GPGSV,4,4,13,23,24,300,,1*52

1612351975726,$GLGSV,3,1,10,66,60,209,30,86,06,106,22,77,40,260,21,76,68,002,27,1*71

1612351975726,$GLGSV,3,2,10,75,00,000,43,65,06,168,31,85,17,060,39,67,44,313,36,1*77

1612351975726,$GLGSV,3,3,10,84,07,005,,68,00,000,,1*79

1612351975726,$GBGSV,3,1,11,37,33,066,37,36,31,258,36,28,17,068,40,22,30,307,34,1*7F

1612351975726,$GBGSV,3,2,11,20,21,182,26,19,49,237,32,10,23,050,39,05,18,123,32,1*79

1612351975726,$GBGSV,3,3,11,02,02,102,,07,02,045,,27,12,120,,1*44

1612351975742,$GNGSA,A,3,13,14,15,17,19,20,24,28,30,,,,0.9,0.6,0.7,1*39

1612351975742,$GNGSA,A,3,65,66,67,76,85,,,,,,,,0.9,0.6,0.7,2*34

1612351975742,$GNGSA,A,3,05,10,19,20,28,36,37,,,,,,0.9,0.6,0.7,4*39

1612351975742,$GNVTG,,T,,M,0.0,N,0.0,K,A*3D

1612351975742,$GNDTM,P90,,0000.000026,S,00000.000000,E,0.978,W84*5C

1612351975742,$GNRMC,113256.00,A,4540.364719,N,01156.021326,E,0.0,,030221,0.6,E,A,V*75

1612351975742,$GNGNS,113256.00,4540.364719,N,01156.021326,E,AANA,21,0.6,37.7,46.0,,,V*17

1612351975742,$GNGGA,113256.00,4540.364719,N,01156.021326,E,1,12,0.6,37.7,M,46.0,M,,*48

1612351976727,$GPGSV,4,1,13,05,06,195,22,10,08,327,21,12,12,216,22,13,63,140,41,1*63

1612351976727,$GPGSV,4,2,13,14,35,050,32,15,68,270,34,17,32,104,45,19,23,130,43,1*60

1612351976727,$GPGSV,4,3,13,20,21,296,30,24,42,284,26,28,43,052,41,30,11,084,28,1*6E

1612351976727,$GPGSV,4,4,13,23,24,300,,1*52

1612351976727,$GLGSV,3,1,10,66,60,209,30,86,06,106,21,77,40,260,21,76,68,002,26,1*73

1612351976727,$GLGSV,3,2,10,75,00,000,43,65,06,168,33,85,17,060,39,67,44,313,37,1*74

1612351976727,$GLGSV,3,3,10,84,07,005,,68,00,000,,1*79

1612351976727,$GBGSV,3,1,11,37,33,066,37,36,31,258,37,28,17,068,40,22,30,307,34,1*7E

1612351976727,$GBGSV,3,2,11,20,21,182,27,19,49,237,33,10,23,050,39,05,18,123,33,1*78

1612351976727,$GBGSV,3,3,11,02,02,102,,07,02,045,,27,12,120,,1*44

1612351976743,$GNGSA,A,3,13,14,15,17,19,20,24,28,30,,,,0.9,0.6,0.7,1*39

1612351976743,$GNGSA,A,3,65,66,67,76,85,,,,,,,,0.9,0.6,0.7,2*34

1612351976743,$GNGSA,A,3,05,10,19,20,28,36,37,,,,,,0.9,0.6,0.7,4*39

1612351976743,$GNVTG,,T,,M,0.0,N,0.0,K,A*3D

1612351976743,$GNDTM,P90,,0000.000026,S,00000.000000,E,0.978,W84*5C

1612351976743,$GNRMC,113257.00,A,4540.364719,N,01156.021326,E,0.0,,030221,0.6,E,A,V*74

1612351976743,$GNGNS,113257.00,4540.364719,N,01156.021326,E,AANA,21,0.6,37.7,46.0,,,V*16

1612351976743,$GNGGA,113257.00,4540.364719,N,01156.021326,E,1,12,0.6,37.7,M,46.0,M,,*49

1612351977724,$GPGSV,4,1,13,05,06,195,22,10,08,327,21,12,12,216,23,13,63,140,41,1*62

1612351977724,$GPGSV,4,2,13,14,35,050,33,15,68,270,33,17,32,104,45,19,23,130,43,1*66

1612351977724,$GPGSV,4,3,13,20,21,296,30,24,42,284,25,28,43,052,40,30,11,084,28,1*6C

1612351977724,$GPGSV,4,4,13,23,24,300,,1*52

1612351977724,$GLGSV,3,1,10,66,60,209,29,86,06,106,21,77,40,260,21,76,68,002,26,1*7B

1612351977724,$GLGSV,3,2,10,75,00,000,42,65,06,168,32,85,17,060,39,67,44,313,35,1*76

1612351977724,$GLGSV,3,3,10,84,07,005,,68,00,000,,1*79

1612351977724,$GBGSV,3,1,11,37,33,066,37,36,31,258,36,28,17,068,40,22,30,307,34,1*7F

1612351977724,$GBGSV,3,2,11,20,21,182,28,19,49,237,32,10,23,050,38,05,18,123,32,1*76

1612351977724,$GBGSV,3,3,11,02,02,102,,07,02,045,,27,12,120,,1*44

1612351977741,$GNGSA,A,3,13,14,15,17,19,20,24,28,30,,,,0.9,0.6,0.7,1*39

1612351977741,$GNGSA,A,3,65,66,67,76,85,,,,,,,,0.9,0.6,0.7,2*34

1612351977741,$GNGSA,A,3,05,10,19,20,28,36,37,,,,,,0.9,0.6,0.7,4*39

1612351977741,$GNVTG,,T,,M,0.0,N,0.0,K,A*3D

1612351977741,$GNDTM,P90,,0000.000026,S,00000.000000,E,0.978,W84*5C

1612351977741,$GNRMC,113258.00,A,4540.364721,N,01156.021325,E,0.0,,030221,0.6,E,A,V*73

1612351977741,$GNGNS,113258.00,4540.364721,N,01156.021325,E,AANA,21,0.6,37.7,46.0,,,V*11

1612351977741,$GNGGA,113258.00,4540.364721,N,01156.021325,E,1,12,0.6,37.7,M,46.0,M,,*4E

1612351978721,$GPGSV,4,1,13,05,06,195,17,10,08,327,21,12,12,216,23,13,63,140,41,1*64

1612351978721,$GPGSV,4,2,13,14,35,050,32,15,68,270,34,17,32,104,45,19,23,130,43,1*60

1612351978721,$GPGSV,4,3,13,20,21,296,30,24,42,284,28,28,43,052,41,30,11,084,28,1*60

1612351978721,$GPGSV,4,4,13,23,24,300,,1*52

1612351978721,$GLGSV,3,1,10,66,60,209,29,86,06,106,21,77,40,260,21,76,68,002,25,1*78

1612351978721,$GLGSV,3,2,10,75,00,000,43,65,06,168,33,85,17,060,39,67,44,313,37,1*74

1612351978721,$GLGSV,3,3,10,84,07,005,,68,00,000,,1*79

1612351978721,$GBGSV,3,1,11,37,33,066,37,36,31,258,37,28,17,068,40,22,30,307,34,1*7E

1612351978721,$GBGSV,3,2,11,20,21,182,28,19,49,237,34,10,23,050,39,05,18,123,33,1*70

1612351978721,$GBGSV,3,3,11,02,02,102,,07,02,045,,27,12,120,,1*44

1612351978736,$GNGSA,A,3,13,14,15,17,19,20,24,28,30,,,,0.9,0.6,0.7,1*39

1612351978736,$GNGSA,A,3,65,66,67,76,85,,,,,,,,0.9,0.6,0.7,2*34

1612351978736,$GNGSA,A,3,05,10,19,20,28,36,37,,,,,,0.9,0.6,0.7,4*39

1612351978736,$GNVTG,,T,,M,0.0,N,0.0,K,A*3D

1612351978736,$GNDTM,P90,,0000.000026,S,00000.000000,E,0.978,W84*5C

1612351978736,$GNRMC,113259.00,A,4540.364723,N,01156.021324,E,0.0,,030221,0.6,E,A,V*71

1612351978736,$GNGNS,113259.00,4540.364723,N,01156.021324,E,AANA,21,0.6,37.7,46.0,,,V*13

1612351978736,$GNGGA,113259.00,4540.364723,N,01156.021324,E,1,12,0.6,37.7,M,46.0,M,,*4C

1612351979720,$GPGSV,4,1,13,05,06,195,17,10,08,327,21,12,12,216,22,13,63,140,40,1*64

1612351979720,$GPGSV,4,2,13,14,35,050,33,15,68,270,33,17,32,104,45,19,23,130,43,1*66

1612351979720,$GPGSV,4,3,13,20,21,296,29,24,42,284,27,28,43,052,40,30,11,084,26,1*68

1612351979720,$GPGSV,4,4,13,23,24,300,,1*52

1612351979720,$GLGSV,3,1,10,66,60,209,27,86,06,106,21,77,40,260,21,76,68,002,26,1*75

1612351979720,$GLGSV,3,2,10,75,00,000,43,65,06,168,32,85,17,060,39,67,44,313,36,1*74

1612351979720,$GLGSV,3,3,10,84,07,005,,68,00,000,,1*79

1612351979720,$GBGSV,3,1,11,37,33,066,37,36,31,258,36,28,17,068,40,22,30,307,33,1*78

1612351979720,$GBGSV,3,2,11,20,21,182,28,19,49,237,33,10,23,050,38,05,18,123,32,1*77

1612351979720,$GBGSV,3,3,11,02,02,102,,07,02,045,,27,12,120,,1*44

1612351979735,$GNGSA,A,3,13,14,15,17,19,20,24,28,30,,,,0.9,0.6,0.7,1*39

1612351979735,$GNGSA,A,3,65,66,67,76,85,,,,,,,,0.9,0.6,0.7,2*34

1612351979735,$GNGSA,A,3,05,10,19,20,28,36,37,,,,,,0.9,0.6,0.7,4*39

1612351979735,$GNVTG,,T,,M,0.0,N,0.0,K,A*3D

1612351979735,$GNDTM,P90,,0000.000026,S,00000.000000,E,0.978,W84*5C

1612351979735,$GNRMC,113300.00,A,4540.364724,N,01156.021324,E,0.0,,030221,0.6,E,A,V*7B

1612351979735,$GNGNS,113300.00,4540.364724,N,01156.021324,E,AANA,21,0.6,37.7,46.0,,,V*19

1612351979735,$GNGGA,113300.00,4540.364724,N,01156.021324,E,1,12,0.6,37.7,M,46.0,M,,*46

1612351980719,$GPGSV,4,1,13,05,06,195,17,10,08,327,21,12,12,216,22,13,63,140,40,1*64

1612351980719,$GPGSV,4,2,13,14,35,050,33,15,68,270,34,17,32,104,44,19,23,130,43,1*60

1612351980719,$GPGSV,4,3,13,20,21,296,29,24,42,284,27,28,43,052,40,30,11,084,27,1*69

1612351980719,$GPGSV,4,4,13,23,24,300,,1*52

1612351980719,$GLGSV,3,1,10,66,60,209,26,86,06,106,21,77,40,260,21,76,68,002,26,1*74

1612351980719,$GLGSV,3,2,10,75,00,000,42,65,06,168,33,85,17,060,39,67,44,313,36,1*74

1612351980719,$GLGSV,3,3,10,84,07,005,,68,00,000,,1*79

1612351980719,$GBGSV,3,1,11,37,33,066,36,36,31,258,36,28,17,068,40,22,30,307,33,1*79

1612351980719,$GBGSV,3,2,11,20,21,182,27,19,49,237,34,10,23,050,39,05,18,123,33,1*7F

1612351980719,$GBGSV,3,3,11,02,02,102,,07,02,045,,27,12,120,,1*44

1612351980734,$GNGSA,A,3,13,14,15,17,19,20,24,28,30,,,,0.9,0.6,0.7,1*39

1612351980734,$GNGSA,A,3,65,66,67,76,85,,,,,,,,0.9,0.6,0.7,2*34

1612351980734,$GNGSA,A,3,05,10,19,20,28,36,37,,,,,,0.9,0.6,0.7,4*39

1612351980734,$GNVTG,,T,,M,0.0,N,0.0,K,A*3D

1612351980734,$GNDTM,P90,,0000.000026,S,00000.000000,E,0.978,W84*5C

1612351980734,$GNRMC,113301.00,A,4540.364726,N,01156.021324,E,0.0,,030221,0.6,E,A,V*78

1612351980734,$GNGNS,113301.00,4540.364726,N,01156.021324,E,AANA,21,0.6,37.7,46.0,,,V*1A

1612351980734,$GNGGA,113301.00,4540.364726,N,01156.021324,E,1,12,0.6,37.7,M,46.0,M,,*45

1612351981723,$GPGSV,4,1,13,05,06,195,17,10,08,327,21,12,12,216,23,13,63,140,40,1*65

1612351981723,$GPGSV,4,2,13,14,35,050,33,15,68,270,34,17,32,104,44,19,23,130,43,1*60

1612351981723,$GPGSV,4,3,13,20,21,296,30,24,42,284,27,28,43,052,40,30,11,084,26,1*60

1612351981723,$GPGSV,4,4,13,23,24,300,,1*52

1612351981723,$GLGSV,3,1,10,66,60,209,26,86,06,106,21,77,40,260,21,76,68,002,26,1*74

1612351981723,$GLGSV,3,2,10,75,00,000,42,65,06,168,32,85,17,060,39,67,44,313,36,1*75

1612351981723,$GLGSV,3,3,10,84,07,005,,68,00,000,,1*79

1612351981723,$GBGSV,3,1,11,37,33,066,36,36,31,258,36,28,17,068,40,22,30,307,34,1*7E

1612351981723,$GBGSV,3,2,11,20,21,182,28,19,49,237,33,10,23,050,39,05,18,123,32,1*76

1612351981723,$GBGSV,3,3,11,02,02,102,,07,02,045,,27,12,120,,1*44

1612351981739,$GNGSA,A,3,13,14,15,17,19,20,24,28,30,,,,0.9,0.6,0.7,1*39

1612351981739,$GNGSA,A,3,65,66,67,76,85,,,,,,,,0.9,0.6,0.7,2*34

1612351981739,$GNGSA,A,3,05,10,19,20,28,36,37,,,,,,0.9,0.6,0.7,4*39

1612351981739,$GNVTG,,T,,M,0.0,N,0.0,K,A*3D

1612351981739,$GNDTM,P90,,0000.000026,S,00000.000000,E,0.978,W84*5C

1612351981739,$GNRMC,113302.00,A,4540.364726,N,01156.021324,E,0.0,,030221,0.6,E,A,V*7B

1612351981739,$GNGNS,113302.00,4540.364726,N,01156.021324,E,AANA,21,0.6,37.7,46.0,,,V*19

1612351981739,$GNGGA,113302.00,4540.364726,N,01156.021324,E,1,12,0.6,37.7,M,46.0,M,,*46

1612351982724,$GPGSV,4,1,13,05,06,195,17,10,08,327,14,12,12,216,23,13,63,140,40,1*63

1612351982724,$GPGSV,4,2,13,14,35,050,33,15,68,270,34,17,32,104,44,19,23,130,43,1*60

1612351982724,$GPGSV,4,3,13,20,21,296,29,24,42,284,28,28,43,052,41,30,11,084,25,1*65

1612351982724,$GPGSV,4,4,13,23,24,300,,1*52

1612351982724,$GLGSV,3,1,10,66,60,209,27,86,06,106,21,77,40,260,21,76,68,002,26,1*75

1612351982724,$GLGSV,3,2,10,75,00,000,42,65,06,168,32,85,17,060,38,67,44,313,36,1*74

1612351982724,$GLGSV,3,3,10,84,07,005,,68,00,000,,1*79

1612351982724,$GBGSV,3,1,11,37,33,066,37,36,31,258,37,28,17,068,40,22,30,307,34,1*7E

1612351982724,$GBGSV,3,2,11,20,21,182,29,19,49,237,34,10,23,050,39,05,18,123,32,1*70

1612351982724,$GBGSV,3,3,11,02,02,102,,07,02,045,,27,12,120,,1*44

1612351982741,$GNGSA,A,3,13,14,15,17,19,20,24,28,30,,,,0.9,0.6,0.7,1*39

1612351982741,$GNGSA,A,3,65,66,67,76,85,,,,,,,,0.9,0.6,0.7,2*34

1612351982741,$GNGSA,A,3,05,10,19,20,28,36,37,,,,,,0.9,0.6,0.7,4*39

1612351982741,$GNVTG,,T,,M,0.0,N,0.0,K,A*3D

1612351982741,$GNDTM,P90,,0000.000026,S,00000.000000,E,0.978,W84*5C

1612351982741,$GNRMC,113303.00,A,4540.364729,N,01156.021323,E,0.0,,030221,0.6,E,A,V*72

1612351982741,$GNGNS,113303.00,4540.364729,N,01156.021323,E,AANA,21,0.6,37.7,46.0,,,V*10

1612351982741,$GNGGA,113303.00,4540.364729,N,01156.021323,E,1,12,0.6,37.7,M,46.0,M,,*4F

1612351983721,$GPGSV,4,1,13,05,06,195,17,10,08,327,14,12,12,216,24,13,63,140,40,1*64

1612351983721,$GPGSV,4,2,13,14,35,050,34,15,68,270,35,17,32,104,44,19,23,130,43,1*66

1612351983721,$GPGSV,4,3,13,20,21,296,30,24,42,284,29,28,43,052,41,30,11,084,25,1*6C

1612351983721,$GPGSV,4,4,13,23,24,300,,1*52

1612351983721,$GLGSV,3,1,10,66,60,209,27,86,06,106,21,77,40,260,21,76,68,002,27,1*74

1612351983721,$GLGSV,3,2,10,75,00,000,42,65,06,168,32,85,17,060,38,67,44,313,36,1*74

1612351983721,$GLGSV,3,3,10,84,07,005,,68,00,000,,1*79

1612351983721,$GBGSV,3,1,11,37,33,066,36,36,31,258,37,28,17,068,41,22,30,307,34,1*7E

1612351983721,$GBGSV,3,2,11,20,21,182,29,19,49,237,35,10,23,050,38,05,18,123,33,1*71

1612351983721,$GBGSV,3,3,11,02,02,102,,07,02,045,,27,12,120,,1*44

1612351983736,$GNGSA,A,3,12,13,14,15,17,19,20,24,28,30,,,0.9,0.6,0.7,1*3A

1612351983736,$GNGSA,A,3,65,66,67,76,85,,,,,,,,0.9,0.6,0.7,2*34

1612351983736,$GNGSA,A,3,05,10,19,20,28,36,37,,,,,,0.9,0.6,0.7,4*39

1612351983736,$GNVTG,,T,,M,0.0,N,0.0,K,A*3D

1612351983736,$GNDTM,P90,,0000.000026,S,00000.000000,E,0.978,W84*5C

1612351983736,$GNRMC,113304.00,A,4540.364729,N,01156.021324,E,0.0,,030221,0.6,E,A,V*72

1612351983736,$GNGNS,113304.00,4540.364729,N,01156.021324,E,AANA,22,0.6,37.7,46.0,,,V*13

1612351983736,$GNGGA,113304.00,4540.364729,N,01156.021324,E,1,12,0.6,37.7,M,46.0,M,,*4F

1612351984726,$GPGSV,4,1,13,05,06,195,17,10,08,327,14,12,12,216,23,13,63,140,39,1*6D

1612351984726,$GPGSV,4,2,13,14,35,050,34,15,68,270,34,17,32,104,44,19,23,130,43,1*67

1612351984726,$GPGSV,4,3,13,20,21,296,29,24,42,284,28,28,43,052,41,30,11,084,25,1*65

1612351984726,$GPGSV,4,4,13,23,24,300,,1*52

1612351984726,$GLGSV,3,1,10,66,60,209,26,86,06,106,21,77,40,260,21,76,68,002,27,1*75

1612351984726,$GLGSV,3,2,10,75,00,000,43,65,06,168,33,85,17,060,38,67,44,313,35,1*77

1612351984726,$GLGSV,3,3,10,84,07,005,,68,00,000,,1*79

1612351984726,$GBGSV,3,1,11,37,33,066,36,36,31,258,37,28,17,068,40,22,30,307,33,1*78

1612351984726,$GBGSV,3,2,11,20,21,182,29,19,49,237,34,10,23,050,38,05,18,123,32,1*71

1612351984726,$GBGSV,3,3,11,02,02,102,,07,02,045,,27,12,120,,1*44

1612351984739,$GNGSA,A,3,12,13,14,15,17,19,20,24,28,30,,,0.9,0.6,0.7,1*3A

1612351984739,$GNGSA,A,3,65,66,67,76,85,,,,,,,,0.9,0.6,0.7,2*34

1612351984739,$GNGSA,A,3,05,10,19,20,28,36,37,,,,,,0.9,0.6,0.7,4*39

1612351984739,$GNVTG,,T,,M,0.0,N,0.0,K,A*3D

1612351984739,$GNDTM,P90,,0000.000026,S,00000.000000,E,0.978,W84*5C

1612351984739,$GNRMC,113305.00,A,4540.364730,N,01156.021324,E,0.0,,030221,0.6,E,A,V*7B

1612351984739,$GNGNS,113305.00,4540.364730,N,01156.021324,E,AANA,22,0.6,37.7,46.0,,,V*1A

1612351984739,$GNGGA,113305.00,4540.364730,N,01156.021324,E,1,12,0.6,37.7,M,46.0,M,,*46

1612351985723,$GPGSV,4,1,13,05,06,195,17,10,08,327,14,12,12,216,23,13,63,140,39,1*6D

1612351985723,$GPGSV,4,2,13,14,35,050,34,15,68,270,34,17,32,104,44,19,23,130,43,1*67

1612351985723,$GPGSV,4,3,13,20,21,296,28,24,42,284,30,28,43,052,41,30,11,084,23,1*6B

1612351985723,$GPGSV,4,4,13,23,24,300,,1*52

1612351985723,$GLGSV,3,1,10,66,60,209,26,86,06,106,21,77,40,260,21,76,68,002,28,1*7A

1612351985723,$GLGSV,3,2,10,75,00,000,43,65,06,168,32,85,17,060,38,67,44,313,35,1*76

1612351985723,$GLGSV,3,3,10,84,07,005,,68,00,000,,1*79

1612351985723,$GBGSV,3,1,11,37,33,066,36,36,31,258,37,28,17,068,41,22,30,307,34,1*7E

1612351985723,$GBGSV,3,2,11,20,21,182,30,19,49,237,34,10,23,050,38,05,18,123,32,1*79

1612351985723,$GBGSV,3,3,11,02,02,102,,07,02,045,,27,12,120,,1*44

1612351985741,$GNGSA,A,3,12,13,14,15,17,19,20,24,28,30,,,0.9,0.6,0.7,1*3A

1612351985741,$GNGSA,A,3,65,66,67,76,85,,,,,,,,0.9,0.6,0.7,2*34

1612351985741,$GNGSA,A,3,05,10,19,20,28,36,37,,,,,,0.9,0.6,0.7,4*39

1612351985741,$GNVTG,,T,,M,0.0,N,0.0,K,A*3D

1612351985741,$GNDTM,P90,,0000.000026,S,00000.000000,E,0.978,W84*5C

1612351985741,$GNRMC,113306.00,A,4540.364729,N,01156.021324,E,0.0,,030221,0.6,E,A,V*70

1612351985741,$GNGNS,113306.00,4540.364729,N,01156.021324,E,AANA,22,0.6,37.7,46.0,,,V*11

1612351985741,$GNGGA,113306.00,4540.364729,N,01156.021324,E,1,12,0.6,37.7,M,46.0,M,,*4D

1612351986726,$GPGSV,4,1,13,05,06,195,17,10,08,327,14,12,12,216,23,13,63,140,39,1*6D

1612351986726,$GPGSV,4,2,13,14,35,050,34,15,68,270,34,17,32,104,44,19,23,130,44,1*60

1612351986726,$GPGSV,4,3,13,20,21,296,28,24,42,284,30,28,43,052,41,30,11,084,25,1*6D

1612351986726,$GPGSV,4,4,13,23,24,300,,1*52

1612351986726,$GLGSV,3,1,10,66,60,209,26,86,06,106,21,77,40,260,17,76,68,002,26,1*71

1612351986726,$GLGSV,3,2,10,75,00,000,42,65,06,168,31,85,17,060,38,67,44,313,35,1*74

1612351986726,$GLGSV,3,3,10,84,07,005,,68,00,000,,1*79

1612351986726,$GBGSV,3,1,11,37,33,066,36,36,31,258,37,28,17,068,41,22,30,307,34,1*7E

1612351986726,$GBGSV,3,2,11,20,21,182,30,19,49,237,34,10,23,050,38,05,18,123,32,1*79

1612351986726,$GBGSV,3,3,11,02,02,102,,07,02,045,,27,12,120,,1*44

1612351986745,$GNGSA,A,3,12,13,14,15,17,19,20,24,28,30,,,0.9,0.6,0.7,1*3A

1612351986745,$GNGSA,A,3,65,66,67,76,85,,,,,,,,0.9,0.6,0.7,2*34

1612351986745,$GNGSA,A,3,05,10,19,20,28,36,37,,,,,,0.9,0.6,0.7,4*39

1612351986745,$GNVTG,,T,,M,0.0,N,0.0,K,A*3D

1612351986745,$GNDTM,P90,,0000.000026,S,00000.000000,E,0.978,W84*5C

1612351986745,$GNRMC,113307.00,A,4540.364728,N,01156.021324,E,0.0,,030221,0.6,E,A,V*70

1612351986745,$GNGNS,113307.00,4540.364728,N,01156.021324,E,AANA,22,0.6,37.8,46.0,,,V*1E

1612351986745,$GNGGA,113307.00,4540.364728,N,01156.021324,E,1,12,0.6,37.8,M,46.0,M,,*42

1612351987725,$GPGSV,4,1,13,05,06,195,17,10,08,327,14,12,12,216,24,13,63,140,39,1*6A

1612351987725,$GPGSV,4,2,13,14,35,050,33,15,68,270,35,17,32,104,44,19,23,130,43,1*61

1612351987725,$GPGSV,4,3,13,20,21,296,29,24,42,284,32,28,43,052,41,30,11,084,25,1*6E

1612351987725,$GPGSV,4,4,13,23,24,300,,1*52

1612351987725,$GLGSV,3,1,10,66,60,209,27,86,06,106,21,77,40,260,17,76,68,002,26,1*70

1612351987725,$GLGSV,3,2,10,75,00,000,42,65,06,168,31,85,17,060,38,67,44,313,36,1*77

1612351987725,$GLGSV,3,3,10,84,07,005,,68,00,000,,1*79

1612351987725,$GBGSV,3,1,11,37,33,066,36,36,31,258,37,28,17,068,41,22,30,307,33,1*79

1612351987725,$GBGSV,3,2,11,20,21,182,30,19,49,237,35,10,23,050,39,05,18,123,33,1*78

1612351987725,$GBGSV,3,3,11,02,02,102,,07,02,045,,27,12,120,,1*44

1612351987744,$GNGSA,A,3,12,13,14,15,17,19,20,24,28,30,,,0.9,0.6,0.7,1*3A

1612351987744,$GNGSA,A,3,65,66,67,76,85,,,,,,,,0.9,0.6,0.7,2*34

1612351987744,$GNGSA,A,3,05,10,19,20,28,36,37,,,,,,0.9,0.6,0.7,4*39

1612351987744,$GNVTG,,T,,M,0.0,N,0.0,K,A*3D

1612351987744,$GNDTM,P90,,0000.000026,S,00000.000000,E,0.978,W84*5C

1612351987744,$GNRMC,113308.00,A,4540.364726,N,01156.021326,E,0.0,,030221,0.6,E,A,V*73

1612351987744,$GNGNS,113308.00,4540.364726,N,01156.021326,E,AANA,22,0.6,37.8,46.0,,,V*1D

1612351987744,$GNGGA,113308.00,4540.364726,N,01156.021326,E,1,12,0.6,37.8,M,46.0,M,,*41

1612351988722,$GPGSV,4,1,13,05,06,195,17,10,08,327,14,12,12,216,22,13,63,140,38,1*6D

1612351988722,$GPGSV,4,2,13,14,35,050,33,15,68,270,35,17,32,104,44,19,23,130,43,1*61

1612351988722,$GPGSV,4,3,13,20,21,296,29,24,42,284,32,28,43,052,41,30,11,084,25,1*6E

1612351988722,$GPGSV,4,4,13,23,24,300,,1*52

1612351988722,$GLGSV,3,1,10,66,60,209,27,86,06,106,18,77,40,260,17,76,68,002,25,1*79

1612351988722,$GLGSV,3,2,10,75,00,000,42,65,06,168,31,85,17,060,38,67,44,313,35,1*74

1612351988722,$GLGSV,3,3,10,84,07,005,,68,00,000,,1*79

1612351988722,$GBGSV,3,1,11,37,33,066,35,36,31,258,37,28,17,068,41,22,30,307,34,1*7D

1612351988722,$GBGSV,3,2,11,20,21,182,31,19,49,237,34,10,23,050,39,05,18,123,32,1*79

1612351988722,$GBGSV,3,3,11,02,02,102,,07,02,045,,27,12,120,,1*44

1612351988739,$GNGSA,A,3,12,13,14,15,17,19,20,24,28,30,,,0.9,0.6,0.7,1*3A

1612351988739,$GNGSA,A,3,65,66,67,76,85,,,,,,,,0.9,0.6,0.7,2*34

1612351988739,$GNGSA,A,3,05,10,19,20,28,36,37,,,,,,0.9,0.6,0.7,4*39

1612351988739,$GNVTG,,T,,M,0.0,N,0.0,K,A*3D

1612351988739,$GNDTM,P90,,0000.000026,S,00000.000000,E,0.978,W84*5C

1612351988739,$GNRMC,113309.00,A,4540.364725,N,01156.021327,E,0.0,,030221,0.6,E,A,V*70

1612351988739,$GNGNS,113309.00,4540.364725,N,01156.021327,E,AANA,22,0.6,37.8,46.0,,,V*1E

1612351988739,$GNGGA,113309.00,4540.364725,N,01156.021327,E,1,12,0.6,37.8,M,46.0,M,,*42

1612351989722,$GPGSV,4,1,13,10,08,327,14,12,12,216,22,13,63,140,38,14,35,050,33,1*63

1612351989722,$GPGSV,4,2,13,15,68,270,35,17,32,104,44,19,23,130,43,20,21,296,29,1*60

1612351989722,$GPGSV,4,3,13,24,42,284,33,28,43,052,41,30,11,084,24,05,06,195,,1*67

