# 2021 01 26 13:48:06
#
# Version: 10 Manufacturer: samsung Make: SM-A515F
#
1611665286000,$GPGGA,124807.000,4540.3698,N,01156.0175,E,1,22,0.6,35.9,M,47.1,M,,*6E

1611665286000,$PSAMSA,124807.000,4540.3698,N,01156.0175,E,0,M,,*60

1611665286000,$GPGLL,4540.3698,N,01156.0175,E,124807.000,A,A*50

1611665286000,$GPVTG,292.1,T,,M,0.0,N,0.0,K,A*05

1611665286000,$GPGSV,3,1,10,10,16,313,36,12,31,226,43,13,42,151,36,15,64,215,42*7A

1611665286000,$GPGSV,3,2,10,17,40,080,42,19,39,113,38,20,17,277,46,23,23,280,41*74

1611665286000,$GPGSV,3,3,10,24,60,299,41,28,26,050,38*7F

1611665286000,$GLGSV,2,1,06,66,36,198,31,67,55,280,46,76,51,039,43,77,55,290,36*68

1611665286000,$GLGSV,2,2,06,78,08,259,42,85,20,038,36*6D

1611665286000,$GAGSV,2,1,05,102,63,049,41,107,52,289,40,108,51,191,39,127,07,242,23*6E

1611665286000,$GAGSV,2,2,05,130,60,249,43*61

1611665286000,$BDGSV,2,1,06,205,19,124,35,221,39,279,44,222,31,213,31,227,16,045,34*60

1611665286000,$BDGSV,2,2,06,230,28,099,42,236,64,058,42*6D

1611665286000,$GPGSA,A,3,15,24,17,19,12,28,20,10,,,,,1.0,0.6,0.8*3B

1611665286000,$GNGSA,A,3,66,67,76,77,78,85,,,,,,,1.0,0.6,0.8*21

1611665286000,$GAGSA,A,3,102,107,108,130,,,,,,,,,1.0,0.6,0.8*22

1611665286000,$BDGSA,A,3,205,222,230,236,,,,,,,,,1.0,0.6,0.8*2F

1611665286000,$GPRMC,124807.000,A,4540.3698,N,01156.0175,E,0.0,292.1,260121,,,A*69

1611665286000,$PSAMCLK,2142,21890500,22,9738899,2163824,218905000*7B

1611665286000,$PSAMCLK,2142,21890500,22,9738899,2163824,218905000*7B

1611665287000,$GPGGA,124808.000,4540.3699,N,01156.0176,E,1,24,0.4,36.2,M,47.1,M,,*6F

1611665287000,$PSAMSA,124808.000,4540.3699,N,01156.0176,E,0,M,,*6D

1611665287000,$GPGLL,4540.3699,N,01156.0176,E,124808.000,A,A*5D

1611665287000,$GPVTG,288.3,T,,M,0.3,N,0.5,K,A*0A

1611665287000,$GPGSV,3,1,10,10,16,313,36,12,31,226,44,13,42,151,36,15,64,215,42*7D

1611665287000,$GPGSV,3,2,10,17,40,080,42,19,39,113,38,20,17,277,45,23,23,280,40*76

1611665287000,$GPGSV,3,3,10,24,60,299,41,28,26,050,38*7F

1611665287000,$GLGSV,2,1,06,66,36,198,31,67,55,280,46,76,51,039,42,77,55,290,36*69

1611665287000,$GLGSV,2,2,06,78,08,259,42,85,20,038,36*6D

1611665287000,$GAGSV,2,1,05,102,63,049,40,107,52,289,40,108,51,191,39,127,07,242,23*6F

1611665287000,$GAGSV,2,2,05,130,60,249,43*61

1611665287000,$BDGSV,2,1,06,205,19,124,35,221,39,279,44,222,31,213,31,227,16,045,33*67

1611665287000,$BDGSV,2,2,06,230,28,099,42,236,64,058,41*6E

1611665287000,$GPGSA,A,3,15,24,13,17,19,12,28,20,10,,,,1.0,0.4,0.8*3B

1611665287000,$GNGSA,A,3,66,67,76,77,78,85,,,,,,,1.0,0.4,0.8*23

1611665287000,$GAGSA,A,3,102,107,108,127,130,,,,,,,,1.0,0.4,0.8*14

1611665287000,$BDGSA,A,3,205,222,230,236,,,,,,,,,1.0,0.4,0.8*2D

1611665287000,$GPRMC,124808.000,A,4540.3699,N,01156.0176,E,0.3,288.3,260121,,,A*6E

1611665287000,$PSAMCLK,2142,21890600,24,9738889,2225640,218906000*71

1611665287000,$PSAMCLK,2142,21890600,24,9738889,2225640,218906000*71

1611665288000,$GPGGA,124809.000,4540.3698,N,01156.0174,E,1,23,0.4,36.4,M,47.1,M,,*6C

1611665288000,$PSAMSA,124809.000,4540.3698,N,01156.0174,E,0,M,,*6F

1611665288000,$GPGLL,4540.3698,N,01156.0174,E,124809.000,A,A*5F

1611665288000,$GPVTG,288.0,T,,M,1.1,N,2.1,K,A*0C

1611665288000,$GPGSV,3,1,10,10,16,313,35,12,31,226,44,13,42,151,36,15,64,215,42*7E

1611665288000,$GPGSV,3,2,10,17,40,080,41,19,39,113,38,20,17,277,45,23,23,280,40*75

1611665288000,$GPGSV,3,3,10,24,60,299,41,28,26,050,37*70

1611665288000,$GLGSV,2,1,06,66,36,198,31,67,55,280,45,76,51,039,42,77,55,290,36*6A

1611665288000,$GLGSV,2,2,06,78,08,259,42,85,20,038,35*6E

1611665288000,$GAGSV,2,1,05,102,63,049,40,107,52,289,41,108,51,191,39,127,07,242,23*6E

1611665288000,$GAGSV,2,2,05,130,60,249,43*61

1611665288000,$BDGSV,2,1,06,205,19,124,35,221,39,279,43,222,31,213,31,227,16,045,33*60

1611665288000,$BDGSV,2,2,06,230,28,099,42,236,64,058,41*6E

1611665288000,$GPGSA,A,3,15,24,13,17,19,12,28,20,10,,,,1.0,0.4,0.8*3B

1611665288000,$GNGSA,A,3,66,67,76,77,85,,,,,,,,1.0,0.4,0.8*2C

1611665288000,$GAGSA,A,3,102,107,108,127,130,,,,,,,,1.0,0.4,0.8*14

1611665288000,$BDGSA,A,3,205,222,230,236,,,,,,,,,1.0,0.4,0.8*2D

1611665288000,$GPRMC,124809.000,A,4540.3698,N,01156.0174,E,1.1,288.0,260121,,,A*6C

1611665288000,$PSAMCLK,2142,21890700,23,9738714,2287454,218907000*72

1611665288000,$PSAMCLK,2142,21890700,23,9738714,2287454,218907000*72

1611665289000,$GPGGA,124810.000,4540.3698,N,01156.0174,E,1,20,0.6,36.4,M,47.1,M,,*65

1611665289000,$PSAMSA,124810.000,4540.3698,N,01156.0174,E,1,M,,*66

1611665289000,$GPGLL,4540.3698,N,01156.0174,E,124810.000,A,A*57

1611665289000,$GPVTG,285.7,T,,M,0.0,N,0.0,K,A*05

1611665289000,$GPGSV,3,1,10,10,16,313,35,12,31,226,44,13,42,151,35,15,64,215,42*7D

1611665289000,$GPGSV,3,2,10,17,40,080,41,19,39,113,38,20,17,277,44,23,23,280,39*7A

1611665289000,$GPGSV,3,3,10,24,60,299,41,28,26,050,36*71

1611665289000,$GLGSV,2,1,06,66,36,198,31,67,55,280,45,76,51,039,41,77,55,290,35*6A

1611665289000,$GLGSV,2,2,06,78,08,259,40,85,20,038,34*6D

1611665289000,$GAGSV,2,1,05,102,63,049,40,107,52,289,41,108,51,191,39,127,07,242,23*6E

1611665289000,$GAGSV,2,2,05,130,60,249,43*61

1611665289000,$BDGSV,2,1,07,205,19,124,35,210,18,053,40,221,39,279,43,222,31,213,29*61

1611665289000,$BDGSV,2,2,07,227,16,045,32,230,28,099,41,236,64,058,41*6C

1611665289000,$GPGSA,A,3,15,24,13,17,19,12,20,10,,,,,1.2,0.6,1.0*38

1611665289000,$GNGSA,A,3,66,67,76,77,,,,,,,,,1.2,0.6,1.0*28

1611665289000,$GAGSA,A,3,102,107,108,130,,,,,,,,,1.2,0.6,1.0*29

1611665289000,$BDGSA,A,3,205,221,230,236,,,,,,,,,1.2,0.6,1.0*27

1611665289000,$GPRMC,124810.000,A,4540.3698,N,01156.0174,E,0.0,285.7,260121,,,A*6E

1611665289000,$PSAMCLK,2142,21890800,20,9738601,2349270,218908000*77

1611665289000,$PSAMCLK,2142,21890800,20,9738601,2349270,218908000*77

1611665290000,$GPGGA,124811.000,4540.3699,N,01156.0178,E,1,21,0.6,36.7,M,47.1,M,,*6B

1611665290000,$PSAMSA,124811.000,4540.3699,N,01156.0178,E,0,M,,*6B

1611665290000,$GPGLL,4540.3699,N,01156.0178,E,124811.000,A,A*5B

1611665290000,$GPVTG,284.2,T,,M,0.0,N,0.1,K,A*00

1611665290000,$GPGSV,3,1,10,10,16,313,35,12,31,226,44,13,42,151,35,15,64,215,42*7D

1611665290000,$GPGSV,3,2,10,17,40,080,40,19,39,113,38,20,17,277,43,23,23,280,39*7C

1611665290000,$GPGSV,3,3,10,24,60,299,40,28,26,050,34*72

1611665290000,$GLGSV,2,1,07,66,36,198,31,67,55,280,45,68,19,331,21,76,51,039,41*62

1611665290000,$GLGSV,2,2,07,77,55,290,35,78,08,259,39,85,20,038,32*59

1611665290000,$GAGSV,2,1,05,102,63,049,40,107,52,289,41,108,51,191,38,127,07,242,23*6F

1611665290000,$GAGSV,2,2,05,130,60,249,43*61

1611665290000,$BDGSV,2,1,07,205,19,124,35,210,18,053,40,221,39,279,43,222,31,213,28*60

1611665290000,$BDGSV,2,2,07,227,16,045,32,230,28,099,40,236,64,058,40*6C

1611665290000,$GPGSA,A,3,15,24,13,19,12,20,10,,,,,,1.0,0.6,0.8*35

1611665290000,$GNGSA,A,3,66,67,76,77,,,,,,,,,1.0,0.6,0.8*23

1611665290000,$GAGSA,A,3,102,107,108,127,130,,,,,,,,1.0,0.6,0.8*16

1611665290000,$BDGSA,A,3,205,210,221,230,236,,,,,,,,1.0,0.6,0.8*1F

1611665290000,$GPRMC,124811.000,A,4540.3699,N,01156.0178,E,0.0,284.2,260121,,,A*66

1611665290000,$PSAMCLK,2142,21890900,21,9738428,2411082,218909000*7A

1611665290000,$PSAMCLK,2142,21890900,21,9738428,2411082,218909000*7A

1611665291000,$GPGGA,124812.000,4540.3698,N,01156.0179,E,1,23,0.4,36.5,M,47.1,M,,*6A

1611665291000,$PSAMSA,124812.000,4540.3698,N,01156.0179,E,0,M,,*68

1611665291000,$GPGLL,4540.3698,N,01156.0179,E,124812.000,A,A*58

1611665291000,$GPVTG,285.4,T,,M,0.0,N,0.0,K,A*06

1611665291000,$GPGSV,3,1,10,10,16,313,34,12,31,226,43,13,42,151,38,15,64,215,41*75

1611665291000,$GPGSV,3,2,10,17,40,080,38,19,39,113,38,20,17,277,42,23,23,280,37*7C

1611665291000,$GPGSV,3,3,10,24,60,299,40,28,26,050,33*75

1611665291000,$GLGSV,2,1,07,66,36,198,31,67,55,280,44,68,19,331,21,76,51,039,40*62

1611665291000,$GLGSV,2,2,07,77,55,290,34,78,08,259,37,85,20,038,31*55

1611665291000,$GAGSV,2,1,05,102,63,049,40,107,52,289,40,108,51,191,38,127,07,242,23*6E

1611665291000,$GAGSV,2,2,05,130,60,249,42*60

1611665291000,$BDGSV,2,1,07,205,19,124,35,210,18,053,39,221,39,279,41,222,31,213,26*62

1611665291000,$BDGSV,2,2,07,227,16,045,31,230,28,099,40,236,64,058,40*6F

1611665291000,$GPGSA,A,3,15,24,13,19,12,23,20,10,,,,,1.0,0.4,0.8*36

1611665291000,$GNGSA,A,3,66,67,76,77,,,,,,,,,1.0,0.4,0.8*21

1611665291000,$GAGSA,A,3,102,107,108,127,130,,,,,,,,1.0,0.4,0.8*14

1611665291000,$BDGSA,A,3,205,210,221,227,230,236,,,,,,,1.0,0.4,0.8*2A

1611665291000,$GPRMC,124812.000,A,4540.3698,N,01156.0179,E,0.0,285.4,260121,,,A*62

1611665291000,$PSAMCLK,2142,21891000,23,9737903,2472893,218910000*7E

1611665291000,$PSAMCLK,2142,21891000,23,9737903,2472893,218910000*7E

1611665292000,$GPGGA,124813.000,4540.3698,N,01156.0179,E,1,23,0.4,36.5,M,47.1,M,,*6B

1611665292000,$PSAMSA,124813.000,4540.3698,N,01156.0179,E,1,M,,*68

1611665292000,$GPGLL,4540.3698,N,01156.0179,E,124813.000,A,A*59

1611665292000,$GPVTG,286.0,T,,M,0.0,N,0.0,K,A*01

1611665292000,$GPGSV,3,1,10,10,16,313,34,12,31,226,42,13,42,151,42,15,64,215,41*79

1611665292000,$GPGSV,3,2,10,17,40,080,37,19,39,113,38,20,17,277,41,23,23,280,36*71

1611665292000,$GPGSV,3,3,10,24,60,299,39,28,26,050,31*79

1611665292000,$GLGSV,2,1,07,66,36,198,31,67,55,280,44,68,19,331,22,76,51,039,39*6F

1611665292000,$GLGSV,2,2,07,77,55,290,33,78,08,259,36,85,20,038,29*5A

1611665292000,$GAGSV,2,1,05,102,63,049,39,107,52,289,40,108,51,191,38,127,07,242,23*60

1611665292000,$GAGSV,2,2,05,130,60,249,42*60

1611665292000,$BDGSV,2,1,07,205,19,124,34,210,18,053,38,221,39,279,40,222,31,213,25*60

1611665292000,$BDGSV,2,2,07,227,16,045,30,230,28,099,39,236,64,058,39*6E

1611665292000,$GPGSA,A,3,15,24,13,17,19,12,20,10,,,,,1.0,0.4,0.8*31

1611665292000,$GNGSA,A,3,66,67,68,76,77,,,,,,,,1.0,0.4,0.8*2F

1611665292000,$GAGSA,A,3,102,107,108,127,130,,,,,,,,1.0,0.4,0.8*14

1611665292000,$BDGSA,A,3,205,221,227,230,236,,,,,,,,1.0,0.4,0.8*19

1611665292000,$GPRMC,124813.000,A,4540.3698,N,01156.0179,E,0.0,286.0,260121,,,A*64

1611665292000,$PSAMCLK,2142,21891100,23,9737804,2534704,218911000*7A

1611665292000,$PSAMCLK,2142,21891100,23,9737804,2534704,218911000*7A

1611665293000,$GPGGA,124814.000,4540.3698,N,01156.0179,E,1,23,0.4,36.5,M,47.1,M,,*6C

1611665293000,$PSAMSA,124814.000,4540.3698,N,01156.0179,E,0,M,,*6E

1611665293000,$GPGLL,4540.3698,N,01156.0179,E,124814.000,A,A*5E

1611665293000,$GPVTG,286.4,T,,M,0.0,N,0.0,K,A*05

1611665293000,$GPGSV,3,1,10,10,16,313,34,12,31,226,42,13,42,151,42,15,64,215,41*79

1611665293000,$GPGSV,3,2,10,17,40,080,36,19,39,113,38,20,17,277,39,23,23,280,36*7F

1611665293000,$GPGSV,3,3,10,24,60,299,38,28,26,050,30*79

1611665293000,$GLGSV,2,1,07,66,36,198,31,67,55,280,43,68,19,331,22,76,51,039,38*69

1611665293000,$GLGSV,2,2,07,77,55,290,33,78,08,259,34,85,20,038,28*59

1611665293000,$GAGSV,2,1,05,102,63,049,39,107,52,289,39,108,51,191,38,127,07,242,23*6E

1611665293000,$GAGSV,2,2,05,130,60,249,41*63

1611665293000,$BDGSV,2,1,07,205,19,124,34,210,18,053,37,221,39,279,40,222,31,213,23*69

1611665293000,$BDGSV,2,2,07,227,16,045,29,230,28,099,39,236,64,058,38*67

1611665293000,$GPGSA,A,3,15,24,13,17,19,12,20,10,,,,,1.0,0.4,0.8*31

1611665293000,$GNGSA,A,3,66,67,76,77,,,,,,,,,1.0,0.4,0.8*21

1611665293000,$GAGSA,A,3,102,107,108,127,130,,,,,,,,1.0,0.4,0.8*14

1611665293000,$BDGSA,A,3,205,210,221,227,230,236,,,,,,,1.0,0.4,0.8*2A

1611665293000,$GPRMC,124814.000,A,4540.3698,N,01156.0179,E,0.0,286.4,260121,,,A*67

1611665293000,$PSAMCLK,2142,21891200,23,9737443,2596509,218912000*72

1611665293000,$PSAMCLK,2142,21891200,23,9737443,2596509,218912000*72

1611665294000,$GPGGA,124815.000,4540.3698,N,01156.0179,E,1,23,0.4,36.5,M,47.1,M,,*6D

1611665294000,$PSAMSA,124815.000,4540.3698,N,01156.0179,E,1,M,,*6E

1611665294000,$GPGLL,4540.3698,N,01156.0179,E,124815.000,A,A*5F

1611665294000,$GPVTG,286.5,T,,M,0.0,N,0.0,K,A*04

1611665294000,$GPGSV,3,1,10,10,16,313,33,12,31,226,42,13,42,151,42,15,64,215,41*7E

1611665294000,$GPGSV,3,2,10,17,40,080,35,19,39,113,38,20,17,277,38,23,23,280,35*7E

1611665294000,$GPGSV,3,3,10,24,60,299,38,28,26,050,28*70

1611665294000,$GLGSV,2,1,07,66,36,198,30,67,55,280,43,68,19,331,22,76,51,039,37*67

1611665294000,$GLGSV,2,2,07,77,55,290,32,78,08,259,33,85,20,038,26*51

1611665294000,$GAGSV,2,1,05,102,63,049,39,107,52,289,39,108,51,191,38,127,07,242,23*6E

1611665294000,$GAGSV,2,2,05,130,60,249,41*63

1611665294000,$BDGSV,2,1,07,205,19,124,34,210,18,053,36,221,39,279,39,222,31,213,22*67

1611665294000,$BDGSV,2,2,07,227,16,045,28,230,28,099,38,236,64,058,38*67

1611665294000,$GPGSA,A,3,15,24,13,17,19,12,20,10,,,,,1.0,0.4,0.8*31

1611665294000,$GNGSA,A,3,66,67,68,76,,,,,,,,,1.0,0.4,0.8*2F

1611665294000,$GAGSA,A,3,102,107,108,127,130,,,,,,,,1.0,0.4,0.8*14

1611665294000,$BDGSA,A,3,205,210,221,227,230,236,,,,,,,1.0,0.4,0.8*2A

1611665294000,$GPRMC,124815.000,A,4540.3698,N,01156.0179,E,0.0,286.5,260121,,,A*67

1611665294000,$PSAMCLK,2142,21891300,23,9737406,2658317,218913000*7B

1611665294000,$PSAMCLK,2142,21891300,23,9737406,2658317,218913000*7B

1611665295000,$GPGGA,124816.000,4540.3698,N,01156.0179,E,1,24,0.4,36.5,M,47.1,M,,*69

1611665295000,$PSAMSA,124816.000,4540.3698,N,01156.0179,E,1,M,,*6D

1611665295000,$GPGLL,4540.3698,N,01156.0179,E,124816.000,A,A*5C

1611665295000,$GPVTG,286.6,T,,M,0.0,N,0.0,K,A*07

1611665295000,$GPGSV,3,1,10,10,16,313,33,12,31,226,41,13,42,151,42,15,64,215,40*7C

1611665295000,$GPGSV,3,2,10,17,40,080,34,19,39,113,38,20,17,277,37,23,23,280,34*71

1611665295000,$GPGSV,3,3,10,24,60,299,37,28,26,050,27*70

1611665295000,$GLGSV,2,1,07,66,36,198,30,67,55,280,42,68,19,331,22,76,51,039,37*66

1611665295000,$GLGSV,2,2,07,77,55,290,31,78,08,259,31,85,20,038,25*53

1611665295000,$GAGSV,2,1,05,102,63,049,39,107,52,289,38,108,51,191,38,127,07,242,23*6F

1611665295000,$GAGSV,2,2,05,130,60,249,40*62

1611665295000,$BDGSV,2,1,07,205,19,124,34,210,18,053,35,221,39,279,38,222,31,213,20*67

1611665295000,$BDGSV,2,2,07,227,16,045,27,230,28,099,38,236,64,058,37*67

1611665295000,$GPGSA,A,3,15,24,13,17,19,12,20,10,,,,,1.0,0.4,0.8*31

1611665295000,$GNGSA,A,3,66,67,68,76,77,,,,,,,,1.0,0.4,0.8*2F

1611665295000,$GAGSA,A,3,102,107,108,127,130,,,,,,,,1.0,0.4,0.8*14

1611665295000,$BDGSA,A,3,205,210,221,227,230,236,,,,,,,1.0,0.4,0.8*2A

1611665295000,$GPRMC,124816.000,A,4540.3698,N,01156.0179,E,0.0,286.6,260121,,,A*67

1611665295000,$PSAMCLK,2142,21891400,24,9737425,2720125,218914000*70

1611665295000,$PSAMCLK,2142,21891400,24,9737425,2720125,218914000*70

1611665296000,$GPGGA,124817.000,4540.3698,N,01156.0179,E,1,22,0.6,36.5,M,47.1,M,,*6C

1611665296000,$PSAMSA,124817.000,4540.3698,N,01156.0179,E,1,M,,*6C

1611665296000,$GPGLL,4540.3698,N,01156.0179,E,124817.000,A,A*5D

1611665296000,$GPVTG,286.7,T,,M,0.0,N,0.0,K,A*06

1611665296000,$GPGSV,3,1,10,10,16,313,33,12,31,226,41,13,42,151,42,15,64,215,40*7C

1611665296000,$GPGSV,3,2,10,17,40,080,33,19,39,113,38,20,17,277,36,23,23,280,33*70

1611665296000,$GPGSV,3,3,10,24,60,299,36,28,26,050,25*73

1611665296000,$GLGSV,2,1,07,66,36,198,30,67,55,280,42,68,19,331,22,76,51,039,36*67

1611665296000,$GLGSV,2,2,07,77,55,290,31,78,08,259,30,85,20,038,23*54

1611665296000,$GAGSV,2,1,05,102,63,049,39,107,52,289,38,108,51,191,38,127,07,242,23*6F

1611665296000,$GAGSV,2,2,05,130,60,249,40*62

1611665296000,$BDGSV,2,1,07,205,19,124,34,210,18,053,34,221,39,279,37,222,31,213,19*63

1611665296000,$BDGSV,2,2,07,227,16,045,27,230,28,099,38,236,64,058,37*67

1611665296000,$GPGSA,A,3,15,24,13,17,19,12,20,,,,,,1.0,0.6,0.8*32

1611665296000,$GNGSA,A,3,66,67,68,76,77,,,,,,,,1.0,0.6,0.8*2D

1611665296000,$GAGSA,A,3,102,107,108,127,130,,,,,,,,1.0,0.6,0.8*16

1611665296000,$BDGSA,A,3,205,221,227,230,236,,,,,,,,1.0,0.6,0.8*1B

1611665296000,$GPRMC,124817.000,A,4540.3698,N,01156.0179,E,0.0,286.7,260121,,,A*67

1611665296000,$PSAMCLK,2142,21891500,22,9737466,2781934,218915000*72

1611665296000,$PSAMCLK,2142,21891500,22,9737466,2781934,218915000*72

1611665297000,$GPGGA,124818.000,4540.3698,N,01156.0179,E,1,24,0.4,36.5,M,47.1,M,,*67

1611665297000,$PSAMSA,124818.000,4540.3698,N,01156.0179,E,1,M,,*63

1611665297000,$GPGLL,4540.3698,N,01156.0179,E,124818.000,A,A*52

1611665297000,$GPVTG,286.7,T,,M,0.0,N,0.0,K,A*06

1611665297000,$GPGSV,3,1,10,10,16,313,32,12,31,226,41,13,42,151,42,15,64,215,40*7D

1611665297000,$GPGSV,3,2,10,17,40,080,32,19,39,113,38,20,17,277,35,23,23,280,33*72

1611665297000,$GPGSV,3,3,10,24,60,299,36,28,26,050,25*73

1611665297000,$GLGSV,2,1,07,66,36,198,30,67,55,279,41,68,19,331,22,76,51,039,35*61

1611665297000,$GLGSV,2,2,07,77,56,290,30,78,08,259,29,85,20,038,22*5F

1611665297000,$GAGSV,2,1,05,102,63,049,38,107,52,289,38,108,51,191,38,127,07,242,23*6E

1611665297000,$GAGSV,2,2,05,130,60,249,39*6C

1611665297000,$BDGSV,2,1,07,205,19,124,34,210,18,053,33,221,39,279,36,222,31,213,17*6B

1611665297000,$BDGSV,2,2,07,227,16,045,26,230,28,099,37,236,64,058,36*68

1611665297000,$GPGSA,A,3,15,24,13,17,19,12,20,10,,,,,1.0,0.4,0.8*31

1611665297000,$GNGSA,A,3,66,67,68,76,77,,,,,,,,1.0,0.4,0.8*2F

1611665297000,$GAGSA,A,3,102,107,108,127,130,,,,,,,,1.0,0.4,0.8*14

1611665297000,$BDGSA,A,3,205,210,221,227,230,236,,,,,,,1.0,0.4,0.8*2A

1611665297000,$GPRMC,124818.000,A,4540.3698,N,01156.0179,E,0.0,286.7,260121,,,A*68

1611665297000,$PSAMCLK,2142,21891600,24,9737485,2843742,218916000*77

1611665297000,$PSAMCLK,2142,21891600,24,9737485,2843742,218916000*77

1611665298000,$GPGGA,124819.000,4540.3698,N,01156.0179,E,1,24,0.4,36.5,M,47.1,M,,*66

1611665298000,$PSAMSA,124819.000,4540.3698,N,01156.0179,E,1,M,,*62

1611665298000,$GPGLL,4540.3698,N,01156.0179,E,124819.000,A,A*53

1611665298000,$GPVTG,286.7,T,,M,0.0,N,0.0,K,A*06

1611665298000,$GPGSV,3,1,10,10,16,313,32,12,31,226,41,13,42,151,42,15,64,215,40*7D

1611665298000,$GPGSV,3,2,10,17,40,080,31,19,39,113,38,20,17,277,34,23,23,280,32*71

1611665298000,$GPGSV,3,3,10,24,60,299,35,28,26,050,25*70

1611665298000,$GLGSV,2,1,07,66,36,198,30,67,55,279,41,68,19,331,22,76,51,039,35*61

1611665298000,$GLGSV,2,2,07,77,56,290,30,78,08,259,28,85,20,038,20*5C

1611665298000,$GAGSV,2,1,05,102,63,049,38,107,52,289,37,108,51,191,38,127,07,242,23*61

1611665298000,$GAGSV,2,2,05,130,60,249,39*6C

1611665298000,$BDGSV,2,1,07,205,19,124,33,210,18,053,32,221,39,279,36,222,31,213,16*6C

1611665298000,$BDGSV,2,2,07,227,16,045,25,230,28,099,37,236,64,058,36*6B

1611665298000,$GPGSA,A,3,15,24,13,17,19,12,20,10,,,,,1.0,0.4,0.8*31

1611665298000,$GNGSA,A,3,66,67,68,76,77,,,,,,,,1.0,0.4,0.8*2F

1611665298000,$GAGSA,A,3,102,107,108,127,130,,,,,,,,1.0,0.4,0.8*14

1611665298000,$BDGSA,A,3,205,210,221,227,230,236,,,,,,,1.0,0.4,0.8*2A

1611665298000,$GPRMC,124819.000,A,4540.3698,N,01156.0179,E,0.0,286.7,260121,,,A*69

1611665298000,$PSAMCLK,2142,21891700,24,9737483,2905551,218917000*72

1611665298000,$PSAMCLK,2142,21891700,24,9737483,2905551,218917000*72

1611665299000,$GPGGA,124820.000,4540.3698,N,01156.0179,E,1,23,0.4,36.5,M,47.1,M,,*6B

1611665299000,$PSAMSA,124820.000,4540.3698,N,01156.0179,E,1,M,,*68

1611665299000,$GPGLL,4540.3698,N,01156.0179,E,124820.000,A,A*59

1611665299000,$GPVTG,286.7,T,,M,0.0,N,0.0,K,A*06

1611665299000,$GPGSV,3,1,10,10,16,313,32,12,31,226,40,13,42,151,42,15,64,215,40*7C

1611665299000,$GPGSV,3,2,10,17,40,080,30,19,39,113,38,20,17,277,34,23,23,280,32*70

1611665299000,$GPGSV,3,3,10,24,60,299,35,28,26,050,25*70

1611665299000,$GLGSV,2,1,07,66,36,198,30,67,55,279,40,68,19,331,22,76,51,039,35*60

1611665299000,$GLGSV,2,2,07,77,56,290,29,78,08,259,27,85,20,038,19*51

1611665299000,$GAGSV,2,1,05,102,63,049,38,107,52,289,37,108,51,191,39,127,07,242,22*61

1611665299000,$GAGSV,2,2,05,130,60,249,39*6C

1611665299000,$BDGSV,2,1,07,205,19,124,33,210,18,053,31,221,39,279,35,222,31,213,14*6E

1611665299000,$BDGSV,2,2,07,227,16,045,24,230,28,099,37,236,64,058,35*69

1611665299000,$GPGSA,A,3,15,24,13,17,19,12,20,10,,,,,1.0,0.4,0.8*31

1611665299000,$GNGSA,A,3,66,67,68,76,77,,,,,,,,1.0,0.4,0.8*2F

1611665299000,$GAGSA,A,3,102,107,108,127,130,,,,,,,,1.0,0.4,0.8*14

1611665299000,$BDGSA,A,3,205,221,227,230,236,,,,,,,,1.0,0.4,0.8*19

1611665299000,$GPRMC,124820.000,A,4540.3698,N,01156.0179,E,0.0,286.7,260121,,,A*63

1611665299000,$PSAMCLK,2142,21891800,23,9737475,2967359,218918000*76

1611665299000,$PSAMCLK,2142,21891800,23,9737475,2967359,218918000*76

1611665300000,$GPGGA,124821.000,4540.3698,N,01156.0179,E,1,24,0.4,36.5,M,47.1,M,,*6D

1611665300000,$PSAMSA,124821.000,4540.3698,N,01156.0179,E,1,M,,*69

1611665300000,$GPGLL,4540.3698,N,01156.0179,E,124821.000,A,A*58

1611665300000,$GPVTG,286.7,T,,M,0.0,N,0.0,K,A*06

1611665300000,$GPGSV,3,1,10,10,16,313,32,12,31,226,40,13,42,151,42,15,64,215,40*7C

1611665300000,$GPGSV,3,2,10,17,40,080,30,19,39,113,38,20,17,277,33,23,23,280,31*74

1611665300000,$GPGSV,3,3,10,24,60,299,35,28,26,050,24*71

1611665300000,$GLGSV,2,1,07,66,36,198,30,67,55,279,40,68,19,331,22,76,51,039,34*61

1611665300000,$GLGSV,2,2,07,77,56,290,29,78,08,259,25,85,20,038,17*5D

1611665300000,$GAGSV,2,1,05,102,63,049,38,107,52,289,37,108,51,191,39,127,07,242,22*61

1611665300000,$GAGSV,2,2,05,130,60,249,38*6D

1611665300000,$BDGSV,2,1,08,205,19,124,33,210,18,053,31,221,39,279,35,222,31,213,14*61

1611665300000,$BDGSV,2,2,08,227,16,045,24,229,11,151,29,230,28,099,37,236,64,058,35*61

1611665300000,$GPGSA,A,3,15,24,13,17,19,12,28,20,10,,,,1.0,0.4,0.8*3B

1611665300000,$GNGSA,A,3,66,67,68,76,77,,,,,,,,1.0,0.4,0.8*2F

1611665300000,$GAGSA,A,3,102,107,108,127,130,,,,,,,,1.0,0.4,0.8*14

1611665300000,$BDGSA,A,3,205,221,227,230,236,,,,,,,,1.0,0.4,0.8*19

1611665300000,$GPRMC,124821.000,A,4540.3698,N,01156.0179,E,0.0,286.7,260121,,,A*62

1611665300000,$PSAMCLK,2142,21891900,24,9737453,3029168,218919000*77

1611665300000,$PSAMCLK,2142,21891900,24,9737453,3029168,218919000*77

1611665301000,$GPGGA,124822.000,4540.3698,N,01156.0179,E,1,24,0.4,36.5,M,47.1,M,,*6E

1611665301000,$PSAMSA,124822.000,4540.3698,N,01156.0179,E,1,M,,*6A

1611665301000,$GPGLL,4540.3698,N,01156.0179,E,124822.000,A,A*5B

1611665301000,$GPVTG,286.7,T,,M,0.0,N,0.0,K,A*06

1611665301000,$GPGSV,3,1,10,10,16,313,31,12,31,226,40,13,42,151,42,15,64,215,40*7F

1611665301000,$GPGSV,3,2,10,17,40,080,29,19,39,113,38,20,17,277,32,23,23,280,31*7D

1611665301000,$GPGSV,3,3,10,24,60,299,34,28,26,050,24*70

1611665301000,$GLGSV,2,1,07,66,36,198,30,67,55,279,40,68,19,331,22,76,51,039,34*61

1611665301000,$GLGSV,2,2,07,77,56,290,29,78,08,259,24,85,20,038,16*5D

1611665301000,$GAGSV,2,1,05,102,63,049,38,107,52,289,36,108,51,191,39,127,07,242,22*60

1611665301000,$GAGSV,2,2,05,130,60,249,38*6D

1611665301000,$BDGSV,2,1,08,205,19,124,33,210,18,053,30,221,39,279,34,222,31,213,13*66

1611665301000,$BDGSV,2,2,08,227,16,045,23,229,11,151,32,230,28,099,37,236,64,058,35*6C

1611665301000,$GPGSA,A,3,15,24,13,17,19,12,28,20,10,,,,0.8,0.4,0.8*32

1611665301000,$GNGSA,A,3,66,67,68,76,77,,,,,,,,0.8,0.4,0.8*26

1611665301000,$GAGSA,A,3,102,107,108,127,130,,,,,,,,0.8,0.4,0.8*1D

1611665301000,$BDGSA,A,3,205,227,229,230,236,,,,,,,,0.8,0.4,0.8*18

1611665301000,$GPRMC,124822.000,A,4540.3698,N,01156.0179,E,0.0,286.7,260121,,,A*61

1611665301000,$PSAMCLK,2142,21892000,24,9737429,3090976,218920000*7F

1611665301000,$PSAMCLK,2142,21892000,24,9737429,3090976,218920000*7F

1611665302000,$GPGGA,124823.000,4540.3698,N,01156.0179,E,1,24,0.4,36.5,M,47.1,M,,*6F

1611665302000,$PSAMSA,124823.000,4540.3698,N,01156.0179,E,1,M,,*6B

1611665302000,$GPGLL,4540.3698,N,01156.0179,E,124823.000,A,A*5A

1611665302000,$GPVTG,286.7,T,,M,0.0,N,0.0,K,A*06

1611665302000,$GPGSV,3,1,10,10,16,313,31,12,31,226,40,13,42,151,42,15,64,215,39*71

1611665302000,$GPGSV,3,2,10,17,40,080,28,19,39,113,38,20,17,277,32,23,23,280,31*7C

1611665302000,$GPGSV,3,3,10,24,60,299,34,28,26,050,24*70

1611665302000,$GLGSV,2,1,07,66,36,198,30,67,55,279,39,68,19,331,23,76,51,039,34*6E

1611665302000,$GLGSV,2,2,07,77,56,290,28,78,08,259,22,85,20,038,14*58

1611665302000,$GAGSV,2,1,05,102,63,049,38,107,52,289,36,108,51,191,39,127,07,242,22*60

1611665302000,$GAGSV,2,2,05,130,60,249,38*6D

1611665302000,$BDGSV,2,1,08,205,19,124,33,210,18,053,29,221,39,279,34,222,31,213,12*6F

1611665302000,$BDGSV,2,2,08,227,16,045,23,229,11,151,34,230,28,099,36,236,64,058,34*6A

1611665302000,$GPGSA,A,3,15,24,13,17,19,12,28,20,10,,,,0.8,0.4,0.8*32

1611665302000,$GNGSA,A,3,66,67,68,76,77,,,,,,,,0.8,0.4,0.8*26

1611665302000,$GAGSA,A,3,102,107,108,127,130,,,,,,,,0.8,0.4,0.8*1D

1611665302000,$BDGSA,A,3,205,227,229,230,236,,,,,,,,0.8,0.4,0.8*18

1611665302000,$GPRMC,124823.000,A,4540.3698,N,01156.0179,E,0.0,286.7,260121,,,A*60

1611665302000,$PSAMCLK,2142,21892100,24,9737377,3152784,218921000*7F

1611665302000,$PSAMCLK,2142,21892100,24,9737377,3152784,218921000*7F

1611665303000,$GPGGA,124824.000,4540.3698,N,01156.0179,E,1,21,0.6,36.5,M,47.1,M,,*6F

1611665303000,$PSAMSA,124824.000,4540.3698,N,01156.0179,E,1,M,,*6C

1611665303000,$GPGLL,4540.3698,N,01156.0179,E,124824.000,A,A*5D

1611665303000,$GPVTG,286.7,T,,M,0.0,N,0.0,K,A*06

1611665303000,$GPGSV,3,1,10,10,16,313,31,12,31,226,40,13,42,151,42,15,64,215,39*71

1611665303000,$GPGSV,3,2,10,17,40,080,28,19,39,113,38,20,17,277,31,23,23,280,31*7F

1611665303000,$GPGSV,3,3,10,24,60,299,34,28,26,050,24*70

1611665303000,$GLGSV,2,1,07,66,36,198,29,67,55,279,39,68,19,331,23,76,51,039,33*61

1611665303000,$GLGSV,2,2,07,77,56,290,28,78,08,259,21,85,20,038,13*5C

1611665303000,$GAGSV,2,1,06,102,63,049,37,103,08,158,25,107,52,288,36,108,51,191,39*6B

1611665303000,$GAGSV,2,2,06,127,07,242,22,130,60,249,37*66

1611665303000,$BDGSV,2,1,07,205,19,124,33,210,18,053,29,221,39,279,34,227,16,045,21*61

1611665303000,$BDGSV,2,2,07,229,11,151,35,230,28,099,36,236,64,058,34*64

1611665303000,$GPGSA,A,3,15,24,13,17,19,12,28,20,,,,,1.2,0.6,1.0*33

1611665303000,$GNGSA,A,3,66,67,76,77,,,,,,,,,1.2,0.6,1.0*28

1611665303000,$GAGSA,A,3,102,107,108,127,130,,,,,,,,1.2,0.6,1.0*1D

1611665303000,$BDGSA,A,3,205,229,230,236,,,,,,,,,1.2,0.6,1.0*2F

1611665303000,$GPRMC,124824.000,A,4540.3698,N,01156.0179,E,0.0,286.7,260121,,,A*67

1611665303000,$PSAMCLK,2142,21892200,21,9737305,3214591,218922000*78

1611665303000,$PSAMCLK,2142,21892200,21,9737305,3214591,218922000*78

1611665304000,$GPGGA,124825.000,4540.3698,N,01156.0179,E,1,23,0.6,36.5,M,47.1,M,,*6C

1611665304000,$PSAMSA,124825.000,4540.3698,N,01156.0179,E,1,M,,*6D

1611665304000,$GPGLL,4540.3698,N,01156.0179,E,124825.000,A,A*5C

1611665304000,$GPVTG,286.7,T,,M,0.0,N,0.0,K,A*06

1611665304000,$GPGSV,3,1,10,10,16,313,31,12,31,226,40,13,42,151,42,15,64,215,39*71

1611665304000,$GPGSV,3,2,10,17,40,080,28,19,39,113,38,20,17,277,30,23,23,280,30*7F

1611665304000,$GPGSV,3,3,10,24,60,299,33,28,26,050,23*70

1611665304000,$GLGSV,2,1,07,66,36,198,29,67,55,279,39,68,19,331,23,76,51,039,33*61

1611665304000,$GLGSV,2,2,07,77,56,290,28,78,08,259,19,85,20,038,13*57

1611665304000,$GAGSV,2,1,06,102,63,049,37,103,08,158,28,107,52,288,36,108,51,191,39*66

1611665304000,$GAGSV,2,2,06,127,07,242,22,130,60,249,37*66

1611665304000,$BDGSV,2,1,07,205,19,124,33,210,18,053,28,221,39,279,33,227,16,045,20*66

1611665304000,$BDGSV,2,2,07,229,11,151,35,230,28,099,36,236,64,058,34*64

1611665304000,$GPGSA,A,3,15,24,13,17,19,12,28,20,10,,,,1.0,0.6,0.8*39

1611665304000,$GNGSA,A,3,66,67,76,77,,,,,,,,,1.0,0.6,0.8*23

1611665304000,$GAGSA,A,3,102,103,107,108,127,130,,,,,,,1.0,0.6,0.8*24

1611665304000,$BDGSA,A,3,205,221,230,236,,,,,,,,,1.0,0.6,0.8*2C

1611665304000,$GPRMC,124825.000,A,4540.3698,N,01156.0179,E,0.0,286.7,260121,,,A*66

1611665304000,$PSAMCLK,2142,21892300,23,9737230,3276398,218923000*76

1611665304000,$PSAMCLK,2142,21892300,23,9737230,3276398,218923000*76

1611665305000,$GPGGA,124826.000,4540.3698,N,01156.0179,E,1,23,0.6,36.5,M,47.1,M,,*6F

1611665305000,$PSAMSA,124826.000,4540.3698,N,01156.0179,E,1,M,,*6E

1611665305000,$GPGLL,4540.3698,N,01156.0179,E,124826.000,A,A*5F

1611665305000,$GPVTG,286.7,T,,M,0.0,N,0.0,K,A*06

1611665305000,$GPGSV,3,1,10,10,16,313,31,12,31,226,40,13,42,151,42,15,64,215,39*71

1611665305000,$GPGSV,3,2,10,17,40,080,27,19,39,113,38,20,17,277,30,23,23,280,30*70

1611665305000,$GPGSV,3,3,10,24,60,299,33,28,26,050,23*70

1611665305000,$GLGSV,2,1,07,66,36,198,29,67,55,279,38,68,19,331,23,76,51,039,33*60

1611665305000,$GLGSV,2,2,07,77,56,290,28,78,08,259,18,85,20,038,12*57

1611665305000,$GAGSV,2,1,06,102,63,049,37,103,08,158,30,107,52,288,36,108,51,191,39*6F

1611665305000,$GAGSV,2,2,06,127,07,242,21,130,60,249,37*65

1611665305000,$BDGSV,2,1,07,205,19,124,33,210,18,053,28,221,39,279,33,227,16,045,18*6D

1611665305000,$BDGSV,2,2,07,229,11,151,35,230,28,099,36,236,64,058,34*64

1611665305000,$GPGSA,A,3,15,24,13,17,19,12,28,20,10,,,,1.0,0.6,0.8*39

1611665305000,$GNGSA,A,3,66,67,76,77,,,,,,,,,1.0,0.6,0.8*23

1611665305000,$GAGSA,A,3,102,103,107,108,127,130,,,,,,,1.0,0.6,0.8*24

1611665305000,$BDGSA,A,3,205,221,230,236,,,,,,,,,1.0,0.6,0.8*2C

1611665305000,$GPRMC,124826.000,A,4540.3698,N,01156.0179,E,0.0,286.7,260121,,,A*65

1611665305000,$PSAMCLK,2142,21892400,23,9737139,3338205,218924000*72

1611665305000,$PSAMCLK,2142,21892400,23,9737139,3338205,218924000*72

1611665306000,$GPGGA,124827.000,4540.3698,N,01156.0179,E,1,22,0.6,36.5,M,47.1,M,,*6F

1611665306000,$PSAMSA,124827.000,4540.3698,N,01156.0179,E,1,M,,*6F

1611665306000,$GPGLL,4540.3698,N,01156.0179,E,124827.000,A,A*5E

1611665306000,$GPVTG,286.7,T,,M,0.0,N,0.0,K,A*06

1611665306000,$GPGSV,3,1,10,10,16,313,31,12,31,226,39,13,42,151,42,15,64,215,39*7F

1611665306000,$GPGSV,3,2,10,17,40,080,27,19,39,113,38,20,17,277,29,23,23,280,30*78

1611665306000,$GPGSV,3,3,10,24,60,299,33,28,26,050,23*70

1611665306000,$GLGSV,2,1,06,66,36,198,29,67,55,279,38,68,19,331,22,76,51,039,33*60

1611665306000,$GLGSV,2,2,06,77,56,290,27,78,08,259,16*60

1611665306000,$GAGSV,2,1,06,102,63,049,37,103,08,158,30,107,52,288,35,108,51,191,39*6C

1611665306000,$GAGSV,2,2,06,127,07,242,21,130,60,249,37*65

1611665306000,$BDGSV,2,1,07,205,19,124,32,210,18,053,27,221,39,279,33,227,16,045,17*6C

1611665306000,$BDGSV,2,2,07,229,11,151,35,230,28,099,36,236,64,058,34*64

1611665306000,$GPGSA,A,3,15,24,13,17,19,12,20,10,,,,,1.0,0.6,0.8*33

1611665306000,$GNGSA,A,3,66,67,76,77,,,,,,,,,1.0,0.6,0.8*23

1611665306000,$GAGSA,A,3,102,103,107,108,127,130,,,,,,,1.0,0.6,0.8*24

1611665306000,$BDGSA,A,3,205,221,230,236,,,,,,,,,1.0,0.6,0.8*2C

1611665306000,$GPRMC,124827.000,A,4540.3698,N,01156.0179,E,0.0,286.7,260121,,,A*64

1611665306000,$PSAMCLK,2142,21892500,22,9736987,3400011,218925000*74

1611665306000,$PSAMCLK,2142,21892500,22,9736987,3400011,218925000*74

1611665307000,$GPGGA,124828.000,4540.3698,N,01156.0179,E,1,23,0.6,36.5,M,47.1,M,,*61

1611665307000,$PSAMSA,124828.000,4540.3698,N,01156.0179,E,1,M,,*60

1611665307000,$GPGLL,4540.3698,N,01156.0179,E,124828.000,A,A*51

1611665307000,$GPVTG,286.7,T,,M,0.0,N,0.0,K,A*06

1611665307000,$GPGSV,3,1,10,10,16,313,30,12,31,226,39,13,42,151,42,15,64,215,39*7E

1611665307000,$GPGSV,3,2,10,17,40,080,27,19,39,113,38,20,17,277,29,23,23,280,30*78

1611665307000,$GPGSV,3,3,10,24,60,299,33,28,26,050,23*70

1611665307000,$GLGSV,2,1,06,66,36,198,29,67,55,279,38,68,19,331,22,76,51,039,32*61

1611665307000,$GLGSV,2,2,06,77,56,290,27,78,08,259,15*63

1611665307000,$GAGSV,2,1,06,102,63,049,37,103,08,158,30,107,52,288,35,108,51,191,39*6C

1611665307000,$GAGSV,2,2,06,127,07,242,21,130,60,249,37*65

1611665307000,$BDGSV,2,1,07,205,19,124,32,210,18,053,27,221,39,279,32,227,16,045,15*6F

1611665307000,$BDGSV,2,2,07,229,11,151,36,230,28,099,36,236,64,058,33*60

1611665307000,$GPGSA,A,3,15,24,13,17,19,12,20,10,,,,,1.0,0.6,0.8*33

1611665307000,$GNGSA,A,3,66,67,76,77,,,,,,,,,1.0,0.6,0.8*23

1611665307000,$GAGSA,A,3,102,103,107,108,127,130,,,,,,,1.0,0.6,0.8*24

1611665307000,$BDGSA,A,3,205,210,221,230,236,,,,,,,,1.0,0.6,0.8*1F

1611665307000,$GPRMC,124828.000,A,4540.3698,N,01156.0179,E,0.0,286.7,260121,,,A*6B

1611665307000,$PSAMCLK,2142,21892600,23,9736820,3461814,218926000*73

1611665307000,$PSAMCLK,2142,21892600,23,9736820,3461814,218926000*73

1611665308000,$GPGGA,124829.000,4540.3698,N,01156.0179,E,1,24,0.4,36.5,M,47.1,M,,*65

1611665308000,$PSAMSA,124829.000,4540.3698,N,01156.0179,E,1,M,,*61

1611665308000,$GPGLL,4540.3698,N,01156.0179,E,124829.000,A,A*50

1611665308000,$GPVTG,286.7,T,,M,0.0,N,0.0,K,A*06

1611665308000,$GPGSV,3,1,10,10,16,313,30,12,31,226,39,13,42,151,42,15,64,215,39*7E

1611665308000,$GPGSV,3,2,10,17,40,080,26,19,39,113,38,20,17,277,29,23,23,280,30*79

1611665308000,$GPGSV,3,3,10,24,60,299,32,28,26,050,23*71

1611665308000,$GLGSV,2,1,06,66,36,198,29,67,55,279,37,68,19,331,22,76,51,039,32*6E

1611665308000,$GLGSV,2,2,06,77,56,290,27,78,08,259,14*62

1611665308000,$GAGSV,2,1,06,102,63,049,37,103,08,158,30,107,52,288,35,108,51,191,39*6C

1611665308000,$GAGSV,2,2,06,127,07,242,21,130,60,249,36*64

1611665308000,$BDGSV,2,1,07,205,19,124,32,210,18,053,27,221,39,279,32,227,16,045,14*6E

1611665308000,$BDGSV,2,2,07,229,11,151,36,230,28,099,36,236,64,058,33*60

1611665308000,$GPGSA,A,3,15,24,13,17,19,12,20,10,,,,,0.8,0.4,0.8*38

1611665308000,$GNGSA,A,3,66,67,68,76,77,,,,,,,,0.8,0.4,0.8*26

1611665308000,$GAGSA,A,3,102,103,107,108,127,130,,,,,,,0.8,0.4,0.8*2F

1611665308000,$BDGSA,A,3,205,210,221,230,236,,,,,,,,0.8,0.4,0.8*14

1611665308000,$GPRMC,124829.000,A,4540.3698,N,01156.0179,E,0.0,286.7,260121,,,A*6A

1611665308000,$PSAMCLK,2142,21892700,24,9736648,3523618,218927000*71

1611665308000,$PSAMCLK,2142,21892700,24,9736648,3523618,218927000*71

1611665309000,$GPGGA,124830.000,4540.3698,N,01156.0179,E,1,21,0.6,36.5,M,47.1,M,,*6A

1611665309000,$PSAMSA,124830.000,4540.3698,N,01156.0179,E,1,M,,*69

1611665309000,$GPGLL,4540.3698,N,01156.0179,E,124830.000,A,A*58

1611665309000,$GPVTG,286.7,T,,M,0.0,N,0.0,K,A*06

1611665309000,$GPGSV,3,1,10,10,16,313,30,12,31,226,39,13,42,151,42,15,64,215,39*7E

1611665309000,$GPGSV,3,2,10,17,40,080,26,19,39,113,38,20,17,277,28,23,23,280,29*70

1611665309000,$GPGSV,3,3,10,24,60,299,32,28,26,050,23*71

1611665309000,$GLGSV,2,1,06,66,36,198,29,67,55,279,37,68,19,331,22,76,51,039,32*6E

1611665309000,$GLGSV,2,2,06,77,56,290,27,78,08,259,13*65

1611665309000,$GAGSV,2,1,06,102,63,049,37,103,08,158,30,107,52,288,35,108,51,191,40*62

1611665309000,$GAGSV,2,2,06,127,07,242,21,130,60,249,36*64

1611665309000,$BDGSV,2,1,07,205,19,124,32,210,18,053,26,221,39,279,32,227,16,045,13*68

1611665309000,$BDGSV,2,2,07,229,11,151,36,230,28,099,36,236,64,058,33*60

1611665309000,$GPGSA,A,3,15,24,13,17,19,12,20,10,,,,,1.2,0.6,1.0*38

1611665309000,$GNGSA,A,3,66,67,76,77,,,,,,,,,1.2,0.6,1.0*28

1611665309000,$GAGSA,A,3,102,103,107,108,130,,,,,,,,1.2,0.6,1.0*1B

1611665309000,$BDGSA,A,3,205,221,230,236,,,,,,,,,1.2,0.6,1.0*27

1611665309000,$GPRMC,124830.000,A,4540.3698,N,01156.0179,E,0.0,286.7,260121,,,A*62

1611665309000,$PSAMCLK,2142,21892800,21,9736496,3585420,218928000*70

1611665309000,$PSAMCLK,2142,21892800,21,9736496,3585420,218928000*70

1611665310000,$GPGGA,124831.000,4540.3698,N,01156.0179,E,1,24,0.4,36.5,M,47.1,M,,*6C

1611665310000,$PSAMSA,124831.000,4540.3698,N,01156.0179,E,1,M,,*68

1611665310000,$GPGLL,4540.3698,N,01156.0179,E,124831.000,A,A*59

1611665310000,$GPVTG,286.7,T,,M,0.0,N,0.0,K,A*06

1611665310000,$GPGSV,3,1,10,10,16,313,30,12,31,226,39,13,42,151,42,15,64,215,39*7E

1611665310000,$GPGSV,3,2,10,17,40,080,26,19,39,113,38,20,17,277,28,23,23,280,29*70

1611665310000,$GPGSV,3,3,10,24,60,299,32,28,26,050,22*70

1611665310000,$GLGSV,2,1,06,66,36,198,29,67,55,279,37,68,19,331,22,76,51,039,32*6E

1611665310000,$GLGSV,2,2,06,77,56,290,27,78,08,259,13*65

1611665310000,$GAGSV,2,1,06,102,63,049,36,103,08,158,30,107,52,288,35,108,51,191,40*63

1611665310000,$GAGSV,2,2,06,127,07,242,21,130,60,249,36*64

1611665310000,$BDGSV,2,1,07,205,19,124,32,210,18,053,26,221,39,279,32,227,16,045,13*68

1611665310000,$BDGSV,2,2,07,229,11,151,36,230,28,099,36,236,64,058,33*60

1611665310000,$GPGSA,A,3,15,24,13,17,19,12,20,10,,,,,0.8,0.4,0.8*38

1611665310000,$GNGSA,A,3,66,67,68,76,77,,,,,,,,0.8,0.4,0.8*26

1611665310000,$GAGSA,A,3,102,103,107,108,127,130,,,,,,,0.8,0.4,0.8*2F

1611665310000,$BDGSA,A,3,205,210,221,230,236,,,,,,,,0.8,0.4,0.8*14

1611665310000,$GPRMC,124831.000,A,4540.3698,N,01156.0179,E,0.0,286.7,260121,,,A*63

1611665310000,$PSAMCLK,2142,21892900,24,9736337,3647222,218929000*70

1611665310000,$PSAMCLK,2142,21892900,24,9736337,3647222,218929000*70

1611665311000,$GPGGA,124832.000,4540.3698,N,01156.0179,E,1,24,0.4,36.5,M,47.1,M,,*6F

1611665311000,$PSAMSA,124832.000,4540.3698,N,01156.0179,E,1,M,,*6B

1611665311000,$GPGLL,4540.3698,N,01156.0179,E,124832.000,A,A*5A

1611665311000,$GPVTG,286.7,T,,M,0.0,N,0.0,K,A*06

1611665311000,$GPGSV,3,1,10,10,16,313,30,12,31,226,39,13,42,151,42,15,64,215,39*7E

1611665311000,$GPGSV,3,2,10,17,40,080,25,19,39,113,38,20,17,277,27,23,23,280,29*7C

1611665311000,$GPGSV,3,3,10,24,60,299,32,28,26,050,22*70

1611665311000,$GLGSV,2,1,06,66,36,198,29,67,55,279,37,68,19,331,22,76,51,039,32*6E

1611665311000,$GLGSV,2,2,06,77,56,290,27,78,08,259,12*64

1611665311000,$GAGSV,2,1,06,102,63,049,36,103,08,158,31,107,52,288,35,108,51,191,40*62

1611665311000,$GAGSV,2,2,06,127,07,242,20,130,60,249,36*65

1611665311000,$BDGSV,2,1,06,205,19,124,32,210,18,053,26,221,39,279,32,229,11,151,36*63

1611665311000,$BDGSV,2,2,06,230,28,099,35,236,64,058,33*6B

1611665311000,$GPGSA,A,3,15,24,13,17,19,12,20,10,,,,,0.8,0.4,0.8*38

1611665311000,$GNGSA,A,3,66,67,68,76,77,,,,,,,,0.8,0.4,0.8*26

1611665311000,$GAGSA,A,3,102,103,107,108,127,130,,,,,,,0.8,0.4,0.8*2F

1611665311000,$BDGSA,A,3,205,210,221,230,236,,,,,,,,0.8,0.4,0.8*14

1611665311000,$GPRMC,124832.000,A,4540.3698,N,01156.0179,E,0.0,286.7,260121,,,A*60

1611665311000,$PSAMCLK,2142,21893000,24,9736191,3709022,218930000*77

1611665311000,$PSAMCLK,2142,21893000,24,9736191,3709022,218930000*77

1611665312000,$GPGGA,124833.000,4540.3698,N,01156.0179,E,1,24,0.4,36.5,M,47.1,M,,*6E

1611665312000,$PSAMSA,124833.000,4540.3698,N,01156.0179,E,1,M,,*6A

1611665312000,$GPGLL,4540.3698,N,01156.0179,E,124833.000,A,A*5B

1611665312000,$GPVTG,286.7,T,,M,0.0,N,0.0,K,A*06

1611665312000,$GPGSV,3,1,10,10,16,313,30,12,31,226,39,13,42,151,41,15,64,215,39*7D

1611665312000,$GPGSV,3,2,10,17,40,080,25,19,39,113,38,20,17,277,27,23,23,280,29*7C

1611665312000,$GPGSV,3,3,10,24,60,299,32,28,26,050,22*70

1611665312000,$GLGSV,2,1,05,66,36,198,28,67,55,279,36,68,19,331,22,76,51,039,32*6D

1611665312000,$GLGSV,2,2,05,77,56,290,26*5C

1611665312000,$GAGSV,2,1,06,102,63,049,36,103,08,158,31,107,52,288,35,108,51,191,40*62

1611665312000,$GAGSV,2,2,06,127,07,242,20,130,60,249,36*65

1611665312000,$BDGSV,2,1,06,205,19,124,32,210,18,053,26,221,39,279,31,229,11,151,36*60

1611665312000,$BDGSV,2,2,06,230,28,099,35,236,64,058,33*6B

1611665312000,$GPGSA,A,3,15,24,13,17,19,12,20,10,,,,,0.8,0.4,0.8*38

1611665312000,$GNGSA,A,3,66,67,68,76,77,,,,,,,,0.8,0.4,0.8*26

1611665312000,$GAGSA,A,3,102,103,107,108,127,130,,,,,,,0.8,0.4,0.8*2F

1611665312000,$BDGSA,A,3,205,210,221,230,236,,,,,,,,0.8,0.4,0.8*14

1611665312000,$GPRMC,124833.000,A,4540.3698,N,01156.0179,E,0.0,286.7,260121,,,A*61

1611665312000,$PSAMCLK,2142,21893100,24,9736057,3770821,218931000*79

1611665312000,$PSAMCLK,2142,21893100,24,9736057,3770821,218931000*79

1611665313000,$GPGGA,124834.000,4540.3698,N,01156.0179,E,1,24,0.4,36.5,M,47.1,M,,*69

1611665313000,$PSAMSA,124834.000,4540.3698,N,01156.0179,E,1,M,,*6D

1611665313000,$GPGLL,4540.3698,N,01156.0179,E,124834.000,A,A*5C

1611665313000,$GPVTG,286.7,T,,M,0.0,N,0.0,K,A*06

1611665313000,$GPGSV,3,1,10,10,16,312,30,12,31,226,39,13,42,151,41,15,64,215,39*7C

1611665313000,$GPGSV,3,2,10,17,40,080,25,19,39,113,38,20,17,277,27,23,23,280,29*7C

1611665313000,$GPGSV,3,3,10,24,60,299,32,28,26,050,22*70

1611665313000,$GLGSV,2,1,05,66,36,198,28,67,55,279,36,68,19,331,22,76,51,039,32*6D

1611665313000,$GLGSV,2,2,05,77,56,290,26*5C

1611665313000,$GAGSV,2,1,06,102,63,049,36,103,08,158,31,107,52,288,34,108,51,191,40*63

1611665313000,$GAGSV,2,2,06,127,07,242,20,130,60,249,36*65

1611665313000,$BDGSV,2,1,06,205,19,124,32,210,18,053,25,221,39,279,31,229,11,151,36*63

1611665313000,$BDGSV,2,2,06,230,28,099,35,236,64,058,33*6B

1611665313000,$GPGSA,A,3,15,24,13,17,19,12,20,10,,,,,0.8,0.4,0.8*38

1611665313000,$GNGSA,A,3,66,67,68,76,77,,,,,,,,0.8,0.4,0.8*26

1611665313000,$GAGSA,A,3,102,103,107,108,127,130,,,,,,,0.8,0.4,0.8*2F

1611665313000,$BDGSA,A,3,205,210,221,230,236,,,,,,,,0.8,0.4,0.8*14

1611665313000,$GPRMC,124834.000,A,4540.3698,N,01156.0179,E,0.0,286.7,260121,,,A*66

1611665313000,$PSAMCLK,2142,21893200,24,9736004,3832620,218932000*79

1611665313000,$PSAMCLK,2142,21893200,24,9736004,3832620,218932000*79

1611665314000,$GPGGA,124835.000,4540.3698,N,01156.0179,E,1,24,0.4,36.5,M,47.1,M,,*68

1611665314000,$PSAMSA,124835.000,4540.3698,N,01156.0179,E,1,M,,*6C

1611665314000,$GPGLL,4540.3698,N,01156.0179,E,124835.000,A,A*5D

1611665314000,$GPVTG,286.7,T,,M,0.0,N,0.0,K,A*06

1611665314000,$GPGSV,3,1,10,10,16,312,29,12,31,226,39,13,42,151,41,15,64,215,39*74

1611665314000,$GPGSV,3,2,10,17,40,080,25,19,39,113,38,20,17,277,27,23,23,280,29*7C

1611665314000,$GPGSV,3,3,10,24,60,299,32,28,26,050,20*72

1611665314000,$GLGSV,2,1,06,66,36,198,28,67,55,279,36,68,19,331,22,76,51,039,31*6D

1611665314000,$GLGSV,2,2,06,77,56,290,26,85,20,038,13*69

1611665314000,$GAGSV,2,1,06,102,63,049,36,103,08,158,31,107,52,288,34,108,51,191,40*63

1611665314000,$GAGSV,2,2,06,127,07,242,20,130,60,249,36*65

1611665314000,$BDGSV,2,1,06,205,19,124,32,210,18,053,25,221,39,279,31,229,11,151,36*63

1611665314000,$BDGSV,2,2,06,230,28,099,35,236,64,058,32*6A

1611665314000,$GPGSA,A,3,15,24,13,17,19,12,20,10,,,,,0.8,0.4,0.8*38

1611665314000,$GNGSA,A,3,66,67,68,76,77,,,,,,,,0.8,0.4,0.8*26

1611665314000,$GAGSA,A,3,102,103,107,108,127,130,,,,,,,0.8,0.4,0.8*2F

1611665314000,$BDGSA,A,3,205,210,221,230,236,,,,,,,,0.8,0.4,0.8*14

1611665314000,$GPRMC,124835.000,A,4540.3698,N,01156.0179,E,0.0,286.7,260121,,,A*67

1611665314000,$PSAMCLK,2142,21893300,24,9735975,3894420,218933000*7B

1611665314000,$PSAMCLK,2142,21893300,24,9735975,3894420,218933000*7B

1611665315000,$GPGGA,124836.000,4540.3698,N,01156.0179,E,1,24,0.4,36.5,M,47.1,M,,*6B

1611665315000,$PSAMSA,124836.000,4540.3698,N,01156.0179,E,1,M,,*6F

1611665315000,$GPGLL,4540.3698,N,01156.0179,E,124836.000,A,A*5E

1611665315000,$GPVTG,286.7,T,,M,0.0,N,0.0,K,A*06

1611665315000,$GPGSV,3,1,10,10,16,312,29,12,31,226,39,13,42,151,41,15,64,215,39*74

1611665315000,$GPGSV,3,2,10,17,40,080,25,19,39,113,38,20,17,277,26,23,23,280,28*7C

1611665315000,$GPGSV,3,3,10,24,60,299,32,28,26,050,19*78

1611665315000,$GLGSV,2,1,06,66,36,198,28,67,55,279,36,68,19,331,23,76,51,039,31*6C

1611665315000,$GLGSV,2,2,06,77,56,290,26,85,20,038,18*62

1611665315000,$GAGSV,2,1,06,102,63,049,36,103,08,158,31,107,52,288,34,108,51,191,40*63

1611665315000,$GAGSV,2,2,06,127,07,242,20,130,60,249,36*65

1611665315000,$BDGSV,2,1,07,205,19,124,32,210,18,053,25,221,39,279,31,222,31,213,23*6A

1611665315000,$BDGSV,2,2,07,229,11,151,36,230,28,099,35,236,64,058,32*62

1611665315000,$GPGSA,A,3,15,24,13,17,19,12,20,10,,,,,0.8,0.4,0.8*38

1611665315000,$GNGSA,A,3,66,67,68,76,77,,,,,,,,0.8,0.4,0.8*26

1611665315000,$GAGSA,A,3,102,103,107,108,127,130,,,,,,,0.8,0.4,0.8*2F

1611665315000,$BDGSA,A,3,205,210,221,230,236,,,,,,,,0.8,0.4,0.8*14

1611665315000,$GPRMC,124836.000,A,4540.3698,N,01156.0179,E,0.0,286.7,260121,,,A*64

1611665315000,$PSAMCLK,2142,21893400,24,9735995,3956219,218934000*76

1611665315000,$PSAMCLK,2142,21893400,24,9735995,3956219,218934000*76

1611665316000,$GPGGA,124837.000,4540.3698,N,01156.0179,E,1,23,0.4,36.5,M,47.1,M,,*6D

1611665316000,$PSAMSA,124837.000,4540.3698,N,01156.0179,E,1,M,,*6E

1611665316000,$GPGLL,4540.3698,N,01156.0179,E,124837.000,A,A*5F

1611665316000,$GPVTG,286.7,T,,M,0.0,N,0.0,K,A*06

1611665316000,$GPGSV,3,1,10,10,16,312,29,12,31,226,39,13,42,151,41,15,64,215,39*74

1611665316000,$GPGSV,3,2,10,17,40,080,25,19,39,113,38,20,17,277,25,23,23,280,28*7F

1611665316000,$GPGSV,3,3,10,24,60,299,32,28,26,050,17*76

1611665316000,$GLGSV,2,1,07,66,36,198,28,67,55,279,36,68,19,331,23,76,51,039,31*6D

1611665316000,$GLGSV,2,2,07,77,56,290,26,85,20,038,22,86,23,091,19*55

1611665316000,$GAGSV,2,1,06,102,63,049,36,103,08,158,31,107,52,288,34,108,51,191,40*63

1611665316000,$GAGSV,2,2,06,127,07,242,20,130,60,249,36*65

1611665316000,$BDGSV,2,1,07,205,19,124,31,210,18,053,25,221,39,279,31,222,31,212,23*68

1611665316000,$BDGSV,2,2,07,229,11,151,36,230,28,099,35,236,64,058,32*62

1611665316000,$GPGSA,A,3,15,24,13,17,19,12,10,,,,,,1.0,0.4,0.8*33

1611665316000,$GNGSA,A,3,66,67,68,76,77,,,,,,,,1.0,0.4,0.8*2F

1611665316000,$GAGSA,A,3,102,103,107,108,127,130,,,,,,,1.0,0.4,0.8*26

1611665316000,$BDGSA,A,3,205,210,221,230,236,,,,,,,,1.0,0.4,0.8*1D

1611665316000,$GPRMC,124837.000,A,4540.3698,N,01156.0179,E,0.0,286.7,260121,,,A*65

1611665316000,$PSAMCLK,2142,21893500,23,9736021,4018017,218935000*7C

1611665316000,$PSAMCLK,2142,21893500,23,9736021,4018017,218935000*7C

1611665317000,$GPGGA,124838.000,4540.3698,N,01156.0179,E,1,21,0.6,36.5,M,47.1,M,,*62

1611665317000,$PSAMSA,124838.000,4540.3698,N,01156.0179,E,1,M,,*61

1611665317000,$GPGLL,4540.3698,N,01156.0179,E,124838.000,A,A*50

1611665317000,$GPVTG,286.7,T,,M,0.0,N,0.0,K,A*06

1611665317000,$GPGSV,3,1,10,10,16,312,29,12,31,226,39,13,42,151,41,15,64,215,39*74

1611665317000,$GPGSV,3,2,10,17,40,080,25,19,39,113,38,20,17,277,23,23,23,280,28*79

1611665317000,$GPGSV,3,3,10,24,60,299,32,28,26,050,16*77

1611665317000,$GLGSV,2,1,07,66,36,198,28,67,55,279,35,68,19,331,23,76,51,039,31*6E

1611665317000,$GLGSV,2,2,07,77,56,290,26,85,20,038,24,86,23,091,19*53

1611665317000,$GAGSV,2,1,06,102,63,049,36,103,08,158,31,107,52,288,34,108,51,191,40*63

1611665317000,$GAGSV,2,2,06,127,07,242,20,130,60,249,36*65

1611665317000,$BDGSV,2,1,07,205,19,124,31,210,18,053,25,221,39,279,31,222,31,212,23*68

1611665317000,$BDGSV,2,2,07,229,11,151,36,230,28,099,35,236,64,058,32*62

1611665317000,$GPGSA,A,3,15,24,13,17,19,12,10,,,,,,1.0,0.6,0.8*31

1611665317000,$GNGSA,A,3,66,67,76,77,,,,,,,,,1.0,0.6,0.8*23

1611665317000,$GAGSA,A,3,102,103,107,108,127,130,,,,,,,1.0,0.6,0.8*24

1611665317000,$BDGSA,A,3,205,210,230,236,,,,,,,,,1.0,0.6,0.8*2E

1611665317000,$GPRMC,124838.000,A,4540.3698,N,01156.0179,E,0.0,286.7,260121,,,A*6A

1611665317000,$PSAMCLK,2142,21893600,21,9736053,4079816,218936000*75

1611665317000,$PSAMCLK,2142,21893600,21,9736053,4079816,218936000*75

1611665318000,$GPGGA,124839.000,4540.3698,N,01156.0179,E,1,23,0.4,36.5,M,47.1,M,,*63

1611665318000,$PSAMSA,124839.000,4540.3698,N,01156.0179,E,1,M,,*60

1611665318000,$GPGLL,4540.3698,N,01156.0179,E,124839.000,A,A*51

1611665318000,$GPVTG,286.7,T,,M,0.0,N,0.0,K,A*06

1611665318000,$GPGSV,3,1,10,10,16,312,29,12,31,226,39,13,42,151,41,15,64,215,39*74

1611665318000,$GPGSV,3,2,10,17,40,080,25,19,39,113,38,20,17,277,22,23,23,280,28*78

1611665318000,$GPGSV,3,3,10,24,60,299,32,28,26,050,14*75

1611665318000,$GLGSV,2,1,07,66,36,198,28,67,55,279,35,68,19,331,23,76,51,039,31*6E

1611665318000,$GLGSV,2,2,07,77,56,290,26,85,20,038,24,86,23,091,19*53

1611665318000,$GAGSV,2,1,06,102,63,049,36,103,08,158,31,107,52,288,34,108,51,191,40*63

1611665318000,$GAGSV,2,2,06,127,07,242,19,130,60,249,35*6C

1611665318000,$BDGSV,2,1,07,205,19,124,31,210,18,053,24,221,39,279,31,222,31,212,23*69

1611665318000,$BDGSV,2,2,07,229,11,151,36,230,28,099,35,236,64,058,32*62

1611665318000,$GPGSA,A,3,15,24,13,17,19,12,23,10,,,,,1.0,0.4,0.8*32

1611665318000,$GNGSA,A,3,66,67,76,77,85,,,,,,,,1.0,0.4,0.8*2C

1611665318000,$GAGSA,A,3,102,103,107,108,127,130,,,,,,,1.0,0.4,0.8*26

1611665318000,$BDGSA,A,3,205,210,230,236,,,,,,,,,1.0,0.4,0.8*2C

1611665318000,$GPRMC,124839.000,A,4540.3698,N,01156.0179,E,0.0,286.7,260121,,,A*6B

1611665318000,$PSAMCLK,2142,21893700,23,9736104,4141616,218937000*70

1611665318000,$PSAMCLK,2142,21893700,23,9736104,4141616,218937000*70

1611665319000,$GPGGA,124840.000,4540.3698,N,01156.0179,E,1,23,0.4,36.5,M,47.1,M,,*6D

1611665319000,$PSAMSA,124840.000,4540.3698,N,01156.0179,E,1,M,,*6E

1611665319000,$GPGLL,4540.3698,N,01156.0179,E,124840.000,A,A*5F

1611665319000,$GPVTG,286.7,T,,M,0.0,N,0.0,K,A*06

1611665319000,$GPGSV,3,1,10,10,16,312,29,12,31,226,39,13,42,151,41,15,64,215,39*74

1611665319000,$GPGSV,3,2,10,17,40,080,25,19,39,113,38,20,17,277,20,23,23,280,28*7A

1611665319000,$GPGSV,3,3,10,24,60,299,32,28,26,050,14*75

1611665319000,$GLGSV,2,1,07,66,36,198,27,67,55,279,35,68,19,331,23,76,51,039,31*61

1611665319000,$GLGSV,2,2,07,77,56,290,26,85,20,038,24,86,23,091,19*53

1611665319000,$GAGSV,2,1,06,102,63,049,36,103,08,158,31,107,52,288,34,108,51,191,40*63

1611665319000,$GAGSV,2,2,06,127,07,242,19,130,60,250,35*64

1611665319000,$BDGSV,2,1,07,205,19,124,31,210,18,053,24,221,39,279,31,222,31,212,24*6E

1611665319000,$BDGSV,2,2,07,229,11,151,36,230,28,099,35,236,64,058,32*62

1611665319000,$GPGSA,A,3,15,24,13,17,19,12,23,10,,,,,0.8,0.4,0.8*3B

1611665319000,$GNGSA,A,3,66,67,68,76,85,,,,,,,,0.8,0.4,0.8*2B

1611665319000,$GAGSA,A,3,102,103,107,108,127,130,,,,,,,0.8,0.4,0.8*2F

1611665319000,$BDGSA,A,3,205,210,230,236,,,,,,,,,0.8,0.4,0.8*25

1611665319000,$GPRMC,124840.000,A,4540.3698,N,01156.0179,E,0.0,286.7,260121,,,A*65

1611665319000,$PSAMCLK,2142,21893800,23,9736144,4203416,218938000*73

1611665319000,$PSAMCLK,2142,21893800,23,9736144,4203416,218938000*73

1611665320000,$GPGGA,124841.000,4540.3698,N,01156.0179,E,1,24,0.4,36.5,M,47.1,M,,*6B

1611665320000,$PSAMSA,124841.000,4540.3698,N,01156.0179,E,1,M,,*6F

1611665320000,$GPGLL,4540.3698,N,01156.0179,E,124841.000,A,A*5E

1611665320000,$GPVTG,286.7,T,,M,0.0,N,0.0,K,A*06

1611665320000,$GPGSV,3,1,10,10,16,312,28,12,31,226,39,13,42,151,41,15,64,215,39*75

1611665320000,$GPGSV,3,2,10,17,40,080,26,19,39,113,38,20,17,277,19,23,23,280,28*73

1611665320000,$GPGSV,3,3,10,24,60,299,32,28,26,050,13*72

1611665320000,$GLGSV,2,1,07,66,36,198,27,67,55,279,35,68,19,331,23,76,51,039,31*61

1611665320000,$GLGSV,2,2,07,77,56,290,26,85,20,038,24,86,23,091,20*59

1611665320000,$GAGSV,2,1,06,102,63,049,36,103,08,158,31,107,52,288,34,108,51,191,40*63

1611665320000,$GAGSV,2,2,06,127,07,242,19,130,60,250,35*64

1611665320000,$BDGSV,2,1,07,205,19,124,31,210,18,053,24,221,39,279,31,222,31,212,24*6E

1611665320000,$BDGSV,2,2,07,229,11,151,35,230,29,099,35,236,64,058,33*61

1611665320000,$GPGSA,A,3,15,24,13,17,19,12,23,10,,,,,1.0,0.4,0.8*32

1611665320000,$GNGSA,A,3,66,67,68,76,85,86,,,,,,,1.0,0.4,0.8*2C

1611665320000,$GAGSA,A,3,102,103,107,108,127,130,,,,,,,1.0,0.4,0.8*26

1611665320000,$BDGSA,A,3,205,210,222,230,,,,,,,,,1.0,0.4,0.8*29

1611665320000,$GPRMC,124841.000,A,4540.3698,N,01156.0179,E,0.0,286.7,260121,,,A*64

1611665320000,$PSAMCLK,2142,21893900,24,9736197,4265217,218939000*7D

1611665320000,$PSAMCLK,2142,21893900,24,9736197,4265217,218939000*7D

1611665321000,$GPGGA,124842.000,4540.3698,N,01156.0179,E,1,20,0.6,36.5,M,47.1,M,,*6E

1611665321000,$PSAMSA,124842.000,4540.3698,N,01156.0179,E,1,M,,*6C

1611665321000,$GPGLL,4540.3698,N,01156.0179,E,124842.000,A,A*5D

1611665321000,$GPVTG,286.7,T,,M,0.0,N,0.0,K,A*06

1611665321000,$GPGSV,3,1,11,10,16,312,28,12,31,226,39,13,42,151,41,14,17,052,22*7A

1611665321000,$GPGSV,3,2,11,15,64,215,39,17,40,080,27,19,39,113,38,20,17,277,17*77

1611665321000,$GPGSV,3,3,11,23,23,280,28,24,60,299,31,28,26,050,12*41

1611665321000,$GLGSV,2,1,07,66,36,198,27,67,55,279,35,68,19,331,23,76,51,039,31*61

1611665321000,$GLGSV,2,2,07,77,56,290,26,85,20,038,24,86,23,091,20*59

1611665321000,$GAGSV,2,1,06,102,63,049,35,103,08,158,31,107,52,288,34,108,51,191,40*60

1611665321000,$GAGSV,2,2,06,127,07,242,19,130,60,250,35*64

1611665321000,$BDGSV,2,1,07,205,19,124,31,210,18,053,23,221,39,279,31,222,31,212,22*6F

1611665321000,$BDGSV,2,2,07,229,11,151,35,230,29,099,35,236,64,058,33*61

1611665321000,$GPGSA,A,3,15,24,13,17,19,12,23,10,,,,,1.0,0.6,0.8*30

1611665321000,$GNGSA,A,3,66,67,68,76,,,,,,,,,1.0,0.6,0.8*2D

1611665321000,$GAGSA,A,3,102,103,107,108,127,130,,,,,,,1.0,0.6,0.8*24

1611665321000,$BDGSA,A,3,205,230,,,,,,,,,,,1.0,0.6,0.8*2A

1611665321000,$GPRMC,124842.000,A,4540.3698,N,01156.0179,E,0.0,286.7,260121,,,A*67

1611665321000,$PSAMCLK,2142,21894000,20,9736356,4327018,218940000*7C

1611665321000,$PSAMCLK,2142,21894000,20,9736356,4327018,218940000*7C

1611665322000,$GPGGA,124843.000,4540.3698,N,01156.0179,E,1,24,0.4,36.5,M,47.1,M,,*69

1611665322000,$PSAMSA,124843.000,4540.3698,N,01156.0179,E,1,M,,*6D

1611665322000,$GPGLL,4540.3698,N,01156.0179,E,124843.000,A,A*5C

1611665322000,$GPVTG,286.7,T,,M,0.0,N,0.0,K,A*06

1611665322000,$GPGSV,3,1,10,10,16,312,28,12,31,226,39,13,42,151,41,14,17,052,23*7A

1611665322000,$GPGSV,3,2,10,15,64,215,39,17,40,080,27,19,39,113,38,20,17,277,16*77

1611665322000,$GPGSV,3,3,10,23,23,280,27,24,60,299,31*77

1611665322000,$GLGSV,2,1,07,66,36,198,27,67,55,279,35,68,19,331,23,76,51,039,31*61

1611665322000,$GLGSV,2,2,07,77,56,290,26,85,20,038,24,86,23,091,20*59

1611665322000,$GAGSV,2,1,06,102,63,049,35,103,08,158,31,107,52,288,34,108,51,191,40*60

1611665322000,$GAGSV,2,2,06,127,07,242,19,130,60,250,35*64

1611665322000,$BDGSV,2,1,07,205,19,124,31,210,18,053,21,221,39,279,31,222,31,212,24*6B

1611665322000,$BDGSV,2,2,07,229,11,151,35,230,29,099,35,236,64,058,33*61

1611665322000,$GPGSA,A,3,15,24,13,17,19,12,23,10,,,,,0.8,0.4,0.8*3B

1611665322000,$GNGSA,A,3,66,67,68,76,77,85,86,,,,,,0.8,0.4,0.8*25

1611665322000,$GAGSA,A,3,102,103,107,108,127,130,,,,,,,0.8,0.4,0.8*2F

1611665322000,$BDGSA,A,3,205,230,236,,,,,,,,,,0.8,0.4,0.8*16

1611665322000,$GPRMC,124843.000,A,4540.3698,N,01156.0179,E,0.0,286.7,260121,,,A*66

1611665322000,$PSAMCLK,2142,21894100,24,9736590,4388821,218941000*73

1611665322000,$PSAMCLK,2142,21894100,24,9736590,4388821,218941000*73

1611665323000,$GPGGA,124844.000,4540.3698,N,01156.0179,E,1,22,0.6,36.5,M,47.1,M,,*6A

1611665323000,$PSAMSA,124844.000,4540.3698,N,01156.0179,E,1,M,,*6A

1611665323000,$GPGLL,4540.3698,N,01156.0179,E,124844.000,A,A*5B

1611665323000,$GPVTG,286.7,T,,M,0.0,N,0.0,K,A*06

1611665323000,$GPGSV,3,1,10,10,16,312,28,12,31,226,39,13,42,151,41,14,17,052,23*7A

1611665323000,$GPGSV,3,2,10,15,64,215,39,17,40,080,31,19,39,113,39,20,17,277,14*73

1611665323000,$GPGSV,3,3,10,23,23,280,27,24,60,299,31*77

1611665323000,$GLGSV,2,1,07,66,36,198,27,67,55,279,35,68,19,331,23,76,51,039,31*61

1611665323000,$GLGSV,2,2,07,77,56,290,26,85,20,038,25,86,23,091,20*58

1611665323000,$GAGSV,2,1,06,102,63,049,35,103,08,158,31,107,52,288,34,108,51,191,40*60

1611665323000,$GAGSV,2,2,06,127,07,242,19,130,60,250,35*64

1611665323000,$BDGSV,2,1,07,205,19,124,31,210,18,053,20,221,39,279,31,222,31,212,23*6D

1611665323000,$BDGSV,2,2,07,229,11,151,35,230,29,099,35,236,64,058,33*61

1611665323000,$GPGSA,A,3,15,24,13,17,19,12,23,10,,,,,1.0,0.6,0.8*30

1611665323000,$GNGSA,A,3,66,67,76,77,86,,,,,,,,1.0,0.6,0.8*2D

1611665323000,$GAGSA,A,3,102,103,107,108,127,130,,,,,,,1.0,0.6,0.8*24

1611665323000,$BDGSA,A,3,205,230,236,,,,,,,,,,1.0,0.6,0.8*1D

1611665323000,$GPRMC,124844.000,A,4540.3698,N,01156.0179,E,0.0,286.7,260121,,,A*61

1611665323000,$PSAMCLK,2142,21894200,22,9736849,4450626,218942000*77

1611665323000,$PSAMCLK,2142,21894200,22,9736849,4450626,218942000*77

1611665324000,$GPGGA,124845.000,4540.3698,N,01156.0179,E,1,22,0.4,36.5,M,47.1,M,,*69

1611665324000,$PSAMSA,124845.000,4540.3698,N,01156.0179,E,1,M,,*6B

1611665324000,$GPGLL,4540.3698,N,01156.0179,E,124845.000,A,A*5A

1611665324000,$GPVTG,286.7,T,,M,0.0,N,0.0,K,A*06

1611665324000,$GPGSV,3,1,10,10,16,312,28,12,31,226,39,13,42,151,41,14,17,052,23*7A

1611665324000,$GPGSV,3,2,10,15,64,215,39,17,40,080,32,19,39,113,39,20,17,277,14*70

1611665324000,$GPGSV,3,3,10,23,23,280,27,24,60,299,31*77

1611665324000,$GLGSV,2,1,07,66,36,198,27,67,55,279,35,68,19,331,23,76,51,039,31*61

1611665324000,$GLGSV,2,2,07,77,56,290,27,85,20,038,25,86,23,091,20*59

1611665324000,$GAGSV,2,1,06,102,63,049,35,103,08,158,31,107,52,288,34,108,51,191,40*60

1611665324000,$GAGSV,2,2,06,127,07,242,19,130,60,250,35*64

1611665324000,$BDGSV,2,1,07,205,19,124,31,210,18,053,18,221,39,279,31,222,31,212,23*66

1611665324000,$BDGSV,2,2,07,229,11,151,35,230,29,099,35,236,64,058,33*61

1611665324000,$GPGSA,A,3,15,24,13,17,19,12,10,,,,,,1.0,0.4,0.8*33

1611665324000,$GNGSA,A,3,66,67,68,76,85,86,,,,,,,1.0,0.4,0.8*2C

1611665324000,$GAGSA,A,3,102,103,107,108,127,130,,,,,,,1.0,0.4,0.8*26

1611665324000,$BDGSA,A,3,205,230,236,,,,,,,,,,1.0,0.4,0.8*1F

1611665324000,$GPRMC,124845.000,A,4540.3698,N,01156.0179,E,0.0,286.7,260121,,,A*60

1611665324000,$PSAMCLK,2142,21894300,22,9737030,4512432,218943000*70

1611665324000,$PSAMCLK,2142,21894300,22,9737030,4512432,218943000*70

1611665325000,$GPGGA,124846.000,4540.3698,N,01156.0179,E,1,22,0.4,36.5,M,47.1,M,,*6A

1611665325000,$PSAMSA,124846.000,4540.3698,N,01156.0179,E,1,M,,*68

1611665325000,$GPGLL,4540.3698,N,01156.0179,E,124846.000,A,A*59

1611665325000,$GPVTG,286.7,T,,M,0.0,N,0.0,K,A*06

1611665325000,$GPGSV,3,1,10,10,16,312,27,12,31,226,39,13,42,151,41,14,17,052,23*75

1611665325000,$GPGSV,3,2,10,15,64,215,39,17,40,080,33,19,39,113,39,20,17,277,13*76

1611665325000,$GPGSV,3,3,10,23,23,280,27,24,60,299,31*77

1611665325000,$GLGSV,2,1,07,66,36,198,26,67,55,279,35,68,19,331,23,76,51,039,32*63

1611665325000,$GLGSV,2,2,07,77,56,290,27,85,20,038,25,86,23,091,20*59

1611665325000,$GAGSV,2,1,06,102,63,049,35,103,08,158,31,107,52,288,34,108,51,191,40*60

1611665325000,$GAGSV,2,2,06,127,07,242,19,130,60,250,35*64

1611665325000,$BDGSV,2,1,07,205,19,124,31,210,18,053,17,221,39,279,31,222,31,212,24*6E

1611665325000,$BDGSV,2,2,07,229,11,151,35,230,29,099,35,236,64,058,33*61

1611665325000,$GPGSA,A,3,15,24,13,17,19,12,10,,,,,,1.0,0.4,0.8*33

1611665325000,$GNGSA,A,3,66,67,68,76,85,,,,,,,,1.0,0.4,0.8*22

1611665325000,$GAGSA,A,3,102,103,107,108,127,130,,,,,,,1.0,0.4,0.8*26

1611665325000,$BDGSA,A,3,205,222,230,236,,,,,,,,,1.0,0.4,0.8*2D

1611665325000,$GPRMC,124846.000,A,4540.3698,N,01156.0179,E,0.0,286.7,260121,,,A*63

1611665325000,$PSAMCLK,2142,21894400,22,9737109,4574238,218944000*77

1611665325000,$PSAMCLK,2142,21894400,22,9737109,4574238,218944000*77

1611665326000,$GPGGA,124847.000,4540.3698,N,01156.0179,E,1,22,0.6,36.5,M,47.1,M,,*69

1611665326000,$PSAMSA,124847.000,4540.3698,N,01156.0179,E,1,M,,*69

1611665326000,$GPGLL,4540.3698,N,01156.0179,E,124847.000,A,A*58

1611665326000,$GPVTG,286.7,T,,M,0.0,N,0.0,K,A*06

1611665326000,$GPGSV,3,1,10,10,16,312,27,12,31,226,38,13,42,151,41,14,17,052,23*74

1611665326000,$GPGSV,3,2,10,15,64,215,39,17,40,080,33,19,39,113,39,20,17,277,12*77

1611665326000,$GPGSV,3,3,10,23,23,280,27,24,60,299,31*77

1611665326000,$GLGSV,2,1,07,66,36,198,26,67,55,279,35,68,19,331,23,76,51,039,32*63

1611665326000,$GLGSV,2,2,07,77,56,290,27,85,20,038,25,86,23,091,20*59

1611665326000,$GAGSV,2,1,06,102,63,049,35,103,08,158,31,107,52,288,34,108,51,191,40*60

1611665326000,$GAGSV,2,2,06,127,07,242,19,130,60,250,35*64

1611665326000,$BDGSV,2,1,07,205,19,124,31,210,18,053,15,221,39,279,31,222,31,212,25*6D

1611665326000,$BDGSV,2,2,07,229,11,151,35,230,29,099,35,236,64,058,33*61

1611665326000,$GPGSA,A,3,15,24,13,17,19,12,23,14,,,,,1.0,0.6,0.8*34

1611665326000,$GNGSA,A,3,66,67,76,85,86,,,,,,,,1.0,0.6,0.8*20

1611665326000,$GAGSA,A,3,102,103,107,108,127,130,,,,,,,1.0,0.6,0.8*24

1611665326000,$BDGSA,A,3,205,222,230,,,,,,,,,,1.0,0.6,0.8*18

1611665326000,$GPRMC,124847.000,A,4540.3698,N,01156.0179,E,0.0,286.7,260121,,,A*62

1611665326000,$PSAMCLK,2142,21894500,22,9737157,4636046,218945000*72

1611665326000,$PSAMCLK,2142,21894500,22,9737157,4636046,218945000*72

1611665327000,$GPGGA,124848.000,4540.3698,N,01156.0179,E,1,22,0.4,36.5,M,47.1,M,,*64

1611665327000,$PSAMSA,124848.000,4540.3698,N,01156.0179,E,1,M,,*66

1611665327000,$GPGLL,4540.3698,N,01156.0179,E,124848.000,A,A*57

1611665327000,$GPVTG,286.7,T,,M,0.0,N,0.0,K,A*06

1611665327000,$GPGSV,3,1,09,10,16,312,27,12,31,226,38,13,42,151,41,14,17,052,23*7C

1611665327000,$GPGSV,3,2,09,15,64,215,39,17,40,080,33,19,39,113,39,23,23,280,27*75

1611665327000,$GPGSV,3,3,09,24,60,299,31*40

1611665327000,$GLGSV,2,1,07,66,36,198,26,67,55,279,35,68,19,331,23,76,51,039,32*63

1611665327000,$GLGSV,2,2,07,77,56,290,27,85,20,038,26,86,23,091,20*5A

1611665327000,$GAGSV,2,1,06,102,63,049,35,103,08,158,31,107,52,288,34,108,51,191,40*60

1611665327000,$GAGSV,2,2,06,127,07,242,19,130,60,250,35*64

1611665327000,$BDGSV,2,1,07,205,19,124,31,210,18,053,14,221,39,279,31,222,31,212,25*6C

