# 2021 02 24 11:30:14
#
# Version: 10 Manufacturer: samsung Make: SM-A515F
#
1614162614000,$GPGGA,103014.000,4540.3685,N,01156.0206,E,1,22,0.6,43.3,M,47.1,M,,*61

1614162614000,$PSAMSA,103014.000,4540.3685,N,01156.0206,E,0,M,,*64

1614162614000,$GPGLL,4540.3685,N,01156.0206,E,103014.000,A,A*54

1614162614000,$GPVTG,0.0,T,,M,0.5,N,0.9,K,A*01

1614162614000,$GPGSV,3,1,12,10,13,320,28,12,23,222,33,13,52,147,32,14,26,051,32*72

1614162614000,$GPGSV,3,2,12,15,69,231,46,17,37,089,38,19,33,121,32,20,20,286,32*7C

1614162614000,$GPGSV,3,3,12,23,25,289,39,24,53,292,44,28,33,050,25,30,04,091,23*7A

1614162614000,$GLGSV,2,1,05,65,17,331,39,71,48,204,41,72,53,297,41,73,61,026,35*6F

1614162614000,$GLGSV,2,2,05,74,50,276,41*50

1614162614000,$GAGSV,2,1,06,101,21,238,41,104,21,315,29,115,05,081,27,119,66,256,24*6A

1614162614000,$GAGSV,2,2,06,121,72,246,36,127,50,053,26*6F

1614162614000,$BDGSV,1,1,04,219,42,227,46,222,34,298,35,228,20,060,31,236,39,267,35*63

1614162614000,$GPGSA,A,3,15,24,13,17,28,19,14,23,20,10,,,1.2,0.6,1.0*35

1614162614000,$GNGSA,A,3,65,71,72,73,74,,,,,,,,1.2,0.6,1.0*2F

1614162614000,$GAGSA,A,3,101,121,127,,,,,,,,,,1.2,0.6,1.0*11

1614162614000,$BDGSA,A,3,219,222,228,236,,,,,,,,,1.2,0.6,1.0*20

1614162614000,$GPRMC,103014.000,A,4540.3685,N,01156.0206,E,0.5,0.0,240221,,,A*61

1614162614000,$PSAMCLK,2146,29703200,22,9747697,62160,297032000*7C

1614162614000,$PSAMCLK,2146,29703200,22,9747697,62160,297032000*7C

1614162615000,$GPGGA,103015.000,4540.3688,N,01156.0167,E,1,20,0.6,34.2,M,47.1,M,,*6A

1614162615000,$PSAMSA,103015.000,4540.3688,N,01156.0167,E,0,M,,*6C

1614162615000,$GPGLL,4540.3688,N,01156.0167,E,103015.000,A,A*5C

1614162615000,$GPVTG,0.0,T,,M,0.5,N,1.0,K,A*09

1614162615000,$GPGSV,3,1,12,10,13,320,29,12,23,222,33,13,52,147,33,14,26,051,32*72

1614162615000,$GPGSV,3,2,12,15,69,231,46,17,37,089,38,19,33,121,32,20,20,286,32*7C

1614162615000,$GPGSV,3,3,12,23,25,289,39,24,53,292,44,28,33,050,26,30,04,091,22*78

1614162615000,$GLGSV,2,1,05,65,17,331,39,71,48,204,41,72,53,297,41,73,61,026,36*6C

1614162615000,$GLGSV,2,2,05,74,50,276,41*50

1614162615000,$GAGSV,2,1,06,101,21,238,41,104,21,315,29,115,05,081,30,119,66,256,28*60

1614162615000,$GAGSV,2,2,06,121,72,246,36,127,50,053,28*61

1614162615000,$BDGSV,2,1,05,219,42,227,46,222,34,298,33,227,20,114,32,228,20,060,32*6C

1614162615000,$BDGSV,2,2,05,236,39,267,36*66

1614162615000,$GPGSA,A,3,15,24,13,17,19,14,23,12,20,10,,,1.0,0.6,0.8*37

1614162615000,$GNGSA,A,3,65,71,72,73,74,,,,,,,,1.0,0.6,0.8*24

1614162615000,$GAGSA,A,3,101,115,121,,,,,,,,,,1.0,0.6,0.8*1B

1614162615000,$BDGSA,A,3,219,236,,,,,,,,,,,1.0,0.6,0.8*21

1614162615000,$GPRMC,103015.000,A,4540.3688,N,01156.0167,E,0.5,0.0,240221,,,A*69

1614162615000,$PSAMCLK,2146,29703300,20,9747779,124018,297033000*42

1614162615000,$PSAMCLK,2146,29703300,20,9747779,124018,297033000*42

1614162616000,$GPGGA,103016.000,4540.3662,N,01156.0213,E,1,24,0.4,44.9,M,47.1,M,,*67

1614162616000,$PSAMSA,103016.000,4540.3662,N,01156.0213,E,0,M,,*6B

1614162616000,$GPGLL,4540.3662,N,01156.0213,E,103016.000,A,A*5B

1614162616000,$GPVTG,0.0,T,,M,0.3,N,0.6,K,A*08

1614162616000,$GPGSV,3,1,12,10,13,320,29,12,23,222,33,13,52,147,33,14,26,051,32*72

1614162616000,$GPGSV,3,2,12,15,69,231,45,17,37,089,38,19,33,121,39,20,20,286,33*75

1614162616000,$GPGSV,3,3,12,23,25,289,39,24,53,292,44,28,33,050,29,30,04,091,20*75

1614162616000,$GLGSV,2,1,06,65,17,331,39,71,48,204,42,72,53,297,41,73,61,026,36*6C

1614162616000,$GLGSV,2,2,06,74,50,276,41,75,02,252,23*67

1614162616000,$GAGSV,2,1,06,101,21,238,41,104,21,315,31,115,05,081,32,119,66,256,32*60

1614162616000,$GAGSV,2,2,06,121,72,246,38,127,50,053,30*66

1614162616000,$BDGSV,2,1,05,219,42,227,46,222,34,298,32,227,20,114,34,228,20,060,32*6B

1614162616000,$BDGSV,2,2,05,236,39,267,42*65

1614162616000,$GPGSA,A,3,15,24,13,17,28,19,14,23,12,20,10,,1.0,0.4,0.8*3F

1614162616000,$GNGSA,A,3,71,72,73,74,,,,,,,,,1.0,0.4,0.8*25

1614162616000,$GAGSA,A,3,101,104,115,119,121,127,,,,,,,1.0,0.4,0.8*21

1614162616000,$BDGSA,A,3,219,227,236,,,,,,,,,,1.0,0.4,0.8*14

1614162616000,$GPRMC,103016.000,A,4540.3662,N,01156.0213,E,0.3,0.0,240221,,,A*68

1614162616000,$PSAMCLK,2146,29703400,24,9747818,185913,297034000*47

1614162616000,$PSAMCLK,2146,29703400,24,9747818,185913,297034000*47

1614162617000,$GPGGA,103017.000,4540.3658,N,01156.0216,E,1,22,0.6,41.1,M,47.1,M,,*63

1614162617000,$PSAMSA,103017.000,4540.3658,N,01156.0216,E,0,M,,*66

1614162617000,$GPGLL,4540.3658,N,01156.0216,E,103017.000,A,A*56

1614162617000,$GPVTG,157.4,T,,M,0.6,N,1.1,K,A*0C

1614162617000,$GPGSV,3,1,12,10,13,320,29,12,23,222,33,13,52,147,33,14,26,051,32*72

1614162617000,$GPGSV,3,2,12,15,69,231,45,17,37,089,37,19,33,121,40,20,20,286,32*75

1614162617000,$GPGSV,3,3,12,23,25,289,39,24,53,292,44,28,33,050,29,30,04,091,19*7F

1614162617000,$GLGSV,2,1,07,65,17,331,37,71,48,204,42,72,53,297,40,73,61,026,36*62

1614162617000,$GLGSV,2,2,07,74,50,276,41,75,02,252,21,80,15,059,26*50

1614162617000,$GAGSV,2,1,06,101,21,238,41,104,21,315,31,115,05,081,32,119,66,256,32*60

1614162617000,$GAGSV,2,2,06,121,72,246,38,127,50,053,30*66

1614162617000,$BDGSV,2,1,05,219,42,227,46,222,34,298,30,227,20,114,35,228,20,060,31*6B

1614162617000,$BDGSV,2,2,05,236,39,267,42*65

1614162617000,$GPGSA,A,3,15,24,13,17,28,19,14,23,12,20,,,1.0,0.6,0.8*3C

1614162617000,$GNGSA,A,3,71,73,74,,,,,,,,,,1.0,0.6,0.8*22

1614162617000,$GAGSA,A,3,101,104,115,119,121,127,,,,,,,1.0,0.6,0.8*23

1614162617000,$BDGSA,A,3,219,227,236,,,,,,,,,,1.0,0.6,0.8*16

1614162617000,$GPRMC,103017.000,A,4540.3658,N,01156.0216,E,0.6,157.4,240221,,,A*67

1614162617000,$PSAMCLK,2146,29703500,22,9747936,61866,297035000*74

1614162617000,$PSAMCLK,2146,29703500,22,9747936,61866,297035000*74

1614162618000,$GPGGA,103018.000,4540.3658,N,01156.0214,E,1,24,0.4,39.8,M,47.1,M,,*6C

1614162618000,$PSAMSA,103018.000,4540.3658,N,01156.0214,E,0,M,,*6B

1614162618000,$GPGLL,4540.3658,N,01156.0214,E,103018.000,A,A*5B

1614162618000,$GPVTG,157.9,T,,M,0.0,N,0.0,K,A*07

1614162618000,$GPGSV,3,1,12,10,13,320,29,12,23,222,32,13,52,147,33,14,26,051,32*73

1614162618000,$GPGSV,3,2,12,15,69,231,44,17,37,089,36,19,33,121,40,20,20,286,32*75

1614162618000,$GPGSV,3,3,12,23,25,289,38,24,53,292,43,28,33,050,29,30,04,091,17*77

1614162618000,$GLGSV,2,1,07,65,17,331,36,71,48,204,42,72,53,297,39,73,61,026,36*6D

1614162618000,$GLGSV,2,2,07,74,50,276,41,75,02,252,20,80,15,059,25*52

1614162618000,$GAGSV,2,1,06,101,21,238,41,104,21,315,30,115,05,081,32,119,66,256,32*61

1614162618000,$GAGSV,2,2,06,121,72,246,38,127,50,053,30*66

1614162618000,$BDGSV,2,1,07,210,20,052,23,219,42,227,46,220,12,182,20,222,34,298,29*65

1614162618000,$BDGSV,2,2,07,227,20,114,35,228,20,060,30,236,39,267,42*6F

1614162618000,$GPGSA,A,3,15,24,13,17,28,19,14,23,12,20,10,,1.0,0.4,0.8*3F

1614162618000,$GNGSA,A,3,71,72,73,74,,,,,,,,,1.0,0.4,0.8*25

1614162618000,$GAGSA,A,3,101,104,115,119,121,127,,,,,,,1.0,0.4,0.8*21

1614162618000,$BDGSA,A,3,219,227,236,,,,,,,,,,1.0,0.4,0.8*14

1614162618000,$GPRMC,103018.000,A,4540.3658,N,01156.0214,E,0.0,157.9,240221,,,A*61

1614162618000,$PSAMCLK,2146,29703600,24,9748021,123735,297036000*4C

1614162618000,$PSAMCLK,2146,29703600,24,9748021,123735,297036000*4C

1614162619000,$GPGGA,103019.000,4540.3658,N,01156.0214,E,1,22,0.6,39.8,M,47.1,M,,*69

1614162619000,$PSAMSA,103019.000,4540.3658,N,01156.0214,E,1,M,,*6B

1614162619000,$GPGLL,4540.3658,N,01156.0214,E,103019.000,A,A*5A

1614162619000,$GPVTG,157.8,T,,M,0.0,N,0.0,K,A*06

1614162619000,$GPGSV,3,1,12,10,13,320,28,12,23,222,32,13,52,147,36,14,26,051,31*74

1614162619000,$GPGSV,3,2,12,15,69,231,44,17,37,089,35,19,33,121,39,20,20,286,31*7B

1614162619000,$GPGSV,3,3,12,23,25,289,37,24,53,292,42,28,33,050,29,30,04,091,16*78

1614162619000,$GLGSV,2,1,07,65,17,331,34,71,48,204,42,72,53,297,38,73,61,026,36*6E

1614162619000,$GLGSV,2,2,07,74,50,276,40,75,02,252,18,80,15,059,23*5E

1614162619000,$GAGSV,2,1,06,101,21,238,40,104,21,315,30,115,05,081,32,119,66,256,32*60

1614162619000,$GAGSV,2,2,06,121,72,246,38,127,50,053,30*66

1614162619000,$BDGSV,2,1,07,210,20,052,23,219,42,227,46,220,12,182,20,222,34,298,27*6B

1614162619000,$BDGSV,2,2,07,227,20,114,34,228,20,060,28,236,39,267,42*67

1614162619000,$GPGSA,A,3,15,24,13,17,28,19,14,23,12,20,,,1.0,0.6,0.8*3C

1614162619000,$GNGSA,A,3,71,72,73,74,,,,,,,,,1.0,0.6,0.8*27

1614162619000,$GAGSA,A,3,101,115,119,121,127,,,,,,,,1.0,0.6,0.8*16

1614162619000,$BDGSA,A,3,219,227,236,,,,,,,,,,1.0,0.6,0.8*16

1614162619000,$GPRMC,103019.000,A,4540.3658,N,01156.0214,E,0.0,157.8,240221,,,A*61

1614162619000,$PSAMCLK,2146,29703700,22,9748022,185611,297037000*42

1614162619000,$PSAMCLK,2146,29703700,22,9748022,185611,297037000*42

1614162620000,$GPGGA,103020.000,4540.3658,N,01156.0214,E,1,22,0.6,39.8,M,47.1,M,,*63

1614162620000,$PSAMSA,103020.000,4540.3658,N,01156.0214,E,1,M,,*61

1614162620000,$GPGLL,4540.3658,N,01156.0214,E,103020.000,A,A*50

1614162620000,$GPVTG,157.7,T,,M,0.0,N,0.0,K,A*09

1614162620000,$GPGSV,3,1,12,10,13,320,27,12,23,222,31,13,52,147,39,14,26,051,31*77

1614162620000,$GPGSV,3,2,12,15,69,231,43,17,37,089,34,19,33,121,39,20,20,286,31*7D

1614162620000,$GPGSV,3,3,12,23,25,289,36,24,53,292,42,28,33,050,29,30,04,091,14*7B

1614162620000,$GLGSV,2,1,07,65,17,331,33,71,48,204,42,72,53,297,37,73,61,026,35*65

1614162620000,$GLGSV,2,2,07,74,50,276,39,75,02,252,17,80,15,059,23*5F

1614162620000,$GAGSV,2,1,06,101,21,238,40,104,21,315,29,115,05,081,32,119,66,256,32*68

1614162620000,$GAGSV,2,2,06,121,72,246,37,127,50,053,29*61

1614162620000,$BDGSV,2,1,07,210,20,052,22,219,42,227,45,220,12,182,20,222,34,298,26*68

1614162620000,$BDGSV,2,2,07,227,20,114,34,228,20,060,27,236,39,267,41*6B

1614162620000,$GPGSA,A,3,15,24,13,17,28,19,14,23,12,,,,1.0,0.6,0.8*3E

1614162620000,$GNGSA,A,3,71,72,73,74,,,,,,,,,1.0,0.6,0.8*27

1614162620000,$GAGSA,A,3,101,104,115,119,121,127,,,,,,,1.0,0.6,0.8*23

1614162620000,$BDGSA,A,3,219,227,236,,,,,,,,,,1.0,0.6,0.8*16

1614162620000,$GPRMC,103020.000,A,4540.3658,N,01156.0214,E,0.0,157.7,240221,,,A*64

1614162620000,$PSAMCLK,2146,29703800,22,9748071,247487,297038000*44

1614162620000,$PSAMCLK,2146,29703800,22,9748071,247487,297038000*44

1614162621000,$GPGGA,103021.000,4540.3658,N,01156.0214,E,1,24,0.4,39.8,M,47.1,M,,*66

1614162621000,$PSAMSA,103021.000,4540.3658,N,01156.0214,E,1,M,,*60

1614162621000,$GPGLL,4540.3658,N,01156.0214,E,103021.000,A,A*51

1614162621000,$GPVTG,157.7,T,,M,0.0,N,0.0,K,A*09

1614162621000,$GPGSV,3,1,12,10,13,320,25,12,23,222,31,13,52,147,39,14,26,051,30*74

1614162621000,$GPGSV,3,2,12,15,69,231,43,17,37,089,33,19,33,121,39,20,20,286,30*7B

1614162621000,$GPGSV,3,3,12,23,25,289,36,24,53,292,41,28,33,050,29,30,04,091,14*78

1614162621000,$GLGSV,2,1,07,65,17,331,31,71,48,204,42,72,53,297,36,73,61,026,34*67

1614162621000,$GLGSV,2,2,07,74,51,276,39,75,02,253,15,80,15,059,24*5A

1614162621000,$GAGSV,2,1,06,101,21,238,39,104,21,315,28,115,05,081,32,119,66,256,31*64

1614162621000,$GAGSV,2,2,06,121,72,246,37,127,50,053,29*61

1614162621000,$BDGSV,2,1,07,210,20,052,22,219,42,227,45,220,12,182,20,222,34,298,24*6A

1614162621000,$BDGSV,2,2,07,227,20,114,34,228,20,060,25,236,39,267,41*69

1614162621000,$GPGSA,A,3,15,24,13,17,28,19,14,23,12,20,,,1.0,0.4,0.8*3E

1614162621000,$GNGSA,A,3,71,72,73,74,,,,,,,,,1.0,0.4,0.8*25

1614162621000,$GAGSA,A,3,101,104,115,119,121,127,,,,,,,1.0,0.4,0.8*21

1614162621000,$BDGSA,A,3,219,220,227,236,,,,,,,,,1.0,0.4,0.8*24

1614162621000,$GPRMC,103021.000,A,4540.3658,N,01156.0214,E,0.0,157.7,240221,,,A*65

1614162621000,$PSAMCLK,2146,29703900,24,9748088,309363,297039000*42

1614162621000,$PSAMCLK,2146,29703900,24,9748088,309363,297039000*42

1614162622000,$GPGGA,103022.000,4540.3658,N,01156.0214,E,1,24,0.4,39.8,M,47.1,M,,*65

1614162622000,$PSAMSA,103022.000,4540.3658,N,01156.0214,E,1,M,,*63

1614162622000,$GPGLL,4540.3658,N,01156.0214,E,103022.000,A,A*52

1614162622000,$GPVTG,157.6,T,,M,0.0,N,0.0,K,A*08

1614162622000,$GPGSV,3,1,12,10,13,320,24,12,23,222,30,13,52,147,39,14,26,051,29*7C

1614162622000,$GPGSV,3,2,12,15,69,231,42,17,37,089,32,19,33,121,39,20,20,286,29*73

1614162622000,$GPGSV,3,3,12,23,25,289,35,24,53,292,40,28,33,050,29,30,04,091,13*7D

1614162622000,$GLGSV,2,1,07,65,17,331,30,71,48,204,42,72,53,297,35,73,61,026,34*65

1614162622000,$GLGSV,2,2,07,74,51,276,38,75,02,253,14,80,15,059,24*5A

1614162622000,$GAGSV,2,1,06,101,21,238,39,104,21,315,28,115,05,081,31,119,66,256,31*67

1614162622000,$GAGSV,2,2,06,121,72,246,37,127,50,053,29*61

1614162622000,$BDGSV,2,1,07,210,20,052,21,219,42,227,44,220,12,182,19,222,34,298,23*65

1614162622000,$BDGSV,2,2,07,227,20,114,34,228,20,060,24,236,39,267,41*68

1614162622000,$GPGSA,A,3,15,24,13,17,28,19,14,23,12,20,,,1.0,0.4,0.8*3E

1614162622000,$GNGSA,A,3,71,72,73,74,,,,,,,,,1.0,0.4,0.8*25

1614162622000,$GAGSA,A,3,101,104,115,119,121,127,,,,,,,1.0,0.4,0.8*21

1614162622000,$BDGSA,A,3,219,220,227,236,,,,,,,,,1.0,0.4,0.8*24

1614162622000,$GPRMC,103022.000,A,4540.3658,N,01156.0214,E,0.0,157.6,240221,,,A*67

1614162622000,$PSAMCLK,2146,29704000,24,9748079,371239,297040000*4D

1614162622000,$PSAMCLK,2146,29704000,24,9748079,371239,297040000*4D

1614162623000,$GPGGA,103023.000,4540.3658,N,01156.0214,E,1,24,0.4,39.8,M,47.1,M,,*64

1614162623000,$PSAMSA,103023.000,4540.3658,N,01156.0214,E,1,M,,*62

1614162623000,$GPGLL,4540.3658,N,01156.0214,E,103023.000,A,A*53

1614162623000,$GPVTG,157.6,T,,M,0.0,N,0.0,K,A*08

1614162623000,$GPGSV,3,1,12,10,13,320,22,12,23,222,30,13,52,147,39,14,26,051,29*7A

1614162623000,$GPGSV,3,2,12,15,69,231,42,17,37,089,31,19,33,121,38,20,20,286,29*71

1614162623000,$GPGSV,3,3,12,23,25,289,35,24,53,292,40,28,33,050,29,30,04,091,12*7C

1614162623000,$GLGSV,2,1,07,65,17,331,28,71,48,204,42,72,53,297,34,73,61,026,33*6A

1614162623000,$GLGSV,2,2,07,74,51,276,38,75,02,253,14,80,15,059,24*5A

1614162623000,$GAGSV,2,1,06,101,21,238,38,104,21,315,27,115,05,081,31,119,66,256,31*69

1614162623000,$GAGSV,2,2,06,121,72,246,37,127,50,053,29*61

1614162623000,$BDGSV,2,1,07,210,20,052,19,219,42,227,44,220,12,182,19,222,34,298,21*6C

1614162623000,$BDGSV,2,2,07,227,20,114,34,228,20,060,22,236,39,267,41*6E

1614162623000,$GPGSA,A,3,15,24,13,17,28,19,14,23,12,20,,,1.0,0.4,0.8*3E

1614162623000,$GNGSA,A,3,71,72,73,74,,,,,,,,,1.0,0.4,0.8*25

1614162623000,$GAGSA,A,3,101,104,115,119,121,127,,,,,,,1.0,0.4,0.8*21

1614162623000,$BDGSA,A,3,219,220,227,236,,,,,,,,,1.0,0.4,0.8*24

1614162623000,$GPRMC,103023.000,A,4540.3658,N,01156.0214,E,0.0,157.6,240221,,,A*66

1614162623000,$PSAMCLK,2146,29704100,24,9748049,433115,297041000*42

1614162623000,$PSAMCLK,2146,29704100,24,9748049,433115,297041000*42

1614162624000,$GPGGA,103024.000,4540.3658,N,01156.0214,E,1,24,0.4,39.8,M,47.1,M,,*63

1614162624000,$PSAMSA,103024.000,4540.3658,N,01156.0214,E,1,M,,*65

1614162624000,$GPGLL,4540.3658,N,01156.0214,E,103024.000,A,A*54

1614162624000,$GPVTG,157.6,T,,M,0.0,N,0.0,K,A*08

1614162624000,$GPGSV,3,1,11,10,13,320,21,12,23,222,29,13,52,147,40,14,26,051,28*7D

1614162624000,$GPGSV,3,2,11,15,69,231,42,17,37,089,30,19,33,121,38,20,20,286,28*72

1614162624000,$GPGSV,3,3,11,23,25,289,34,24,53,292,39,28,33,050,28*4D

1614162624000,$GLGSV,2,1,07,65,17,331,27,71,48,204,42,72,53,297,34,73,61,026,33*65

1614162624000,$GLGSV,2,2,07,74,51,276,37,75,02,253,13,80,15,059,24*52

1614162624000,$GAGSV,2,1,06,101,21,238,38,104,21,315,26,115,05,081,31,119,66,256,31*68

1614162624000,$GAGSV,2,2,06,121,72,246,37,127,50,053,29*61

1614162624000,$BDGSV,2,1,07,210,20,052,18,219,42,227,43,220,12,182,19,222,34,298,20*6B

1614162624000,$BDGSV,2,2,07,227,20,114,34,228,20,060,21,236,39,267,40*6C

1614162624000,$GPGSA,A,3,15,24,13,17,28,19,14,23,12,20,,,1.0,0.4,0.8*3E

1614162624000,$GNGSA,A,3,71,72,73,74,,,,,,,,,1.0,0.4,0.8*25

1614162624000,$GAGSA,A,3,101,104,115,119,121,127,,,,,,,1.0,0.4,0.8*21

1614162624000,$BDGSA,A,3,219,220,227,236,,,,,,,,,1.0,0.4,0.8*24

1614162624000,$GPRMC,103024.000,A,4540.3658,N,01156.0214,E,0.0,157.6,240221,,,A*61

1614162624000,$PSAMCLK,2146,29704200,24,9748022,494990,297042000*47

1614162624000,$PSAMCLK,2146,29704200,24,9748022,494990,297042000*47

1614162625000,$GPGGA,103025.000,4540.3658,N,01156.0214,E,1,23,0.6,39.8,M,47.1,M,,*67

1614162625000,$PSAMSA,103025.000,4540.3658,N,01156.0214,E,1,M,,*64

1614162625000,$GPGLL,4540.3658,N,01156.0214,E,103025.000,A,A*55

1614162625000,$GPVTG,157.6,T,,M,0.0,N,0.0,K,A*08

1614162625000,$GPGSV,3,1,11,10,13,320,19,12,23,222,29,13,52,147,40,14,26,051,28*76

1614162625000,$GPGSV,3,2,11,15,69,231,41,17,37,089,29,19,33,121,38,20,20,286,28*79

1614162625000,$GPGSV,3,3,11,23,25,289,34,24,53,292,39,28,33,050,28*4D

1614162625000,$GLGSV,2,1,07,65,17,331,25,71,48,204,42,72,53,297,33,73,61,026,32*61

1614162625000,$GLGSV,2,2,07,74,51,276,37,75,02,253,12,80,15,059,24*53

1614162625000,$GAGSV,2,1,06,101,21,238,37,104,21,315,26,115,05,081,31,119,66,256,31*67

1614162625000,$GAGSV,2,2,06,121,72,246,37,127,50,053,29*61

1614162625000,$BDGSV,2,1,07,210,20,052,16,219,42,227,43,220,12,182,19,222,34,298,18*6E

1614162625000,$BDGSV,2,2,07,227,20,114,34,228,20,060,19,236,39,267,40*67

1614162625000,$GPGSA,A,3,15,24,13,17,28,19,23,12,20,,,,1.0,0.6,0.8*39

1614162625000,$GNGSA,A,3,71,72,73,74,,,,,,,,,1.0,0.6,0.8*27

1614162625000,$GAGSA,A,3,101,104,115,119,121,127,,,,,,,1.0,0.6,0.8*23

1614162625000,$BDGSA,A,3,219,220,227,236,,,,,,,,,1.0,0.6,0.8*26

1614162625000,$GPRMC,103025.000,A,4540.3658,N,01156.0214,E,0.0,157.6,240221,,,A*60

1614162625000,$PSAMCLK,2146,29704300,23,9748000,556865,297043000*44

1614162625000,$PSAMCLK,2146,29704300,23,9748000,556865,297043000*44

1614162626000,$GPGGA,103026.000,4540.3658,N,01156.0214,E,1,24,0.4,39.8,M,47.1,M,,*61

1614162626000,$PSAMSA,103026.000,4540.3658,N,01156.0214,E,1,M,,*67

1614162626000,$GPGLL,4540.3658,N,01156.0214,E,103026.000,A,A*56

1614162626000,$GPVTG,157.6,T,,M,0.0,N,0.0,K,A*08

1614162626000,$GPGSV,3,1,11,10,13,320,18,12,23,222,29,13,52,147,40,14,26,051,28*77

1614162626000,$GPGSV,3,2,11,15,69,231,41,17,37,089,28,19,33,121,37,20,20,286,28*77

1614162626000,$GPGSV,3,3,11,23,25,289,33,24,53,292,38,28,33,050,28*4B

1614162626000,$GLGSV,2,1,07,65,17,331,24,71,48,204,42,72,53,297,33,73,61,026,32*60

1614162626000,$GLGSV,2,2,07,74,51,276,36,80,15,059,24,82,19,043,22*50

1614162626000,$GAGSV,2,1,06,101,21,238,37,104,21,315,25,115,05,081,31,119,66,256,31*64

1614162626000,$GAGSV,2,2,06,121,72,246,37,127,50,053,29*61

1614162626000,$BDGSV,2,1,07,210,20,052,15,219,42,227,43,220,12,182,19,222,34,298,17*62

1614162626000,$BDGSV,2,2,07,227,20,114,34,228,20,060,18,236,39,267,40*66

1614162626000,$GPGSA,A,3,15,24,13,17,28,19,14,23,12,20,,,1.0,0.4,0.8*3E

1614162626000,$GNGSA,A,3,71,72,73,74,,,,,,,,,1.0,0.4,0.8*25

1614162626000,$GAGSA,A,3,101,104,115,119,121,127,,,,,,,1.0,0.4,0.8*21

1614162626000,$BDGSA,A,3,219,220,227,236,,,,,,,,,1.0,0.4,0.8*24

1614162626000,$GPRMC,103026.000,A,4540.3658,N,01156.0214,E,0.0,157.6,240221,,,A*63

1614162626000,$PSAMCLK,2146,29704400,24,9747977,618741,297044000*45

1614162626000,$PSAMCLK,2146,29704400,24,9747977,618741,297044000*45

1614162627000,$GPGGA,103027.000,4540.3658,N,01156.0214,E,1,23,0.6,39.8,M,47.1,M,,*65

1614162627000,$PSAMSA,103027.000,4540.3658,N,01156.0214,E,1,M,,*66

1614162627000,$GPGLL,4540.3658,N,01156.0214,E,103027.000,A,A*57

1614162627000,$GPVTG,157.6,T,,M,0.0,N,0.0,K,A*08

1614162627000,$GPGSV,3,1,11,10,13,320,16,12,23,222,28,13,52,147,40,14,26,051,27*77

1614162627000,$GPGSV,3,2,11,15,69,231,41,17,37,089,27,19,33,121,37,20,20,286,27*77

1614162627000,$GPGSV,3,3,11,23,25,289,33,24,53,292,38,28,33,050,28*4B

1614162627000,$GLGSV,2,1,07,65,17,331,22,71,48,204,42,72,53,297,32,73,60,026,32*66

1614162627000,$GLGSV,2,2,07,74,51,276,36,80,15,059,24,82,19,043,22*50

1614162627000,$GAGSV,2,1,06,101,21,238,37,104,21,315,25,115,05,081,31,119,66,256,31*64

1614162627000,$GAGSV,2,2,06,121,72,246,37,127,50,053,28*60

1614162627000,$BDGSV,2,1,07,210,20,052,14,219,42,227,42,220,12,182,19,222,34,298,15*60

1614162627000,$BDGSV,2,2,07,227,20,114,34,228,20,060,16,236,39,267,40*68

1614162627000,$GPGSA,A,3,15,24,13,17,28,19,23,12,20,,,,1.0,0.6,0.8*39

1614162627000,$GNGSA,A,3,71,72,73,74,,,,,,,,,1.0,0.6,0.8*27

1614162627000,$GAGSA,A,3,101,104,115,119,121,127,,,,,,,1.0,0.6,0.8*23

1614162627000,$BDGSA,A,3,219,220,227,236,,,,,,,,,1.0,0.6,0.8*26

1614162627000,$GPRMC,103027.000,A,4540.3658,N,01156.0214,E,0.0,157.6,240221,,,A*62

1614162627000,$PSAMCLK,2146,29704500,23,9747959,680617,297045000*4D

1614162627000,$PSAMCLK,2146,29704500,23,9747959,680617,297045000*4D

1614162628000,$GPGGA,103028.000,4540.3658,N,01156.0214,E,1,22,0.6,39.8,M,47.1,M,,*6B

1614162628000,$PSAMSA,103028.000,4540.3658,N,01156.0214,E,1,M,,*69

1614162628000,$GPGLL,4540.3658,N,01156.0214,E,103028.000,A,A*58

1614162628000,$GPVTG,157.6,T,,M,0.0,N,0.0,K,A*08

1614162628000,$GPGSV,3,1,11,10,13,320,15,12,23,222,28,13,52,147,40,14,26,051,27*74

1614162628000,$GPGSV,3,2,11,15,69,231,40,17,37,089,27,19,33,121,36,20,20,286,27*77

1614162628000,$GPGSV,3,3,11,23,25,289,33,24,53,292,38,28,33,050,28*4B

1614162628000,$GLGSV,2,1,07,65,17,331,21,71,48,204,42,72,53,297,32,73,60,026,31*66

1614162628000,$GLGSV,2,2,07,74,51,276,36,80,15,059,24,82,19,043,21*53

1614162628000,$GAGSV,2,1,06,101,21,238,36,104,21,315,25,115,05,081,30,119,66,256,31*64

1614162628000,$GAGSV,2,2,06,121,72,246,36,127,50,053,28*61

1614162628000,$BDGSV,2,1,07,210,20,052,13,219,42,227,42,220,12,182,19,222,34,298,14*66

1614162628000,$BDGSV,2,2,07,227,20,114,33,228,20,060,15,236,39,267,39*62

1614162628000,$GPGSA,A,3,15,24,13,17,19,14,23,12,,,,,1.0,0.6,0.8*34

1614162628000,$GNGSA,A,3,71,72,73,74,82,,,,,,,,1.0,0.6,0.8*2D

1614162628000,$GAGSA,A,3,101,104,115,119,121,,,,,,,,1.0,0.6,0.8*17

1614162628000,$BDGSA,A,3,219,220,227,236,,,,,,,,,1.0,0.6,0.8*26

1614162628000,$GPRMC,103028.000,A,4540.3658,N,01156.0214,E,0.0,157.6,240221,,,A*6D

1614162628000,$PSAMCLK,2146,29704600,22,9747949,742492,297046000*4D

1614162628000,$PSAMCLK,2146,29704600,22,9747949,742492,297046000*4D

1614162629000,$GPGGA,103029.000,4540.3658,N,01156.0214,E,1,23,0.4,39.8,M,47.1,M,,*69

1614162629000,$PSAMSA,103029.000,4540.3658,N,01156.0214,E,1,M,,*68

1614162629000,$GPGLL,4540.3658,N,01156.0214,E,103029.000,A,A*59

1614162629000,$GPVTG,157.6,T,,M,0.0,N,0.0,K,A*08

1614162629000,$GPGSV,3,1,11,10,13,320,14,12,23,222,28,13,52,147,40,14,26,051,27*75

1614162629000,$GPGSV,3,2,11,15,69,231,40,17,37,089,26,19,33,121,36,20,20,286,27*76

1614162629000,$GPGSV,3,3,11,23,25,289,32,24,53,292,37,28,33,050,28*45

1614162629000,$GLGSV,2,1,07,65,17,331,19,71,48,204,42,72,53,297,31,73,60,026,31*6E

1614162629000,$GLGSV,2,2,07,74,51,276,35,80,15,059,24,82,19,043,21*50

1614162629000,$GAGSV,2,1,06,101,21,238,36,104,21,315,24,115,05,081,30,119,66,256,30*64

1614162629000,$GAGSV,2,2,06,121,72,246,36,127,50,053,28*61

1614162629000,$BDGSV,2,1,07,210,20,052,12,219,42,227,42,220,12,182,19,222,34,298,13*60

1614162629000,$BDGSV,2,2,07,227,20,114,33,228,20,060,14,236,39,267,39*63

1614162629000,$GPGSA,A,3,15,24,13,17,28,19,23,12,20,,,,1.0,0.4,0.8*3B

1614162629000,$GNGSA,A,3,71,72,73,74,82,,,,,,,,1.0,0.4,0.8*2F

1614162629000,$GAGSA,A,3,101,104,115,119,121,,,,,,,,1.0,0.4,0.8*15

1614162629000,$BDGSA,A,3,219,220,227,236,,,,,,,,,1.0,0.4,0.8*24

1614162629000,$GPRMC,103029.000,A,4540.3658,N,01156.0214,E,0.0,157.6,240221,,,A*6C

1614162629000,$PSAMCLK,2146,29704700,23,9747928,804368,297047000*44

1614162629000,$PSAMCLK,2146,29704700,23,9747928,804368,297047000*44

1614162630000,$GPGGA,103030.000,4540.3658,N,01156.0214,E,1,23,0.4,39.8,M,47.1,M,,*61

1614162630000,$PSAMSA,103030.000,4540.3658,N,01156.0214,E,1,M,,*60

1614162630000,$GPGLL,4540.3658,N,01156.0214,E,103030.000,A,A*51

1614162630000,$GPVTG,157.6,T,,M,0.0,N,0.0,K,A*08

1614162630000,$GPGSV,3,1,11,10,13,320,13,12,23,222,28,13,52,147,40,14,26,051,26*73

1614162630000,$GPGSV,3,2,11,15,69,231,40,17,37,089,26,19,33,121,35,20,20,286,26*74

1614162630000,$GPGSV,3,3,11,23,25,289,32,24,53,292,37,28,33,050,28*45

1614162630000,$GLGSV,2,1,07,65,17,331,18,71,48,204,42,72,53,297,31,73,60,026,31*6F

1614162630000,$GLGSV,2,2,07,74,51,276,35,80,15,059,24,82,19,043,21*50

1614162630000,$GAGSV,2,1,06,101,21,238,36,104,21,315,24,115,05,081,30,119,66,256,30*64

1614162630000,$GAGSV,2,2,06,121,72,246,36,127,50,053,28*61

1614162630000,$BDGSV,2,1,06,219,42,227,41,220,12,182,19,222,34,298,13,227,20,114,33*66

1614162630000,$BDGSV,2,2,06,228,20,060,13,236,39,267,39*64

1614162630000,$GPGSA,A,3,15,24,13,17,28,19,14,23,12,20,,,1.0,0.4,0.8*3E

1614162630000,$GNGSA,A,3,71,72,73,74,,,,,,,,,1.0,0.4,0.8*25

1614162630000,$GAGSA,A,3,101,104,115,119,121,,,,,,,,1.0,0.4,0.8*15

1614162630000,$BDGSA,A,3,219,220,227,236,,,,,,,,,1.0,0.4,0.8*24

1614162630000,$GPRMC,103030.000,A,4540.3658,N,01156.0214,E,0.0,157.6,240221,,,A*64

1614162630000,$PSAMCLK,2146,29704800,23,9747918,866243,297048000*4B

1614162630000,$PSAMCLK,2146,29704800,23,9747918,866243,297048000*4B

1614162631000,$GPGGA,103031.000,4540.3658,N,01156.0214,E,1,24,0.4,39.8,M,47.1,M,,*67

1614162631000,$PSAMSA,103031.000,4540.3658,N,01156.0214,E,1,M,,*61

1614162631000,$GPGLL,4540.3658,N,01156.0214,E,103031.000,A,A*50

1614162631000,$GPVTG,157.6,T,,M,0.0,N,0.0,K,A*08

1614162631000,$GPGSV,3,1,11,10,13,320,13,12,23,222,27,13,52,147,40,14,26,051,26*7C

1614162631000,$GPGSV,3,2,11,15,69,231,39,17,37,089,25,19,33,121,35,20,20,286,26*79

1614162631000,$GPGSV,3,3,11,23,25,289,32,24,53,292,37,28,33,050,28*45

1614162631000,$GLGSV,2,1,07,65,17,331,16,71,48,204,42,72,53,297,30,73,60,026,30*61

1614162631000,$GLGSV,2,2,07,74,51,276,35,80,15,059,24,82,19,043,20*51

1614162631000,$GAGSV,2,1,06,101,21,238,35,104,21,315,23,115,05,081,30,119,66,256,30*60

1614162631000,$GAGSV,2,2,06,121,72,246,36,127,50,053,28*61

1614162631000,$BDGSV,2,1,05,219,42,227,41,220,12,182,19,227,20,114,33,228,20,060,13*6F

1614162631000,$BDGSV,2,2,05,236,39,267,39*69

1614162631000,$GPGSA,A,3,15,24,13,17,28,19,14,23,12,20,,,1.0,0.4,0.8*3E

1614162631000,$GNGSA,A,3,71,72,73,74,,,,,,,,,1.0,0.4,0.8*25

1614162631000,$GAGSA,A,3,101,104,115,119,121,127,,,,,,,1.0,0.4,0.8*21

1614162631000,$BDGSA,A,3,219,220,227,236,,,,,,,,,1.0,0.4,0.8*24

1614162631000,$GPRMC,103031.000,A,4540.3658,N,01156.0214,E,0.0,157.6,240221,,,A*65

1614162631000,$PSAMCLK,2146,29704900,24,9747893,928119,297049000*49

1614162631000,$PSAMCLK,2146,29704900,24,9747893,928119,297049000*49

1614162632000,$GPGGA,103032.000,4540.3658,N,01156.0214,E,1,24,0.4,39.8,M,47.1,M,,*64

1614162632000,$PSAMSA,103032.000,4540.3658,N,01156.0214,E,1,M,,*62

1614162632000,$GPGLL,4540.3658,N,01156.0214,E,103032.000,A,A*53

1614162632000,$GPVTG,157.6,T,,M,0.0,N,0.0,K,A*08

1614162632000,$GPGSV,3,1,10,12,23,222,27,13,52,147,40,14,26,051,26,15,69,231,39*7C

1614162632000,$GPGSV,3,2,10,17,37,089,25,19,33,121,35,20,20,286,26,23,25,289,31*7E

1614162632000,$GPGSV,3,3,10,24,53,292,36,28,33,050,28*71

1614162632000,$GLGSV,2,1,07,65,17,331,15,71,48,204,42,72,53,297,30,73,60,026,30*62

1614162632000,$GLGSV,2,2,07,74,51,276,35,80,15,059,24,82,19,043,20*51

1614162632000,$GAGSV,2,1,06,101,21,238,35,104,21,315,23,115,05,081,30,119,66,256,30*60

1614162632000,$GAGSV,2,2,06,121,72,246,36,127,50,053,28*61

1614162632000,$BDGSV,2,1,05,219,42,227,41,220,12,182,19,227,20,114,33,228,20,060,12*6E

1614162632000,$BDGSV,2,2,05,236,39,267,38*68

1614162632000,$GPGSA,A,3,15,24,13,17,28,19,14,23,12,20,,,1.0,0.4,0.8*3E

1614162632000,$GNGSA,A,3,71,72,73,74,,,,,,,,,1.0,0.4,0.8*25

1614162632000,$GAGSA,A,3,101,104,115,119,121,127,,,,,,,1.0,0.4,0.8*21

1614162632000,$BDGSA,A,3,219,220,227,236,,,,,,,,,1.0,0.4,0.8*24

1614162632000,$GPRMC,103032.000,A,4540.3658,N,01156.0214,E,0.0,157.6,240221,,,A*66

1614162632000,$PSAMCLK,2146,29705000,24,9747855,989993,297050000*42

1614162632000,$PSAMCLK,2146,29705000,24,9747855,989993,297050000*42

1614162633000,$GPGGA,103033.000,4540.3658,N,01156.0214,E,1,23,0.4,39.8,M,47.1,M,,*62

1614162633000,$PSAMSA,103033.000,4540.3658,N,01156.0214,E,1,M,,*63

1614162633000,$GPGLL,4540.3658,N,01156.0214,E,103033.000,A,A*52

1614162633000,$GPVTG,157.6,T,,M,0.0,N,0.0,K,A*08

1614162633000,$GPGSV,3,1,10,12,23,222,27,13,52,147,40,14,26,051,26,15,69,231,39*7C

1614162633000,$GPGSV,3,2,10,17,37,089,24,19,33,121,34,20,20,286,26,23,25,289,31*7E

1614162633000,$GPGSV,3,3,10,24,53,292,36,28,33,050,28*71

1614162633000,$GLGSV,2,1,07,65,17,331,14,71,48,204,42,72,53,297,30,73,60,026,30*63

1614162633000,$GLGSV,2,2,07,74,51,276,34,80,15,059,24,82,19,043,20*50

1614162633000,$GAGSV,2,1,06,101,21,238,35,104,21,315,23,115,05,081,29,119,66,256,30*68

1614162633000,$GAGSV,2,2,06,121,72,246,36,127,50,053,28*61

1614162633000,$BDGSV,1,1,04,219,42,227,41,220,12,182,19,227,20,114,33,236,39,267,38*66

1614162633000,$GPGSA,A,3,15,24,13,17,28,19,14,23,12,20,,,1.0,0.4,0.8*3E

1614162633000,$GNGSA,A,3,71,72,73,74,,,,,,,,,1.0,0.4,0.8*25

1614162633000,$GAGSA,A,3,101,104,119,121,127,,,,,,,,1.0,0.4,0.8*14

1614162633000,$BDGSA,A,3,219,220,227,236,,,,,,,,,1.0,0.4,0.8*24

1614162633000,$GPRMC,103033.000,A,4540.3658,N,01156.0214,E,0.0,157.6,240221,,,A*67

1614162633000,$PSAMCLK,2146,29705100,23,9747813,1051868,297051000*7F

1614162633000,$PSAMCLK,2146,29705100,23,9747813,1051868,297051000*7F

1614162634000,$GPGGA,103034.000,4540.3658,N,01156.0214,E,1,24,0.4,39.8,M,47.1,M,,*62

1614162634000,$PSAMSA,103034.000,4540.3658,N,01156.0214,E,1,M,,*64

1614162634000,$GPGLL,4540.3658,N,01156.0214,E,103034.000,A,A*55

1614162634000,$GPVTG,157.6,T,,M,0.0,N,0.0,K,A*08

1614162634000,$GPGSV,3,1,10,12,23,222,27,13,52,147,40,14,26,051,26,15,69,231,39*7C

1614162634000,$GPGSV,3,2,10,17,37,089,24,19,33,121,34,20,20,286,26,23,25,289,31*7E

1614162634000,$GPGSV,3,3,10,24,53,292,36,28,33,050,27*7E

1614162634000,$GLGSV,2,1,07,65,17,331,13,71,48,204,41,72,53,297,29,73,60,026,30*6F

1614162634000,$GLGSV,2,2,07,74,51,276,34,80,15,059,24,82,19,043,20*50

1614162634000,$GAGSV,2,1,06,101,21,238,35,104,21,315,22,115,05,081,29,119,66,256,30*69

1614162634000,$GAGSV,2,2,06,121,72,246,36,127,50,053,27*6E

1614162634000,$BDGSV,1,1,04,219,42,227,40,220,12,182,19,227,20,114,33,236,39,267,38*67

1614162634000,$GPGSA,A,3,15,24,13,17,28,19,14,23,12,20,,,1.0,0.4,0.8*3E

1614162634000,$GNGSA,A,3,71,72,73,74,,,,,,,,,1.0,0.4,0.8*25

1614162634000,$GAGSA,A,3,101,104,115,119,121,127,,,,,,,1.0,0.4,0.8*21

1614162634000,$BDGSA,A,3,219,220,227,236,,,,,,,,,1.0,0.4,0.8*24

1614162634000,$GPRMC,103034.000,A,4540.3658,N,01156.0214,E,0.0,157.6,240221,,,A*60

1614162634000,$PSAMCLK,2146,29705200,24,9747772,1113743,297052000*71

1614162634000,$PSAMCLK,2146,29705200,24,9747772,1113743,297052000*71

1614162635000,$GPGGA,103035.000,4540.3658,N,01156.0214,E,1,24,0.4,39.8,M,47.1,M,,*63

1614162635000,$PSAMSA,103035.000,4540.3658,N,01156.0214,E,1,M,,*65

1614162635000,$GPGLL,4540.3658,N,01156.0214,E,103035.000,A,A*54

1614162635000,$GPVTG,157.6,T,,M,0.0,N,0.0,K,A*08

1614162635000,$GPGSV,3,1,10,12,23,222,27,13,52,147,40,14,26,051,26,15,69,231,39*7C

1614162635000,$GPGSV,3,2,10,17,37,089,24,19,33,121,34,20,20,286,25,23,25,289,31*7D

1614162635000,$GPGSV,3,3,10,24,53,292,36,28,33,050,27*7E

1614162635000,$GLGSV,2,1,07,65,17,331,13,71,48,204,41,72,53,297,29,73,60,026,29*67

1614162635000,$GLGSV,2,2,07,74,51,276,34,80,15,059,24,82,19,043,19*5A

1614162635000,$GAGSV,2,1,06,101,21,238,35,104,21,315,22,115,05,081,29,119,66,256,30*69

1614162635000,$GAGSV,2,2,06,121,72,246,36,127,50,053,27*6E

1614162635000,$BDGSV,1,1,04,219,42,227,40,220,12,182,19,227,20,114,33,236,39,267,38*67

1614162635000,$GPGSA,A,3,15,24,13,17,28,19,14,23,12,20,,,1.0,0.4,0.8*3E

1614162635000,$GNGSA,A,3,71,72,73,74,,,,,,,,,1.0,0.4,0.8*25

1614162635000,$GAGSA,A,3,101,104,115,119,121,127,,,,,,,1.0,0.4,0.8*21

1614162635000,$BDGSA,A,3,219,220,227,236,,,,,,,,,1.0,0.4,0.8*24

1614162635000,$GPRMC,103035.000,A,4540.3658,N,01156.0214,E,0.0,157.6,240221,,,A*61

1614162635000,$PSAMCLK,2146,29705300,24,9747730,1175616,297053000*76

1614162635000,$PSAMCLK,2146,29705300,24,9747730,1175616,297053000*76

1614162636000,$GPGGA,103036.000,4540.3658,N,01156.0214,E,1,23,0.6,39.8,M,47.1,M,,*65

1614162636000,$PSAMSA,103036.000,4540.3658,N,01156.0214,E,0,M,,*67

1614162636000,$GPGLL,4540.3658,N,01156.0214,E,103036.000,A,A*57

1614162636000,$GPVTG,157.6,T,,M,0.0,N,0.0,K,A*08

1614162636000,$GPGSV,3,1,10,12,23,222,26,13,52,147,40,14,26,051,26,15,69,231,39*7D

1614162636000,$GPGSV,3,2,10,17,37,089,24,19,33,121,34,20,20,286,25,23,25,289,31*7D

1614162636000,$GPGSV,3,3,10,24,53,292,36,28,33,050,27*7E

1614162636000,$GLGSV,2,1,07,65,17,331,12,71,48,204,41,72,53,297,29,73,60,026,29*66

1614162636000,$GLGSV,2,2,07,74,51,276,34,80,15,059,24,82,19,043,19*5A

1614162636000,$GAGSV,2,1,06,101,21,238,34,104,21,315,22,115,05,081,29,119,66,256,30*68

1614162636000,$GAGSV,2,2,06,121,72,246,35,127,50,053,27*6D

1614162636000,$BDGSV,1,1,04,219,42,227,40,220,12,182,19,227,20,114,33,236,39,267,38*67

1614162636000,$GPGSA,A,3,15,24,13,17,28,19,14,23,12,20,,,1.0,0.6,0.8*3C

1614162636000,$GNGSA,A,3,71,72,73,74,82,,,,,,,,1.0,0.6,0.8*2D

1614162636000,$GAGSA,A,3,101,115,119,121,,,,,,,,,1.0,0.6,0.8*22

1614162636000,$BDGSA,A,3,219,220,227,236,,,,,,,,,1.0,0.6,0.8*26

1614162636000,$GPRMC,103036.000,A,4540.3658,N,01156.0214,E,0.0,157.6,240221,,,A*62

1614162636000,$PSAMCLK,2146,29705400,23,9747744,1237492,297054000*79

1614162636000,$PSAMCLK,2146,29705400,23,9747744,1237492,297054000*79

1614162637000,$GPGGA,103037.000,4540.3658,N,01156.0214,E,1,23,0.6,39.8,M,47.1,M,,*64

1614162637000,$PSAMSA,103037.000,4540.3658,N,01156.0214,E,1,M,,*67

1614162637000,$GPGLL,4540.3658,N,01156.0214,E,103037.000,A,A*56

1614162637000,$GPVTG,157.6,T,,M,0.0,N,0.0,K,A*08

1614162637000,$GPGSV,3,1,10,12,23,222,26,13,52,147,40,14,26,051,25,15,69,231,38*7F

1614162637000,$GPGSV,3,2,10,17,37,089,23,19,33,121,34,20,20,286,25,23,25,289,31*7A

1614162637000,$GPGSV,3,3,10,24,53,292,35,28,33,050,27*7D

1614162637000,$GLGSV,2,1,06,71,48,204,41,72,53,297,29,73,60,026,29,74,51,276,34*63

1614162637000,$GLGSV,2,2,06,80,15,059,24,82,19,043,19*68

1614162637000,$GAGSV,2,1,06,101,21,238,34,104,21,315,22,115,05,081,28,119,66,256,30*69

1614162637000,$GAGSV,2,2,06,121,72,246,35,127,50,053,27*6D

1614162637000,$BDGSV,1,1,04,219,42,227,40,220,12,182,19,227,20,114,33,236,39,267,38*67

1614162637000,$GPGSA,A,3,15,24,13,17,28,19,14,23,12,20,,,1.0,0.6,0.8*3C

1614162637000,$GNGSA,A,3,71,72,73,74,82,,,,,,,,1.0,0.6,0.8*2D

1614162637000,$GAGSA,A,3,101,104,115,119,121,,,,,,,,1.0,0.6,0.8*17

1614162637000,$BDGSA,A,3,219,227,236,,,,,,,,,,1.0,0.6,0.8*16

1614162637000,$GPRMC,103037.000,A,4540.3658,N,01156.0214,E,0.0,157.6,240221,,,A*63

1614162637000,$PSAMCLK,2146,29705500,23,9747714,1299366,297055000*74

1614162637000,$PSAMCLK,2146,29705500,23,9747714,1299366,297055000*74

1614162638000,$GPGGA,103038.000,4540.3658,N,01156.0214,E,1,23,0.6,39.8,M,47.1,M,,*6B

1614162638000,$PSAMSA,103038.000,4540.3658,N,01156.0214,E,1,M,,*68

1614162638000,$GPGLL,4540.3658,N,01156.0214,E,103038.000,A,A*59

1614162638000,$GPVTG,157.6,T,,M,0.0,N,0.0,K,A*08

1614162638000,$GPGSV,3,1,10,12,23,222,26,13,52,147,40,14,26,051,25,15,69,231,38*7F

1614162638000,$GPGSV,3,2,10,17,37,089,23,19,33,121,33,20,20,286,25,23,25,289,31*7D

1614162638000,$GPGSV,3,3,10,24,53,292,35,28,33,050,27*7D

1614162638000,$GLGSV,2,1,06,71,48,204,41,72,53,297,28,73,60,026,29,74,51,276,34*62

1614162638000,$GLGSV,2,2,06,80,15,059,24,82,19,043,19*68

1614162638000,$GAGSV,2,1,06,101,21,238,34,104,21,315,21,115,05,081,28,119,66,256,30*6A

1614162638000,$GAGSV,2,2,06,121,72,246,35,127,50,053,27*6D

1614162638000,$BDGSV,1,1,04,219,42,227,40,220,12,182,19,227,20,114,33,236,39,267,37*68

1614162638000,$GPGSA,A,3,15,24,13,17,28,19,14,23,12,20,,,1.0,0.6,0.8*3C

1614162638000,$GNGSA,A,3,71,72,73,74,82,,,,,,,,1.0,0.6,0.8*2D

1614162638000,$GAGSA,A,3,101,115,119,121,,,,,,,,,1.0,0.6,0.8*22

1614162638000,$BDGSA,A,3,219,220,227,236,,,,,,,,,1.0,0.6,0.8*26

1614162638000,$GPRMC,103038.000,A,4540.3658,N,01156.0214,E,0.0,157.6,240221,,,A*6C

1614162638000,$PSAMCLK,2146,29705600,23,9747662,1361239,297056000*79

1614162638000,$PSAMCLK,2146,29705600,23,9747662,1361239,297056000*79

1614162639000,$GPGGA,103039.000,4540.3658,N,01156.0214,E,1,22,0.6,39.8,M,47.1,M,,*6B

1614162639000,$PSAMSA,103039.000,4540.3658,N,01156.0214,E,1,M,,*69

1614162639000,$GPGLL,4540.3658,N,01156.0214,E,103039.000,A,A*58

1614162639000,$GPVTG,157.6,T,,M,0.0,N,0.0,K,A*08

1614162639000,$GPGSV,3,1,10,12,23,222,26,13,52,147,40,14,26,051,25,15,69,231,38*7F

1614162639000,$GPGSV,3,2,10,17,37,089,24,19,33,121,33,20,20,286,25,23,25,289,30*7B

1614162639000,$GPGSV,3,3,10,24,53,292,35,28,33,050,27*7D

1614162639000,$GLGSV,2,1,06,71,48,204,41,72,53,297,28,73,60,026,29,74,51,276,33*65

1614162639000,$GLGSV,2,2,06,80,15,059,24,82,19,043,19*68

1614162639000,$GAGSV,2,1,06,101,21,238,34,104,21,315,20,115,05,081,28,119,66,256,29*63

1614162639000,$GAGSV,2,2,06,121,72,246,35,127,50,053,27*6D

1614162639000,$BDGSV,1,1,04,219,42,227,40,220,12,182,19,227,20,114,33,236,39,267,37*68

1614162639000,$GPGSA,A,3,15,24,13,17,28,19,14,23,12,20,,,1.0,0.6,0.8*3C

1614162639000,$GNGSA,A,3,71,72,73,74,,,,,,,,,1.0,0.6,0.8*27

1614162639000,$GAGSA,A,3,101,115,119,121,,,,,,,,,1.0,0.6,0.8*22

1614162639000,$BDGSA,A,3,219,220,227,236,,,,,,,,,1.0,0.6,0.8*26

1614162639000,$GPRMC,103039.000,A,4540.3658,N,01156.0214,E,0.0,157.6,240221,,,A*6D

1614162639000,$PSAMCLK,2146,29705700,22,9747602,1423112,297057000*75

1614162639000,$PSAMCLK,2146,29705700,22,9747602,1423112,297057000*75

1614162640000,$GPGGA,103040.000,4540.3658,N,01156.0214,E,1,24,0.4,39.8,M,47.1,M,,*61

1614162640000,$PSAMSA,103040.000,4540.3658,N,01156.0214,E,1,M,,*67

1614162640000,$GPGLL,4540.3658,N,01156.0214,E,103040.000,A,A*56

1614162640000,$GPVTG,157.6,T,,M,0.0,N,0.0,K,A*08

1614162640000,$GPGSV,3,1,10,12,23,222,26,13,52,147,40,14,26,051,25,15,69,231,38*7F

1614162640000,$GPGSV,3,2,10,17,37,089,24,19,33,121,33,20,20,286,25,23,25,289,30*7B

1614162640000,$GPGSV,3,3,10,24,53,292,35,28,33,050,27*7D

1614162640000,$GLGSV,2,1,06,71,48,204,41,72,53,297,28,73,60,026,29,74,51,276,33*65

1614162640000,$GLGSV,2,2,06,80,15,059,24,82,19,043,19*68

1614162640000,$GAGSV,2,1,06,101,21,238,34,104,21,315,18,115,05,081,28,119,66,256,29*68

1614162640000,$GAGSV,2,2,06,121,72,246,35,127,50,053,27*6D

1614162640000,$BDGSV,1,1,04,219,42,227,40,220,12,182,19,227,20,114,33,236,39,267,37*68

1614162640000,$GPGSA,A,3,15,24,13,17,28,19,14,23,12,20,,,1.0,0.4,0.8*3E

1614162640000,$GNGSA,A,3,71,72,73,74,82,,,,,,,,1.0,0.4,0.8*2F

1614162640000,$GAGSA,A,3,101,115,119,121,127,,,,,,,,1.0,0.4,0.8*14

1614162640000,$BDGSA,A,3,219,220,227,236,,,,,,,,,1.0,0.4,0.8*24

1614162640000,$GPRMC,103040.000,A,4540.3658,N,01156.0214,E,0.0,157.6,240221,,,A*63

1614162640000,$PSAMCLK,2146,29705800,24,9747583,1484985,297058000*72

1614162640000,$PSAMCLK,2146,29705800,24,9747583,1484985,297058000*72

1614162641000,$GPGGA,103041.000,4540.3658,N,01156.0214,E,1,23,0.6,39.8,M,47.1,M,,*65

1614162641000,$PSAMSA,103041.000,4540.3658,N,01156.0214,E,1,M,,*66

1614162641000,$GPGLL,4540.3658,N,01156.0214,E,103041.000,A,A*57

1614162641000,$GPVTG,157.6,T,,M,0.0,N,0.0,K,A*08

1614162641000,$GPGSV,3,1,10,12,23,222,26,13,52,147,40,14,26,051,25,15,69,231,38*7F

1614162641000,$GPGSV,3,2,10,17,37,089,24,19,33,121,33,20,20,286,26,23,25,289,30*78

1614162641000,$GPGSV,3,3,10,24,53,292,35,28,33,050,27*7D

1614162641000,$GLGSV,2,1,07,65,17,331,19,71,48,204,41,72,53,297,28,73,60,026,29*6C

1614162641000,$GLGSV,2,2,07,74,51,276,33,80,15,059,24,82,19,043,19*5D

1614162641000,$GAGSV,2,1,06,101,21,238,34,104,21,315,17,115,05,081,28,119,66,256,29*67

1614162641000,$GAGSV,2,2,06,121,72,246,35,127,50,053,27*6D

1614162641000,$BDGSV,1,1,04,219,42,227,39,220,12,182,20,227,20,114,33,236,39,267,37*6C

1614162641000,$GPGSA,A,3,15,24,13,17,28,19,23,12,20,,,,1.0,0.6,0.8*39

1614162641000,$GNGSA,A,3,71,72,73,74,82,,,,,,,,1.0,0.6,0.8*2D

1614162641000,$GAGSA,A,3,101,115,119,121,127,,,,,,,,1.0,0.6,0.8*16

1614162641000,$BDGSA,A,3,219,220,227,236,,,,,,,,,1.0,0.6,0.8*26

1614162641000,$GPRMC,103041.000,A,4540.3658,N,01156.0214,E,0.0,157.6,240221,,,A*62

1614162641000,$PSAMCLK,2146,29705900,23,9747614,1546857,297059000*79

1614162641000,$PSAMCLK,2146,29705900,23,9747614,1546857,297059000*79

1614162642000,$GPGGA,103042.000,4540.3658,N,01156.0214,E,1,21,0.6,39.8,M,47.1,M,,*64

1614162642000,$PSAMSA,103042.000,4540.3658,N,01156.0214,E,1,M,,*65

1614162642000,$GPGLL,4540.3658,N,01156.0214,E,103042.000,A,A*54

1614162642000,$GPVTG,157.6,T,,M,0.0,N,0.0,K,A*08

1614162642000,$GPGSV,3,1,10,12,23,222,26,13,52,147,40,14,26,051,25,15,69,231,38*7F

1614162642000,$GPGSV,3,2,10,17,37,089,24,19,33,121,33,20,20,286,26,23,25,289,30*78

1614162642000,$GPGSV,3,3,10,24,53,292,35,28,33,050,26*7C

1614162642000,$GLGSV,2,1,07,65,17,331,18,71,48,204,41,72,53,297,28,73,60,026,29*6D

1614162642000,$GLGSV,2,2,07,74,51,276,33,80,15,059,24,82,19,043,19*5D

1614162642000,$GAGSV,2,1,06,101,21,238,33,104,21,315,15,115,05,081,27,119,66,256,29*6D

1614162642000,$GAGSV,2,2,06,121,72,246,35,127,50,053,27*6D

1614162642000,$BDGSV,1,1,04,219,42,227,39,220,12,182,20,227,20,114,32,236,39,267,37*6D

1614162642000,$GPGSA,A,3,15,24,13,17,19,14,23,12,20,,,,1.0,0.6,0.8*36

1614162642000,$GNGSA,A,3,71,72,73,74,82,,,,,,,,1.0,0.6,0.8*2D

1614162642000,$GAGSA,A,3,101,119,121,,,,,,,,,,1.0,0.6,0.8*17

1614162642000,$BDGSA,A,3,219,220,227,236,,,,,,,,,1.0,0.6,0.8*26

1614162642000,$GPRMC,103042.000,A,4540.3658,N,01156.0214,E,0.0,157.6,240221,,,A*61

1614162642000,$PSAMCLK,2146,29706000,21,9747636,1608730,297060000*7C

1614162642000,$PSAMCLK,2146,29706000,21,9747636,1608730,297060000*7C

1614162643000,$GPGGA,103043.000,4540.3658,N,01156.0214,E,1,23,0.6,39.8,M,47.1,M,,*67

1614162643000,$PSAMSA,103043.000,4540.3658,N,01156.0214,E,1,M,,*64

1614162643000,$GPGLL,4540.3658,N,01156.0214,E,103043.000,A,A*55

1614162643000,$GPVTG,157.6,T,,M,0.0,N,0.0,K,A*08

1614162643000,$GPGSV,3,1,10,12,23,222,25,13,52,147,40,14,26,051,25,15,69,231,38*7C

1614162643000,$GPGSV,3,2,10,17,37,089,25,19,33,121,33,20,20,286,26,23,25,289,30*79

1614162643000,$GPGSV,3,3,10,24,53,292,34,28,33,050,26*7D

1614162643000,$GLGSV,2,1,07,65,17,331,16,71,48,204,41,72,53,297,28,73,60,026,28*62

1614162643000,$GLGSV,2,2,07,74,51,276,33,80,15,059,24,82,19,043,19*5D

1614162643000,$GAGSV,2,1,06,101,21,238,33,104,21,315,14,115,05,081,27,119,66,256,29*6C

1614162643000,$GAGSV,2,2,06,121,72,246,35,127,50,053,26*6C

1614162643000,$BDGSV,1,1,04,219,42,227,39,220,12,182,20,227,20,114,32,236,39,267,37*6D

1614162643000,$GPGSA,A,3,15,24,13,17,19,14,23,12,20,,,,1.0,0.6,0.8*36

1614162643000,$GNGSA,A,3,71,72,73,74,82,,,,,,,,1.0,0.6,0.8*2D

1614162643000,$GAGSA,A,3,101,115,119,121,127,,,,,,,,1.0,0.6,0.8*16

1614162643000,$BDGSA,A,3,219,220,227,236,,,,,,,,,1.0,0.6,0.8*26

1614162643000,$GPRMC,103043.000,A,4540.3658,N,01156.0214,E,0.0,157.6,240221,,,A*60

1614162643000,$PSAMCLK,2146,29706100,23,9747642,1670603,297061000*73

1614162643000,$PSAMCLK,2146,29706100,23,9747642,1670603,297061000*73

1614162644000,$GPGGA,103044.000,4540.3658,N,01156.0214,E,1,23,0.6,39.8,M,47.1,M,,*60

1614162644000,$PSAMSA,103044.000,4540.3658,N,01156.0214,E,1,M,,*63

1614162644000,$GPGLL,4540.3658,N,01156.0214,E,103044.000,A,A*52

1614162644000,$GPVTG,157.6,T,,M,0.0,N,0.0,K,A*08

1614162644000,$GPGSV,3,1,10,12,23,222,25,13,52,147,40,14,26,051,25,15,69,231,38*7C

1614162644000,$GPGSV,3,2,10,17,37,089,25,19,33,121,32,20,20,286,26,23,25,289,30*78

1614162644000,$GPGSV,3,3,10,24,53,292,34,28,33,050,26*7D

1614162644000,$GLGSV,2,1,07,65,17,331,15,71,48,204,41,72,53,297,28,73,60,026,28*61

1614162644000,$GLGSV,2,2,07,74,51,276,33,80,15,059,24,82,19,043,19*5D

1614162644000,$GAGSV,2,1,06,101,21,238,33,104,21,315,13,115,05,081,27,119,66,256,29*6B

1614162644000,$GAGSV,2,2,06,121,72,246,35,127,50,053,26*6C

1614162644000,$BDGSV,1,1,04,219,42,227,39,220,12,182,20,227,20,114,32,236,39,267,37*6D

1614162644000,$GPGSA,A,3,15,24,13,17,28,19,23,12,20,,,,1.0,0.6,0.8*39

1614162644000,$GNGSA,A,3,71,72,73,74,82,,,,,,,,1.0,0.6,0.8*2D

1614162644000,$GAGSA,A,3,101,115,119,121,127,,,,,,,,1.0,0.6,0.8*16

1614162644000,$BDGSA,A,3,219,220,227,236,,,,,,,,,1.0,0.6,0.8*26

1614162644000,$GPRMC,103044.000,A,4540.3658,N,01156.0214,E,0.0,157.6,240221,,,A*67

1614162644000,$PSAMCLK,2146,29706200,23,9747627,1732476,297062000*77

1614162644000,$PSAMCLK,2146,29706200,23,9747627,1732476,297062000*77

1614162645000,$GPGGA,103045.000,4540.3658,N,01156.0214,E,1,23,0.6,39.8,M,47.1,M,,*61

1614162645000,$PSAMSA,103045.000,4540.3658,N,01156.0214,E,1,M,,*62

1614162645000,$GPGLL,4540.3658,N,01156.0214,E,103045.000,A,A*53

1614162645000,$GPVTG,157.6,T,,M,0.0,N,0.0,K,A*08

1614162645000,$GPGSV,3,1,10,12,23,222,25,13,52,147,40,14,26,051,25,15,69,231,38*7C

1614162645000,$GPGSV,3,2,10,17,37,089,25,19,33,121,32,20,20,286,27,23,25,289,30*79

1614162645000,$GPGSV,3,3,10,24,53,292,34,28,33,050,26*7D

1614162645000,$GLGSV,2,1,07,65,17,331,14,71,48,204,41,72,53,297,27,73,60,026,28*6F

1614162645000,$GLGSV,2,2,07,74,51,276,33,80,15,059,24,82,19,043,19*5D

1614162645000,$GAGSV,2,1,06,101,21,238,33,104,21,315,12,115,05,081,27,119,66,256,29*6A

1614162645000,$GAGSV,2,2,06,121,72,246,35,127,50,053,26*6C

1614162645000,$BDGSV,1,1,04,219,42,227,39,220,12,182,20,227,20,114,32,236,39,267,36*6C

1614162645000,$GPGSA,A,3,15,24,13,17,28,19,14,23,12,20,,,1.0,0.6,0.8*3C

1614162645000,$GNGSA,A,3,71,72,73,74,82,,,,,,,,1.0,0.6,0.8*2D

1614162645000,$GAGSA,A,3,101,119,121,127,,,,,,,,,1.0,0.6,0.8*23

1614162645000,$BDGSA,A,3,219,220,227,236,,,,,,,,,1.0,0.6,0.8*26

1614162645000,$GPRMC,103045.000,A,4540.3658,N,01156.0214,E,0.0,157.6,240221,,,A*66

1614162645000,$PSAMCLK,2146,29706300,23,9747602,1794348,297063000*76

1614162645000,$PSAMCLK,2146,29706300,23,9747602,1794348,297063000*76

1614162646000,$GPGGA,103046.000,4540.3658,N,01156.0214,E,1,24,0.4,39.8,M,47.1,M,,*67

1614162646000,$PSAMSA,103046.000,4540.3658,N,01156.0214,E,1,M,,*61

1614162646000,$GPGLL,4540.3658,N,01156.0214,E,103046.000,A,A*50

1614162646000,$GPVTG,157.6,T,,M,0.0,N,0.0,K,A*08

1614162646000,$GPGSV,3,1,10,12,23,222,25,13,52,147,40,14,26,051,25,15,69,231,37*73

1614162646000,$GPGSV,3,2,10,17,37,089,25,19,33,121,32,20,20,286,27,23,25,289,30*79

1614162646000,$GPGSV,3,3,10,24,53,292,34,28,33,050,26*7D

1614162646000,$GLGSV,2,1,07,65,17,330,13,71,48,204,41,72,53,296,27,73,60,027,28*69

1614162646000,$GLGSV,2,2,07,74,51,277,33,80,15,059,24,82,19,042,19*5D

1614162646000,$GAGSV,2,1,05,101,21,238,33,115,05,081,27,119,66,256,29,121,72,246,35*6A

1614162646000,$GAGSV,2,2,05,127,50,053,26*6E

1614162646000,$BDGSV,1,1,04,219,42,227,39,220,12,182,20,227,20,114,32,236,39,267,36*6C

1614162646000,$GPGSA,A,3,15,24,13,17,28,19,14,23,12,20,,,1.0,0.4,0.8*3E

1614162646000,$GNGSA,A,3,71,72,73,74,82,,,,,,,,1.0,0.4,0.8*2F

1614162646000,$GAGSA,A,3,101,115,119,121,127,,,,,,,,1.0,0.4,0.8*14

1614162646000,$BDGSA,A,3,219,220,227,236,,,,,,,,,1.0,0.4,0.8*24

1614162646000,$GPRMC,103046.000,A,4540.3658,N,01156.0214,E,0.0,157.6,240221,,,A*65

1614162646000,$PSAMCLK,2146,29706400,24,9747594,1856221,297064000*72

1614162646000,$PSAMCLK,2146,29706400,24,9747594,1856221,297064000*72

1614162647000,$GPGGA,103047.000,4540.3658,N,01156.0214,E,1,22,0.6,39.8,M,47.1,M,,*62

1614162647000,$PSAMSA,103047.000,4540.3658,N,01156.0214,E,1,M,,*60

1614162647000,$GPGLL,4540.3658,N,01156.0214,E,103047.000,A,A*51

1614162647000,$GPVTG,157.6,T,,M,0.0,N,0.0,K,A*08

1614162647000,$GPGSV,3,1,10,12,24,222,25,13,52,147,40,14,26,051,25,15,69,231,37*74

1614162647000,$GPGSV,3,2,10,17,37,089,25,19,33,121,32,20,20,286,27,23,25,289,30*79

1614162647000,$GPGSV,3,3,10,24,53,292,34,28,33,050,26*7D

1614162647000,$GLGSV,2,1,07,65,17,330,12,71,48,204,41,72,53,296,27,73,60,027,28*68

1614162647000,$GLGSV,2,2,07,74,51,277,33,80,15,059,24,82,19,042,19*5D

1614162647000,$GAGSV,2,1,05,101,21,238,33,115,05,081,27,119,66,255,29,121,72,246,34*68

1614162647000,$GAGSV,2,2,05,127,50,053,26*6E

1614162647000,$BDGSV,1,1,04,219,42,227,39,220,12,182,20,227,20,114,32,236,39,267,36*6C

1614162647000,$GPGSA,A,3,15,24,13,17,28,19,23,12,20,,,,1.0,0.6,0.8*39

1614162647000,$GNGSA,A,3,71,72,73,74,82,,,,,,,,1.0,0.6,0.8*2D

1614162647000,$GAGSA,A,3,101,119,121,127,,,,,,,,,1.0,0.6,0.8*23

1614162647000,$BDGSA,A,3,219,220,227,236,,,,,,,,,1.0,0.6,0.8*26

1614162647000,$GPRMC,103047.000,A,4540.3658,N,01156.0214,E,0.0,157.6,240221,,,A*64

1614162647000,$PSAMCLK,2146,29706500,22,9747605,1918094,297065000*78

1614162647000,$PSAMCLK,2146,29706500,22,9747605,1918094,297065000*78

1614162648000,$GPGGA,103048.000,4540.3658,N,01156.0214,E,1,24,0.4,39.8,M,47.1,M,,*69

1614162648000,$PSAMSA,103048.000,4540.3658,N,01156.0214,E,1,M,,*6F

1614162648000,$GPGLL,4540.3658,N,01156.0214,E,103048.000,A,A*5E

1614162648000,$GPVTG,157.6,T,,M,0.0,N,0.0,K,A*08

1614162648000,$GPGSV,3,1,10,12,24,222,25,13,51,147,40,14,26,051,25,15,69,231,37*77

1614162648000,$GPGSV,3,2,10,17,37,089,25,19,33,121,32,20,20,286,27,23,25,289,30*79

1614162648000,$GPGSV,3,3,10,24,53,292,34,28,33,050,26*7D

1614162648000,$GLGSV,2,1,06,71,48,204,42,72,53,296,27,73,60,027,28,74,51,277,33*69

1614162648000,$GLGSV,2,2,06,80,15,059,24,82,19,042,19*69

1614162648000,$GAGSV,2,1,05,101,21,238,33,115,05,081,26,119,66,255,29,121,72,246,34*69

1614162648000,$GAGSV,2,2,05,127,50,053,26*6E

1614162648000,$BDGSV,1,1,04,219,42,227,39,220,11,182,20,227,20,114,32,236,39,267,36*6F

1614162648000,$GPGSA,A,3,15,24,13,17,28,19,14,23,12,20,,,1.0,0.4,0.8*3E

1614162648000,$GNGSA,A,3,71,72,73,74,82,,,,,,,,1.0,0.4,0.8*2F

1614162648000,$GAGSA,A,3,101,115,119,121,127,,,,,,,,1.0,0.4,0.8*14

1614162648000,$BDGSA,A,3,219,220,227,236,,,,,,,,,1.0,0.4,0.8*24

1614162648000,$GPRMC,103048.000,A,4540.3658,N,01156.0214,E,0.0,157.6,240221,,,A*6B

1614162648000,$PSAMCLK,2146,29706600,24,9747626,1979968,297066000*72

1614162648000,$PSAMCLK,2146,29706600,24,9747626,1979968,297066000*72

1614162649000,$GPGGA,103049.000,4540.3658,N,01156.0214,E,1,24,0.4,39.8,M,47.1,M,,*68

1614162649000,$PSAMSA,103049.000,4540.3658,N,01156.0214,E,1,M,,*6E

1614162649000,$GPGLL,4540.3658,N,01156.0214,E,103049.000,A,A*5F

1614162649000,$GPVTG,157.6,T,,M,0.0,N,0.0,K,A*08

1614162649000,$GPGSV,3,1,10,12,24,222,25,13,51,147,40,14,26,051,25,15,69,230,37*76

1614162649000,$GPGSV,3,2,10,17,37,089,25,19,33,121,32,20,20,286,27,23,25,289,30*79

1614162649000,$GPGSV,3,3,10,24,53,293,34,28,33,050,26*7C

1614162649000,$GLGSV,2,1,06,71,48,204,42,72,53,296,27,73,60,027,28,74,51,277,33*69

1614162649000,$GLGSV,2,2,06,80,15,059,24,82,19,042,19*69

1614162649000,$GAGSV,2,1,05,101,21,238,33,115,05,081,26,119,66,255,29,121,72,246,34*69

1614162649000,$GAGSV,2,2,05,127,50,053,26*6E

1614162649000,$BDGSV,1,1,04,219,42,227,39,220,11,182,21,227,20,114,32,236,39,267,36*6E

1614162649000,$GPGSA,A,3,15,24,13,17,28,19,14,23,12,20,,,1.0,0.4,0.8*3E

1614162649000,$GNGSA,A,3,71,72,73,74,82,,,,,,,,1.0,0.4,0.8*2F

1614162649000,$GAGSA,A,3,101,115,119,121,127,,,,,,,,1.0,0.4,0.8*14

1614162649000,$BDGSA,A,3,219,220,227,236,,,,,,,,,1.0,0.4,0.8*24

1614162649000,$GPRMC,103049.000,A,4540.3658,N,01156.0214,E,0.0,157.6,240221,,,A*6A

1614162649000,$PSAMCLK,2146,29706700,24,9747631,2041841,297067000*7F

1614162649000,$PSAMCLK,2146,29706700,24,9747631,2041841,297067000*7F

1614162650000,$GPGGA,103050.000,4540.3658,N,01156.0214,E,1,24,0.4,39.8,M,47.1,M,,*60

1614162650000,$PSAMSA,103050.000,4540.3658,N,01156.0214,E,1,M,,*66

1614162650000,$GPGLL,4540.3658,N,01156.0214,E,103050.000,A,A*57

1614162650000,$GPVTG,157.6,T,,M,0.0,N,0.0,K,A*08

1614162650000,$GPGSV,3,1,10,12,24,222,25,13,51,147,40,14,26,051,25,15,69,230,37*76

1614162650000,$GPGSV,3,2,10,17,38,089,25,19,33,121,32,20,20,285,27,23,25,289,30*75

1614162650000,$GPGSV,3,3,10,24,53,293,34,28,33,050,26*7C

1614162650000,$GLGSV,2,1,06,71,48,204,42,72,53,296,27,73,60,027,28,74,51,277,33*69

1614162650000,$GLGSV,2,2,06,80,15,059,24,82,19,042,19*69

1614162650000,$GAGSV,2,1,05,101,21,238,33,115,05,081,26,119,66,255,29,121,72,246,34*69

1614162650000,$GAGSV,2,2,05,127,49,053,25*65

1614162650000,$BDGSV,1,1,04,219,42,227,39,220,11,182,21,227,20,114,32,236,40,267,36*60

1614162650000,$GPGSA,A,3,15,24,13,17,28,19,14,23,12,20,,,1.0,0.4,0.8*3E

1614162650000,$GNGSA,A,3,71,72,73,74,82,,,,,,,,1.0,0.4,0.8*2F

1614162650000,$GAGSA,A,3,101,115,119,121,127,,,,,,,,1.0,0.4,0.8*14

1614162650000,$BDGSA,A,3,219,220,227,236,,,,,,,,,1.0,0.4,0.8*24

1614162650000,$GPRMC,103050.000,A,4540.3658,N,01156.0214,E,0.0,157.6,240221,,,A*62

1614162650000,$PSAMCLK,2146,29706800,24,9747633,2103713,297068000*72

1614162650000,$PSAMCLK,2146,29706800,24,9747633,2103713,297068000*72

1614162651000,$GPGGA,103051.000,4540.3658,N,01156.0214,E,1,24,0.4,39.8,M,47.1,M,,*61

1614162651000,$PSAMSA,103051.000,4540.3658,N,01156.0214,E,1,M,,*67

1614162651000,$GPGLL,4540.3658,N,01156.0214,E,103051.000,A,A*56

1614162651000,$GPVTG,157.6,T,,M,0.0,N,0.0,K,A*08

1614162651000,$GPGSV,3,1,10,12,24,222,25,13,51,147,40,14,26,051,25,15,69,230,37*76

1614162651000,$GPGSV,3,2,10,17,38,089,25,19,33,121,32,20,20,285,28,23,25,289,30*7A

1614162651000,$GPGSV,3,3,10,24,53,293,34,28,33,050,26*7C

1614162651000,$GLGSV,2,1,06,71,48,204,42,72,53,296,27,73,60,027,28,74,51,277,33*69

1614162651000,$GLGSV,2,2,06,80,15,059,24,82,19,042,19*69

1614162651000,$GAGSV,2,1,05,101,21,238,33,115,05,081,26,119,66,255,29,121,72,246,34*69

1614162651000,$GAGSV,2,2,05,127,49,053,25*65

1614162651000,$BDGSV,1,1,04,219,42,227,39,220,11,182,21,227,20,114,32,236,40,267,36*60

1614162651000,$GPGSA,A,3,15,24,13,17,28,19,14,23,12,20,,,1.0,0.4,0.8*3E

1614162651000,$GNGSA,A,3,71,72,73,74,82,,,,,,,,1.0,0.4,0.8*2F

1614162651000,$GAGSA,A,3,101,115,119,121,127,,,,,,,,1.0,0.4,0.8*14

1614162651000,$BDGSA,A,3,219,220,227,236,,,,,,,,,1.0,0.4,0.8*24

1614162651000,$GPRMC,103051.000,A,4540.3658,N,01156.0214,E,0.0,157.6,240221,,,A*63

1614162651000,$PSAMCLK,2146,29706900,24,9747654,2165586,297069000*7D

1614162651000,$PSAMCLK,2146,29706900,24,9747654,2165586,297069000*7D

1614162652000,$GPGGA,103052.000,4540.3658,N,01156.0214,E,1,23,0.6,39.8,M,47.1,M,,*67

1614162652000,$PSAMSA,103052.000,4540.3658,N,01156.0214,E,1,M,,*64

1614162652000,$GPGLL,4540.3658,N,01156.0214,E,103052.000,A,A*55

1614162652000,$GPVTG,157.6,T,,M,0.0,N,0.0,K,A*08

1614162652000,$GPGSV,3,1,10,12,24,222,25,13,51,147,40,14,26,051,25,15,69,230,37*76

1614162652000,$GPGSV,3,2,10,17,38,089,25,19,33,121,32,20,20,285,28,23,25,289,30*7A

1614162652000,$GPGSV,3,3,10,24,53,293,34,28,33,050,25*7F

1614162652000,$GLGSV,2,1,06,71,48,204,42,72,53,296,27,73,60,027,28,74,51,277,33*69

1614162652000,$GLGSV,2,2,06,80,15,059,24,82,19,042,18*68

1614162652000,$GAGSV,2,1,05,101,21,238,33,115,05,081,26,119,66,255,29,121,72,246,34*69

1614162652000,$GAGSV,2,2,05,127,49,053,25*65

1614162652000,$BDGSV,1,1,04,219,42,227,38,220,11,182,21,227,20,114,32,236,40,267,36*61

1614162652000,$GPGSA,A,3,15,24,13,17,28,19,23,12,20,,,,1.0,0.6,0.8*39

1614162652000,$GNGSA,A,3,71,72,73,74,82,,,,,,,,1.0,0.6,0.8*2D

1614162652000,$GAGSA,A,3,101,115,119,121,127,,,,,,,,1.0,0.6,0.8*16

1614162652000,$BDGSA,A,3,219,220,227,236,,,,,,,,,1.0,0.6,0.8*26

1614162652000,$GPRMC,103052.000,A,4540.3658,N,01156.0214,E,0.0,157.6,240221,,,A*60

1614162652000,$PSAMCLK,2146,29707000,23,9747633,2227458,297070000*7C

1614162652000,$PSAMCLK,2146,29707000,23,9747633,2227458,297070000*7C

1614162653000,$GPGGA,103053.000,4540.3658,N,01156.0214,E,1,24,0.4,39.8,M,47.1,M,,*63

1614162653000,$PSAMSA,103053.000,4540.3658,N,01156.0214,E,1,M,,*65

1614162653000,$GPGLL,4540.3658,N,01156.0214,E,103053.000,A,A*54

1614162653000,$GPVTG,157.6,T,,M,0.0,N,0.0,K,A*08

1614162653000,$GPGSV,3,1,10,12,24,222,25,13,51,147,40,14,26,051,25,15,69,230,37*76

1614162653000,$GPGSV,3,2,10,17,38,089,25,19,33,121,32,20,20,285,28,23,25,289,30*7A

1614162653000,$GPGSV,3,3,10,24,53,293,34,28,33,050,25*7F

1614162653000,$GLGSV,2,1,06,71,48,204,42,72,53,296,27,73,60,027,28,74,51,277,33*69

1614162653000,$GLGSV,2,2,06,80,15,059,24,82,19,042,18*68

1614162653000,$GAGSV,2,1,05,101,21,238,33,115,05,081,25,119,66,255,29,121,72,246,34*6A

1614162653000,$GAGSV,2,2,05,127,49,053,25*65

1614162653000,$BDGSV,1,1,04,219,42,227,38,220,11,182,20,227,20,114,32,236,40,267,36*60

1614162653000,$GPGSA,A,3,15,24,13,17,28,19,14,23,12,20,,,1.0,0.4,0.8*3E

1614162653000,$GNGSA,A,3,71,72,73,74,82,,,,,,,,1.0,0.4,0.8*2F

1614162653000,$GAGSA,A,3,101,115,119,121,127,,,,,,,,1.0,0.4,0.8*14

1614162653000,$BDGSA,A,3,219,220,227,236,,,,,,,,,1.0,0.4,0.8*24

1614162653000,$GPRMC,103053.000,A,4540.3658,N,01156.0214,E,0.0,157.6,240221,,,A*61

1614162653000,$PSAMCLK,2146,29707100,24,9747618,2289332,297071000*7D

1614162653000,$PSAMCLK,2146,29707100,24,9747618,2289332,297071000*7D

1614162654000,$GPGGA,103054.000,4540.3658,N,01156.0214,E,1,22,0.6,39.8,M,47.1,M,,*60

1614162654000,$PSAMSA,103054.000,4540.3658,N,01156.0214,E,1,M,,*62

1614162654000,$GPGLL,4540.3658,N,01156.0214,E,103054.000,A,A*53

1614162654000,$GPVTG,157.6,T,,M,0.0,N,0.0,K,A*08

1614162654000,$GPGSV,3,1,10,12,24,222,25,13,51,147,40,14,26,051,25,15,69,230,37*76

1614162654000,$GPGSV,3,2,10,17,38,089,25,19,33,121,32,20,20,285,28,23,25,289,30*7A

1614162654000,$GPGSV,3,3,10,24,53,293,34,28,33,050,25*7F

1614162654000,$GLGSV,2,1,06,71,48,204,42,72,53,296,27,73,60,027,28,74,51,277,33*69

1614162654000,$GLGSV,2,2,06,80,15,059,24,82,19,042,17*67

1614162654000,$GAGSV,2,1,05,101,21,238,33,115,05,081,25,119,66,255,29,121,72,246,34*6A

1614162654000,$GAGSV,2,2,05,127,49,053,25*65

1614162654000,$BDGSV,1,1,04,219,42,227,38,220,11,182,20,227,20,114,32,236,40,267,36*60

1614162654000,$GPGSA,A,3,15,24,13,17,28,19,14,23,12,20,,,1.2,0.6,1.0*37

1614162654000,$GNGSA,A,3,71,72,73,74,,,,,,,,,1.2,0.6,1.0*2C

1614162654000,$GAGSA,A,3,101,119,121,127,,,,,,,,,1.2,0.6,1.0*28

1614162654000,$BDGSA,A,3,219,220,227,236,,,,,,,,,1.2,0.6,1.0*2D

1614162654000,$GPRMC,103054.000,A,4540.3658,N,01156.0214,E,0.0,157.6,240221,,,A*66

1614162654000,$PSAMCLK,2146,29707200,22,9747609,2351206,297072000*79

1614162654000,$PSAMCLK,2146,29707200,22,9747609,2351206,297072000*79

1614162655000,$GPGGA,103055.000,4540.3658,N,01156.0214,E,1,24,0.6,39.8,M,47.1,M,,*67

1614162655000,$PSAMSA,103055.000,4540.3658,N,01156.0214,E,1,M,,*63

1614162655000,$GPGLL,4540.3658,N,01156.0214,E,103055.000,A,A*52

1614162655000,$GPVTG,157.6,T,,M,0.0,N,0.0,K,A*08

1614162655000,$GPGSV,3,1,10,12,24,222,25,13,51,147,40,14,26,051,25,15,69,230,37*76

1614162655000,$GPGSV,3,2,10,17,38,089,25,19,33,121,32,20,20,285,28,23,25,289,30*7A

1614162655000,$GPGSV,3,3,10,24,53,293,34,28,33,050,25*7F

1614162655000,$GLGSV,2,1,06,71,48,204,42,72,53,296,27,73,60,027,28,74,51,277,33*69

1614162655000,$GLGSV,2,2,06,80,15,059,24,82,19,042,15*65

1614162655000,$GAGSV,2,1,05,101,21,238,33,115,05,081,25,119,66,255,29,121,72,246,34*6A

1614162655000,$GAGSV,2,2,05,127,49,053,25*65

1614162655000,$BDGSV,1,1,04,219,42,227,38,220,11,182,20,227,20,114,32,236,40,267,35*63

1614162655000,$GPGSA,A,3,15,24,13,17,28,19,14,23,12,20,,,1.0,0.6,0.8*3C

1614162655000,$GNGSA,A,3,71,72,73,74,80,,,,,,,,1.0,0.6,0.8*2F

1614162655000,$GAGSA,A,3,101,115,119,121,127,,,,,,,,1.0,0.6,0.8*16

1614162655000,$BDGSA,A,3,219,220,227,236,,,,,,,,,1.0,0.6,0.8*26

1614162655000,$GPRMC,103055.000,A,4540.3658,N,01156.0214,E,0.0,157.6,240221,,,A*67

1614162655000,$PSAMCLK,2146,29707300,24,9747583,2413079,297073000*75

1614162655000,$PSAMCLK,2146,29707300,24,9747583,2413079,297073000*75

1614162656000,$GPGGA,103056.000,4540.3658,N,01156.0214,E,1,23,0.6,39.8,M,47.1,M,,*63

1614162656000,$PSAMSA,103056.000,4540.3658,N,01156.0214,E,1,M,,*60

1614162656000,$GPGLL,4540.3658,N,01156.0214,E,103056.000,A,A*51

1614162656000,$GPVTG,157.6,T,,M,0.0,N,0.0,K,A*08

1614162656000,$GPGSV,3,1,10,12,24,222,25,13,51,147,40,14,26,051,25,15,69,230,37*76

1614162656000,$GPGSV,3,2,10,17,38,089,25,19,33,121,32,20,20,285,28,23,25,289,30*7A

1614162656000,$GPGSV,3,3,10,24,53,293,34,28,33,050,25*7F

1614162656000,$GLGSV,2,1,06,71,48,204,42,72,53,296,27,73,60,027,28,74,51,277,32*68

1614162656000,$GLGSV,2,2,06,80,15,059,24,82,19,042,14*64

1614162656000,$GAGSV,2,1,05,101,21,238,33,115,05,081,25,119,66,255,29,121,72,246,34*6A

1614162656000,$GAGSV,2,2,05,127,49,053,25*65

1614162656000,$BDGSV,1,1,04,219,42,227,38,220,11,182,20,227,20,114,32,236,40,267,35*63

1614162656000,$GPGSA,A,3,15,24,13,17,28,19,14,23,12,20,,,1.0,0.6,0.8*3C

