# 2021 01 14 12:54:36
#
# Version: 10 Manufacturer: samsung Make: SM-A515F
#
1610625277000,$GPGGA,115437.042,4540.3700,N,01156.0120,E,1,16,0.6,48.2,M,47.1,M,,*63

1610625277000,$PSAMSA,115437.042,4540.3700,N,01156.0120,E,0,M,,*6B

1610625277000,$GPGLL,4540.3700,N,01156.0120,E,115437.042,A,A*5B

1610625277000,$GPVTG,163.9,T,,M,3.1,N,5.8,K,A*0F

1610625277000,$GPGSV,3,1,09,05,29,204,30,07,02,075,26,13,86,355,37,14,57,071,41*75

1610625277000,$GPGSV,3,2,09,15,47,302,44,17,13,126,40,24,19,266,37,28,62,082,39*74

1610625277000,$GPGSV,3,3,09,30,32,070,41*40

1610625277000,$GLGSV,1,1,03,69,44,162,38,79,48,036,33,80,65,256,39*50

1610625277000,$GAGSV,1,1,04,101,54,055,35,104,55,147,39,105,14,311,27,131,64,203,32*60

1610625277000,$BDGSV,2,1,05,211,08,073,25,220,49,292,40,223,64,054,38,225,13,061,35*6A

1610625277000,$BDGSV,2,2,05,232,51,193,34*66

1610625277000,$GPGSA,A,3,13,28,14,15,30,05,24,17,,,,,1.2,0.6,0.8*30

1610625277000,$GNGSA,A,3,69,80,,,,,,,,,,,1.2,0.6,0.8*26

1610625277000,$GAGSA,A,3,131,,,,,,,,,,,,1.2,0.6,0.8*1D

1610625277000,$BDGSA,A,3,211,220,223,225,232,,,,,,,,1.2,0.6,0.8*19

1610625277000,$GPRMC,115437.042,A,4540.3700,N,01156.0120,E,3.1,163.9,140121,,,A*64

1610625277000,$PSAMCLK,2140,38849504,16,9741883,-51290195,388495042*6E

1610625277000,$PSAMCLK,2140,38849504,16,9741883,-51290195,388495042*6E

1610625277000,$GPGGA,115437.298,4540.3704,N,01156.0107,E,1,21,0.6,43.7,M,47.1,M,,*6D

1610625277000,$PSAMSA,115437.298,4540.3704,N,01156.0107,E,0,M,,*6F

1610625277000,$GPGLL,4540.3704,N,01156.0107,E,115437.298,A,A*5F

1610625277000,$GPVTG,163.9,T,,M,0.0,N,0.0,K,A*00

1610625277000,$GPGSV,3,1,09,05,29,204,30,07,02,075,26,13,86,356,37,14,57,071,41*76

1610625277000,$GPGSV,3,2,09,15,47,302,44,17,13,126,40,24,19,266,37,28,62,082,39*74

1610625277000,$GPGSV,3,3,09,30,32,070,40*41

1610625277000,$GLGSV,1,1,04,69,44,162,38,70,65,303,32,79,48,036,33,80,65,256,39*62

1610625277000,$GAGSV,1,1,04,101,54,055,35,104,55,147,39,105,14,311,27,131,64,203,32*60

1610625277000,$BDGSV,2,1,05,211,08,073,26,220,49,292,40,223,64,054,39,225,13,061,36*6B

1610625277000,$BDGSV,2,2,05,232,51,193,34*66

1610625277000,$GPGSA,A,3,13,28,14,15,30,05,24,17,,,,,1.0,0.6,0.8*32

1610625277000,$GNGSA,A,3,69,70,79,80,,,,,,,,,1.0,0.6,0.8*2D

1610625277000,$GAGSA,A,3,101,104,105,131,,,,,,,,,1.0,0.6,0.8*2E

1610625277000,$BDGSA,A,3,211,220,223,225,232,,,,,,,,1.0,0.6,0.8*1B

1610625277000,$GPRMC,115437.298,A,4540.3704,N,01156.0107,E,0.0,163.9,140121,,,A*62

1610625277000,$PSAMCLK,2140,38849530,21,9741703,15879,388495298*72

1610625277000,$PSAMCLK,2140,38849530,21,9741703,15879,388495298*72

1610625278000,$GPGGA,115438.000,4540.3688,N,01156.0108,E,1,21,0.6,47.7,M,47.1,M,,*6F

1610625278000,$PSAMSA,115438.000,4540.3688,N,01156.0108,E,0,M,,*69

1610625278000,$GPGLL,4540.3688,N,01156.0108,E,115438.000,A,A*59

1610625278000,$GPVTG,163.9,T,,M,0.7,N,1.3,K,A*05

1610625278000,$GPGSV,3,1,09,05,29,204,30,07,02,075,26,13,86,356,36,14,57,071,41*77

1610625278000,$GPGSV,3,2,09,15,47,302,44,17,13,126,40,24,19,266,37,28,62,082,39*74

1610625278000,$GPGSV,3,3,09,30,32,070,40*41

1610625278000,$GLGSV,2,1,05,69,44,162,37,70,65,303,32,73,16,234,26,79,48,036,33*6D

1610625278000,$GLGSV,2,2,05,80,65,256,38*51

1610625278000,$GAGSV,1,1,04,101,54,055,35,104,55,147,39,105,14,311,27,131,64,203,32*60

1610625278000,$BDGSV,2,1,05,211,08,073,27,220,49,292,41,223,64,054,39,225,13,061,37*6A

1610625278000,$BDGSV,2,2,05,232,51,193,34*66

1610625278000,$GPGSA,A,3,13,28,14,15,30,05,24,17,,,,,1.0,0.6,0.8*32

1610625278000,$GNGSA,A,3,69,73,79,80,,,,,,,,,1.0,0.6,0.8*2E

1610625278000,$GAGSA,A,3,101,104,105,131,,,,,,,,,1.0,0.6,0.8*2E

1610625278000,$BDGSA,A,3,211,220,223,225,232,,,,,,,,1.0,0.6,0.8*1B

1610625278000,$GPRMC,115438.000,A,4540.3688,N,01156.0108,E,0.7,163.9,140121,,,A*63

1610625278000,$PSAMCLK,2140,38849600,21,9741768,59274,388496000*70

1610625278000,$PSAMCLK,2140,38849600,21,9741768,59274,388496000*70

1610625279000,$GPGGA,115439.000,4540.3715,N,01156.0089,E,1,23,0.4,50.6,M,47.1,M,,*64

1610625279000,$PSAMSA,115439.000,4540.3715,N,01156.0089,E,0,M,,*65

1610625279000,$GPGLL,4540.3715,N,01156.0089,E,115439.000,A,A*55

1610625279000,$GPVTG,154.4,T,,M,2.0,N,3.8,K,A*00

1610625279000,$GPGSV,3,1,10,05,29,204,30,07,02,075,26,13,86,356,36,14,57,071,40*7E

1610625279000,$GPGSV,3,2,10,15,47,302,44,17,13,126,40,20,13,320,22,24,19,266,37*73

1610625279000,$GPGSV,3,3,10,28,62,082,39,30,32,070,39*79

1610625279000,$GLGSV,2,1,06,69,44,162,37,70,65,303,31,73,16,234,27,79,48,036,33*6C

1610625279000,$GLGSV,2,2,06,80,65,256,38,88,08,036,23*6E

1610625279000,$GAGSV,2,1,05,101,54,055,34,104,55,147,38,105,14,311,27,121,06,045,23*67

1610625279000,$GAGSV,2,2,05,131,64,203,32*6C

1610625279000,$BDGSV,2,1,05,211,08,073,28,220,49,292,41,223,64,054,39,225,13,061,37*65

1610625279000,$BDGSV,2,2,05,232,51,193,34*66

1610625279000,$GPGSA,A,3,13,28,14,15,30,05,24,17,20,,,,0.8,0.4,0.6*35

1610625279000,$GNGSA,A,3,69,73,79,80,,,,,,,,,0.8,0.4,0.6*2B

1610625279000,$GAGSA,A,3,101,104,105,121,131,,,,,,,,0.8,0.4,0.6*19

1610625279000,$BDGSA,A,3,211,220,223,225,232,,,,,,,,0.8,0.4,0.6*1E

1610625279000,$GPRMC,115439.000,A,4540.3715,N,01156.0089,E,2.0,154.4,140121,,,A*63

1610625279000,$PSAMCLK,2140,38849700,23,9742072,121134,388497000*44

1610625279000,$PSAMCLK,2140,38849700,23,9742072,121134,388497000*44

1610625280000,$GPGGA,115440.000,4540.3706,N,01156.0106,E,1,22,0.6,47.9,M,47.1,M,,*64

1610625280000,$PSAMSA,115440.000,4540.3706,N,01156.0106,E,0,M,,*6F

1610625280000,$GPGLL,4540.3706,N,01156.0106,E,115440.000,A,A*5F

1610625280000,$GPVTG,104.5,T,,M,2.3,N,4.2,K,A*0A

1610625280000,$GPGSV,3,1,10,05,29,204,30,07,02,075,25,13,86,356,36,14,57,071,40*7D

1610625280000,$GPGSV,3,2,10,15,47,302,43,17,13,126,40,20,13,320,24,24,19,266,37*72

1610625280000,$GPGSV,3,3,10,28,62,082,38,30,32,070,39*78

1610625280000,$GLGSV,2,1,06,69,44,162,37,70,65,303,29,73,16,234,28,79,48,036,33*6A

1610625280000,$GLGSV,2,2,06,80,65,256,38,88,08,036,24*69

1610625280000,$GAGSV,2,1,05,101,54,055,34,104,55,147,37,105,14,311,26,121,06,045,23*69

1610625280000,$GAGSV,2,2,05,131,64,203,32*6C

1610625280000,$BDGSV,2,1,06,210,30,051,26,211,08,073,30,220,49,292,40,223,64,054,41*65

1610625280000,$BDGSV,2,2,06,225,13,061,37,232,51,193,35*60

1610625280000,$GPGSA,A,3,13,28,14,15,30,05,17,20,,,,,0.8,0.6,0.6*31

1610625280000,$GNGSA,A,3,69,73,79,80,88,,,,,,,,0.8,0.6,0.6*29

1610625280000,$GAGSA,A,3,104,105,121,131,,,,,,,,,0.8,0.6,0.6*2B

1610625280000,$BDGSA,A,3,211,220,223,225,232,,,,,,,,0.8,0.6,0.6*1C

1610625280000,$GPRMC,115440.000,A,4540.3706,N,01156.0106,E,2.3,104.5,140121,,,A*6E

1610625280000,$PSAMCLK,2140,38849800,22,9742194,182966,388498000*4A

1610625280000,$PSAMCLK,2140,38849800,22,9742194,182966,388498000*4A

1610625281000,$GPGGA,115441.000,4540.3691,N,01156.0121,E,1,23,0.4,45.9,M,47.1,M,,*6E

1610625281000,$PSAMSA,115441.000,4540.3691,N,01156.0121,E,0,M,,*64

1610625281000,$GPGLL,4540.3691,N,01156.0121,E,115441.000,A,A*54

1610625281000,$GPVTG,116.7,T,,M,3.0,N,5.5,K,A*0F

1610625281000,$GPGSV,3,1,11,05,29,204,30,07,02,075,23,13,86,356,36,14,57,071,40*7A

1610625281000,$GPGSV,3,2,11,15,47,302,43,17,13,126,40,20,13,320,24,23,13,323,23*7B

1610625281000,$GPGSV,3,3,11,24,19,266,35,28,62,082,39,30,32,070,39*42

1610625281000,$GLGSV,2,1,06,69,44,162,37,70,65,303,28,73,16,234,29,79,48,036,33*6A

1610625281000,$GLGSV,2,2,06,80,65,256,38,88,08,036,26*6B

1610625281000,$GAGSV,2,1,05,101,54,055,33,104,55,147,37,105,14,311,26,121,06,045,23*6E

1610625281000,$GAGSV,2,2,05,131,64,203,32*6C

1610625281000,$BDGSV,2,1,06,210,30,051,27,211,08,073,39,220,49,292,40,223,64,054,41*6D

1610625281000,$BDGSV,2,2,06,225,13,061,37,232,51,193,35*60

1610625281000,$GPGSA,A,3,13,28,14,15,30,05,17,20,,,,,0.8,0.4,0.6*33

1610625281000,$GNGSA,A,3,69,73,79,80,88,,,,,,,,0.8,0.4,0.6*2B

1610625281000,$GAGSA,A,3,104,105,121,131,,,,,,,,,0.8,0.4,0.6*29

1610625281000,$BDGSA,A,3,210,211,220,223,225,232,,,,,,,0.8,0.4,0.6*2D

1610625281000,$GPRMC,115441.000,A,4540.3691,N,01156.0121,E,3.0,116.7,140121,,,A*66

1610625281000,$PSAMCLK,2140,38849900,23,9741985,61836,388499000*78

1610625281000,$PSAMCLK,2140,38849900,23,9741985,61836,388499000*78

1610625282000,$GPGGA,115442.000,4540.3676,N,01156.0138,E,1,22,0.4,44.1,M,47.1,M,,*64

1610625282000,$PSAMSA,115442.000,4540.3676,N,01156.0138,E,0,M,,*66

1610625282000,$GPGLL,4540.3676,N,01156.0138,E,115442.000,A,A*56

1610625282000,$GPVTG,133.0,T,,M,2.6,N,4.8,K,A*04

1610625282000,$GPGSV,3,1,11,05,29,204,30,07,02,075,22,13,86,356,36,14,57,071,40*7B

1610625282000,$GPGSV,3,2,11,15,47,302,42,17,13,126,41,20,13,320,24,23,13,323,26*7E

1610625282000,$GPGSV,3,3,11,24,19,266,34,28,62,082,40,30,32,070,40*43

1610625282000,$GLGSV,2,1,07,69,44,162,36,70,65,303,29,71,16,326,23,73,16,234,29*6B

1610625282000,$GLGSV,2,2,07,79,48,036,41,80,65,256,38,88,08,036,26*58

1610625282000,$GAGSV,2,1,05,101,54,055,32,104,55,147,36,105,14,311,26,121,06,045,23*6E

1610625282000,$GAGSV,2,2,05,131,64,203,32*6C

1610625282000,$BDGSV,2,1,06,210,30,051,31,211,08,073,41,220,49,292,40,223,64,054,41*65

1610625282000,$BDGSV,2,2,06,225,13,061,37,232,51,193,35*60

1610625282000,$GPGSA,A,3,13,28,14,15,30,05,17,20,23,,,,0.8,0.4,0.6*32

1610625282000,$GNGSA,A,3,69,73,79,80,,,,,,,,,0.8,0.4,0.6*2B

1610625282000,$GAGSA,A,3,105,121,131,,,,,,,,,,0.8,0.4,0.6*1C

1610625282000,$BDGSA,A,3,210,211,220,223,225,232,,,,,,,0.8,0.4,0.6*2D

1610625282000,$GPRMC,115442.000,A,4540.3676,N,01156.0138,E,2.6,133.0,140121,,,A*63

1610625282000,$PSAMCLK,2140,38850000,22,9741866,123667,388500000*48

1610625282000,$PSAMCLK,2140,38850000,22,9741866,123667,388500000*48

1610625283000,$GPGGA,115443.000,4540.3662,N,01156.0146,E,1,23,0.4,43.2,M,47.1,M,,*6C

1610625283000,$PSAMSA,115443.000,4540.3662,N,01156.0146,E,0,M,,*6B

1610625283000,$GPGLL,4540.3662,N,01156.0146,E,115443.000,A,A*5B

1610625283000,$GPVTG,143.5,T,,M,1.9,N,3.6,K,A*03

1610625283000,$GPGSV,3,1,11,05,29,204,30,07,02,075,20,13,86,356,36,14,57,071,40*79

1610625283000,$GPGSV,3,2,11,15,47,302,41,17,13,126,41,20,13,320,25,23,13,323,28*72

1610625283000,$GPGSV,3,3,11,24,19,266,33,28,62,082,40,30,32,070,40*44

1610625283000,$GLGSV,2,1,07,69,44,162,36,70,65,303,29,71,16,326,21,73,16,234,29*69

1610625283000,$GLGSV,2,2,07,79,48,036,44,80,65,256,38,88,08,036,26*5D

1610625283000,$GAGSV,2,1,05,101,54,055,30,104,55,147,35,105,14,311,26,121,06,045,23*6F

1610625283000,$GAGSV,2,2,05,131,64,203,34*6A

1610625283000,$BDGSV,2,1,06,210,30,051,36,211,08,073,41,220,49,292,40,223,64,054,42*61

1610625283000,$BDGSV,2,2,06,225,13,061,37,232,51,193,34*61

1610625283000,$GPGSA,A,3,13,28,14,15,30,05,17,20,23,,,,0.8,0.4,0.6*32

1610625283000,$GNGSA,A,3,69,70,73,79,80,,,,,,,,0.8,0.4,0.6*2C

1610625283000,$GAGSA,A,3,105,121,131,,,,,,,,,,0.8,0.4,0.6*1C

1610625283000,$BDGSA,A,3,210,211,220,223,225,232,,,,,,,0.8,0.4,0.6*2D

1610625283000,$GPRMC,115443.000,A,4540.3662,N,01156.0146,E,1.9,143.5,140121,,,A*60

1610625283000,$PSAMCLK,2140,38850100,23,9741686,185503,388501000*44

1610625283000,$PSAMCLK,2140,38850100,23,9741686,185503,388501000*44

1610625284000,$GPGGA,115444.000,4540.3656,N,01156.0156,E,1,23,0.4,44.3,M,47.1,M,,*6B

1610625284000,$PSAMSA,115444.000,4540.3656,N,01156.0156,E,0,M,,*6A

1610625284000,$GPGLL,4540.3656,N,01156.0156,E,115444.000,A,A*5A

1610625284000,$GPVTG,128.9,T,,M,1.9,N,3.5,K,A*01

1610625284000,$GPGSV,3,1,11,05,29,204,29,07,02,075,19,13,86,356,37,14,57,071,41*7B

1610625284000,$GPGSV,3,2,11,15,47,302,41,17,13,126,41,20,13,320,26,23,13,323,29*70

1610625284000,$GPGSV,3,3,11,24,19,266,33,28,62,082,40,30,32,070,41*45

1610625284000,$GLGSV,2,1,07,69,44,162,35,70,65,303,29,71,16,326,20,73,16,234,29*6B

1610625284000,$GLGSV,2,2,07,79,48,036,44,80,65,256,37,88,08,036,27*53

1610625284000,$GAGSV,2,1,05,101,54,055,29,104,55,147,35,105,14,311,26,121,06,045,23*67

1610625284000,$GAGSV,2,2,05,131,64,203,34*6A

1610625284000,$BDGSV,2,1,06,210,30,051,41,211,08,073,41,220,49,292,40,223,64,054,42*61

1610625284000,$BDGSV,2,2,06,225,13,061,37,232,51,193,34*61

1610625284000,$GPGSA,A,3,13,28,14,15,30,05,24,17,23,,,,0.8,0.4,0.6*36

1610625284000,$GNGSA,A,3,69,70,73,79,80,,,,,,,,0.8,0.4,0.6*2C

1610625284000,$GAGSA,A,3,105,121,131,,,,,,,,,,0.8,0.4,0.6*1C

1610625284000,$BDGSA,A,3,210,211,220,223,225,232,,,,,,,0.8,0.4,0.6*2D

1610625284000,$GPRMC,115444.000,A,4540.3656,N,01156.0156,E,1.9,128.9,140121,,,A*60

1610625284000,$PSAMCLK,2140,38850200,23,9741641,247343,388502000*40

1610625284000,$PSAMCLK,2140,38850200,23,9741641,247343,388502000*40

1610625285000,$GPGGA,115445.000,4540.3649,N,01156.0163,E,1,23,0.4,44.5,M,47.1,M,,*64

1610625285000,$PSAMSA,115445.000,4540.3649,N,01156.0163,E,0,M,,*63

1610625285000,$GPGLL,4540.3649,N,01156.0163,E,115445.000,A,A*53

1610625285000,$GPVTG,102.7,T,,M,2.8,N,5.2,K,A*04

1610625285000,$GPGSV,3,1,11,05,29,204,29,07,02,075,17,13,86,356,37,14,57,071,41*75

1610625285000,$GPGSV,3,2,11,15,47,302,40,17,13,126,41,20,13,320,27,23,13,323,30*78

1610625285000,$GPGSV,3,3,11,24,19,266,32,28,62,082,40,30,32,070,41*44

1610625285000,$GLGSV,2,1,07,69,44,162,35,70,65,303,28,71,16,326,18,73,16,234,29*61

1610625285000,$GLGSV,2,2,07,79,48,036,45,80,65,256,37,88,08,036,27*52

1610625285000,$GAGSV,2,1,05,101,54,055,40,104,55,147,33,105,14,311,30,121,06,045,23*69

1610625285000,$GAGSV,2,2,05,131,64,203,34*6A

1610625285000,$BDGSV,2,1,06,210,30,051,41,211,08,073,41,220,49,292,39,223,64,054,42*6F

1610625285000,$BDGSV,2,2,06,225,13,061,39,232,51,193,34*6F

1610625285000,$GPGSA,A,3,13,28,14,15,30,05,24,17,23,,,,0.8,0.4,0.6*36

1610625285000,$GNGSA,A,3,69,70,73,79,80,,,,,,,,0.8,0.4,0.6*2C

1610625285000,$GAGSA,A,3,105,121,131,,,,,,,,,,0.8,0.4,0.6*1C

1610625285000,$BDGSA,A,3,210,211,220,223,225,232,,,,,,,0.8,0.4,0.6*2D

1610625285000,$GPRMC,115445.000,A,4540.3649,N,01156.0163,E,2.8,102.7,140121,,,A*6D

1610625285000,$PSAMCLK,2140,38850300,23,9741825,309178,388503000*4D

1610625285000,$PSAMCLK,2140,38850300,23,9741825,309178,388503000*4D

1610625286000,$GPGGA,115446.000,4540.3653,N,01156.0174,E,1,24,0.4,42.9,M,47.1,M,,*67

1610625286000,$PSAMSA,115446.000,4540.3653,N,01156.0174,E,0,M,,*6D

1610625286000,$GPGLL,4540.3653,N,01156.0174,E,115446.000,A,A*5D

1610625286000,$GPVTG,83.2,T,,M,3.1,N,5.7,K,A*34

1610625286000,$GPGSV,3,1,11,05,29,204,29,07,02,075,16,13,86,356,37,14,57,071,41*74

1610625286000,$GPGSV,3,2,11,15,47,302,39,17,13,126,41,20,13,320,30,23,13,323,31*71

1610625286000,$GPGSV,3,3,11,24,19,266,32,28,62,082,41,30,32,070,41*45

1610625286000,$GLGSV,2,1,07,69,44,162,34,70,65,303,28,71,16,326,17,73,16,234,29*6F

1610625286000,$GLGSV,2,2,07,79,48,036,45,80,65,256,37,88,08,036,27*52

1610625286000,$GAGSV,2,1,05,101,54,055,43,104,55,147,32,105,14,311,38,121,06,045,23*63

1610625286000,$GAGSV,2,2,05,131,64,203,35*6B

1610625286000,$BDGSV,2,1,06,210,30,051,41,211,08,073,41,220,49,292,39,223,64,054,42*6F

1610625286000,$BDGSV,2,2,06,225,13,061,40,232,51,193,33*66

1610625286000,$GPGSA,A,3,13,28,14,15,30,05,24,17,23,,,,0.8,0.4,0.6*36

1610625286000,$GNGSA,A,3,69,70,73,79,80,,,,,,,,0.8,0.4,0.6*2C

1610625286000,$GAGSA,A,3,101,105,121,131,,,,,,,,,0.8,0.4,0.6*2C

1610625286000,$BDGSA,A,3,210,211,220,223,225,232,,,,,,,0.8,0.4,0.6*2D

1610625286000,$GPRMC,115446.000,A,4540.3653,N,01156.0174,E,3.1,83.2,140121,,,A*56

1610625286000,$PSAMCLK,2140,38850400,24,9741718,371012,388504000*49

1610625286000,$PSAMCLK,2140,38850400,24,9741718,371012,388504000*49

1610625287000,$GPGGA,115447.000,4540.3651,N,01156.0186,E,1,24,0.4,42.3,M,47.1,M,,*63

1610625287000,$PSAMSA,115447.000,4540.3651,N,01156.0186,E,0,M,,*63

1610625287000,$GPGLL,4540.3651,N,01156.0186,E,115447.000,A,A*53

1610625287000,$GPVTG,77.7,T,,M,2.8,N,5.2,K,A*37

1610625287000,$GPGSV,3,1,11,05,29,204,29,07,02,075,14,13,86,356,37,14,57,071,41*76

1610625287000,$GPGSV,3,2,11,15,47,302,39,17,13,126,41,20,13,320,32,23,13,323,31*73

1610625287000,$GPGSV,3,3,11,24,19,266,31,28,62,082,41,30,32,070,41*46

1610625287000,$GLGSV,2,1,07,69,44,162,34,70,65,303,28,71,16,326,15,73,16,234,29*6D

1610625287000,$GLGSV,2,2,07,79,48,036,45,80,65,256,37,88,08,036,28*5D

1610625287000,$GAGSV,2,1,05,101,54,055,43,104,55,147,30,105,14,311,38,121,06,045,22*60

1610625287000,$GAGSV,2,2,05,131,64,203,35*6B

1610625287000,$BDGSV,2,1,06,210,30,051,41,211,08,073,42,220,49,292,39,223,64,054,43*6D

1610625287000,$BDGSV,2,2,06,225,13,061,41,232,51,193,32*66

1610625287000,$GPGSA,A,3,13,28,14,15,30,05,24,17,23,,,,0.8,0.4,0.6*36

1610625287000,$GNGSA,A,3,69,70,73,79,80,,,,,,,,0.8,0.4,0.6*2C

1610625287000,$GAGSA,A,3,101,105,121,131,,,,,,,,,0.8,0.4,0.6*2C

1610625287000,$BDGSA,A,3,210,211,220,223,225,232,,,,,,,0.8,0.4,0.6*2D

1610625287000,$GPRMC,115447.000,A,4540.3651,N,01156.0186,E,2.8,77.7,140121,,,A*5E

1610625287000,$PSAMCLK,2140,38850500,24,9741432,432848,388505000*45

1610625287000,$PSAMCLK,2140,38850500,24,9741432,432848,388505000*45

1610625288000,$GPGGA,115448.000,4540.3649,N,01156.0197,E,1,24,0.4,41.6,M,47.1,M,,*63

1610625288000,$PSAMSA,115448.000,4540.3649,N,01156.0197,E,0,M,,*65

1610625288000,$GPGLL,4540.3649,N,01156.0197,E,115448.000,A,A*55

1610625288000,$GPVTG,73.7,T,,M,2.8,N,5.1,K,A*30

1610625288000,$GPGSV,3,1,11,05,29,204,29,07,02,075,13,13,86,356,37,14,57,071,41*71

1610625288000,$GPGSV,3,2,11,15,47,302,39,17,13,126,40,20,13,320,32,23,13,323,31*72

1610625288000,$GPGSV,3,3,11,24,19,266,31,28,62,082,41,30,32,070,41*46

1610625288000,$GLGSV,2,1,07,69,44,162,33,70,65,303,28,71,16,326,14,73,16,234,29*6B

1610625288000,$GLGSV,2,2,07,79,48,036,45,80,65,256,37,88,08,036,28*5D

1610625288000,$GAGSV,2,1,05,101,54,055,43,104,55,147,29,105,14,311,38,121,06,045,22*68

1610625288000,$GAGSV,2,2,05,131,64,203,35*6B

1610625288000,$BDGSV,2,1,06,210,30,051,41,211,08,073,42,220,49,292,39,223,64,054,43*6D

1610625288000,$BDGSV,2,2,06,225,13,061,41,232,51,193,32*66

1610625288000,$GPGSA,A,3,13,28,14,15,30,05,24,17,23,,,,0.8,0.4,0.6*36

1610625288000,$GNGSA,A,3,69,70,73,79,80,,,,,,,,0.8,0.4,0.6*2C

1610625288000,$GAGSA,A,3,101,105,121,131,,,,,,,,,0.8,0.4,0.6*2C

1610625288000,$BDGSA,A,3,210,211,220,223,225,232,,,,,,,0.8,0.4,0.6*2D

1610625288000,$GPRMC,115448.000,A,4540.3649,N,01156.0197,E,2.8,73.7,140121,,,A*5C

1610625288000,$PSAMCLK,2140,38850600,24,9741338,494678,388506000*49

1610625288000,$PSAMCLK,2140,38850600,24,9741338,494678,388506000*49

1610625289000,$GPGGA,115449.000,4540.3651,N,01156.0205,E,1,24,0.4,41.2,M,47.1,M,,*67

1610625289000,$PSAMSA,115449.000,4540.3651,N,01156.0205,E,0,M,,*65

1610625289000,$GPGLL,4540.3651,N,01156.0205,E,115449.000,A,A*55

1610625289000,$GPVTG,64.4,T,,M,3.1,N,5.8,K,A*34

1610625289000,$GPGSV,3,1,11,05,29,204,29,07,02,075,13,13,86,356,37,14,57,071,41*71

1610625289000,$GPGSV,3,2,11,15,47,302,39,17,13,126,40,20,13,320,32,23,13,323,32*71

1610625289000,$GPGSV,3,3,11,24,19,266,31,28,62,082,42,30,32,070,42*46

1610625289000,$GLGSV,2,1,07,69,44,162,33,70,65,303,29,71,16,326,13,73,16,234,29*6D

1610625289000,$GLGSV,2,2,07,79,48,036,45,80,65,256,37,88,08,036,28*5D

1610625289000,$GAGSV,2,1,05,101,54,055,43,104,55,147,27,105,14,311,38,121,06,045,22*66

1610625289000,$GAGSV,2,2,05,131,64,203,36*68

1610625289000,$BDGSV,2,1,06,210,30,051,41,211,08,073,42,220,49,292,39,223,64,054,43*6D

1610625289000,$BDGSV,2,2,06,225,13,061,41,232,51,193,32*66

1610625289000,$GPGSA,A,3,13,28,14,15,30,05,24,17,23,,,,0.8,0.4,0.6*36

1610625289000,$GNGSA,A,3,69,70,73,79,80,,,,,,,,0.8,0.4,0.6*2C

1610625289000,$GAGSA,A,3,101,105,121,131,,,,,,,,,0.8,0.4,0.6*2C

1610625289000,$BDGSA,A,3,210,211,220,223,225,232,,,,,,,0.8,0.4,0.6*2D

1610625289000,$GPRMC,115449.000,A,4540.3651,N,01156.0205,E,3.1,64.4,140121,,,A*51

1610625289000,$PSAMCLK,2140,38850700,24,9741326,556510,388507000*44

1610625289000,$PSAMCLK,2140,38850700,24,9741326,556510,388507000*44

1610625290000,$GPGGA,115450.000,4540.3657,N,01156.0208,E,1,24,0.4,40.9,M,47.1,M,,*6E

1610625290000,$PSAMSA,115450.000,4540.3657,N,01156.0208,E,0,M,,*66

1610625290000,$GPGLL,4540.3657,N,01156.0208,E,115450.000,A,A*56

1610625290000,$GPVTG,29.6,T,,M,3.1,N,5.8,K,A*3F

1610625290000,$GPGSV,3,1,11,05,29,204,29,07,02,075,12,13,86,356,37,14,57,071,41*70

1610625290000,$GPGSV,3,2,11,15,47,302,40,17,13,126,40,20,13,320,32,23,13,323,32*7F

1610625290000,$GPGSV,3,3,11,24,19,266,34,28,62,082,42,30,32,070,42*43

1610625290000,$GLGSV,2,1,07,69,44,162,36,70,65,303,34,71,16,326,12,73,16,234,29*65

1610625290000,$GLGSV,2,2,07,79,48,036,45,80,65,256,36,88,08,036,28*5C

1610625290000,$GAGSV,2,1,05,101,54,055,43,104,55,147,26,105,14,311,38,121,06,045,22*67

1610625290000,$GAGSV,2,2,05,131,64,203,36*68

1610625290000,$BDGSV,2,1,06,210,30,051,41,211,08,073,42,220,49,292,45,223,64,054,43*66

1610625290000,$BDGSV,2,2,06,225,13,061,41,232,51,193,31*65

1610625290000,$GPGSA,A,3,13,28,14,15,30,05,24,17,23,,,,0.8,0.4,0.6*36

1610625290000,$GNGSA,A,3,69,70,73,79,80,,,,,,,,0.8,0.4,0.6*2C

1610625290000,$GAGSA,A,3,101,105,121,131,,,,,,,,,0.8,0.4,0.6*2C

1610625290000,$BDGSA,A,3,210,211,220,223,225,232,,,,,,,0.8,0.4,0.6*2D

1610625290000,$GPRMC,115450.000,A,4540.3657,N,01156.0208,E,3.1,29.6,140121,,,A*59

1610625290000,$PSAMCLK,2140,38850800,24,9741270,618343,388508000*4F

1610625290000,$PSAMCLK,2140,38850800,24,9741270,618343,388508000*4F

1610625291000,$GPGGA,115451.000,4540.3666,N,01156.0202,E,1,24,0.4,40.4,M,47.1,M,,*6A

1610625291000,$PSAMSA,115451.000,4540.3666,N,01156.0202,E,0,M,,*6F

1610625291000,$GPGLL,4540.3666,N,01156.0202,E,115451.000,A,A*5F

1610625291000,$GPVTG,1.5,T,,M,2.9,N,5.4,K,A*03

1610625291000,$GPGSV,3,1,10,05,29,204,29,13,86,356,37,14,57,071,40,15,47,302,41*77

1610625291000,$GPGSV,3,2,10,17,13,126,40,20,13,320,32,23,13,323,31,24,19,266,37*77

1610625291000,$GPGSV,3,3,10,28,62,082,41,30,32,070,42*7A

1610625291000,$GLGSV,2,1,06,69,44,162,36,70,66,302,36,73,16,235,30,79,48,037,45*6F

1610625291000,$GLGSV,2,2,06,80,65,256,38,88,08,036,28*65

1610625291000,$GAGSV,2,1,05,101,54,055,42,104,55,147,24,105,14,311,37,121,06,045,22*6B

1610625291000,$GAGSV,2,2,05,131,64,203,36*68

1610625291000,$BDGSV,2,1,06,210,30,051,41,211,08,073,42,220,49,292,45,223,64,054,43*66

1610625291000,$BDGSV,2,2,06,225,13,061,41,232,51,193,31*65

1610625291000,$GPGSA,A,3,13,28,14,15,30,05,24,17,23,,,,0.8,0.4,0.6*36

1610625291000,$GNGSA,A,3,69,70,73,79,80,,,,,,,,0.8,0.4,0.6*2C

1610625291000,$GAGSA,A,3,101,105,121,131,,,,,,,,,0.8,0.4,0.6*2C

1610625291000,$BDGSA,A,3,210,211,220,223,225,232,,,,,,,0.8,0.4,0.6*2D

1610625291000,$GPRMC,115451.000,A,4540.3666,N,01156.0202,E,2.9,1.5,140121,,,A*60

1610625291000,$PSAMCLK,2140,38850900,24,9741124,680173,388509000*4D

1610625291000,$PSAMCLK,2140,38850900,24,9741124,680173,388509000*4D

1610625292000,$GPGGA,115452.000,4540.3673,N,01156.0196,E,1,23,0.4,40.7,M,47.1,M,,*67

1610625292000,$PSAMSA,115452.000,4540.3673,N,01156.0196,E,0,M,,*66

1610625292000,$GPGLL,4540.3673,N,01156.0196,E,115452.000,A,A*56

1610625292000,$GPVTG,339.9,T,,M,3.1,N,5.8,K,A*02

1610625292000,$GPGSV,3,1,11,05,29,204,29,13,86,356,38,14,57,071,40,15,47,302,42*7A

1610625292000,$GPGSV,3,2,11,17,13,126,40,19,02,146,20,20,13,320,32,23,13,323,31*75

1610625292000,$GPGSV,3,3,11,24,19,266,37,28,62,082,41,30,32,070,41*40

1610625292000,$GLGSV,2,1,06,69,44,162,36,70,66,302,36,73,16,235,45,79,48,037,45*6D

1610625292000,$GLGSV,2,2,06,80,65,256,43,88,08,036,28*69

1610625292000,$GAGSV,2,1,05,101,54,055,42,104,55,147,23,105,14,311,36,121,06,045,22*6D

1610625292000,$GAGSV,2,2,05,131,64,203,37*69

1610625292000,$BDGSV,2,1,07,205,18,125,38,210,30,051,40,211,08,073,42,220,49,292,47*60

1610625292000,$BDGSV,2,2,07,223,64,054,43,225,13,061,40,232,51,193,31*62

1610625292000,$GPGSA,A,3,13,28,14,15,30,05,24,17,23,,,,0.8,0.4,0.6*36

1610625292000,$GNGSA,A,3,69,70,73,79,80,,,,,,,,0.8,0.4,0.6*2C

1610625292000,$GAGSA,A,3,101,105,121,131,,,,,,,,,0.8,0.4,0.6*2C

1610625292000,$BDGSA,A,3,210,211,220,223,232,,,,,,,,0.8,0.4,0.6*18

1610625292000,$GPRMC,115452.000,A,4540.3673,N,01156.0196,E,3.1,339.9,140121,,,A*64

1610625292000,$PSAMCLK,2140,38851000,23,9740968,742002,388510000*43

1610625292000,$PSAMCLK,2140,38851000,23,9740968,742002,388510000*43

1610625293000,$GPGGA,115453.000,4540.3680,N,01156.0195,E,1,24,0.4,41.1,M,47.1,M,,*69

1610625293000,$PSAMSA,115453.000,4540.3680,N,01156.0195,E,0,M,,*68

1610625293000,$GPGLL,4540.3680,N,01156.0195,E,115453.000,A,A*58

1610625293000,$GPVTG,348.2,T,,M,2.8,N,5.2,K,A*0D

1610625293000,$GPGSV,3,1,11,05,29,204,29,13,86,356,38,14,57,071,39,15,47,302,42*74

1610625293000,$GPGSV,3,2,11,17,13,126,40,19,02,146,23,20,13,320,32,23,13,323,31*76

1610625293000,$GPGSV,3,3,11,24,19,266,37,28,62,082,40,30,32,070,40*40

1610625293000,$GLGSV,2,1,06,69,44,162,36,70,66,302,36,73,16,235,46,79,48,037,45*6E

1610625293000,$GLGSV,2,2,06,80,65,256,43,88,08,036,28*69

1610625293000,$GAGSV,2,1,05,101,54,055,41,104,55,147,21,105,14,311,35,121,06,045,22*6F

1610625293000,$GAGSV,2,2,05,131,64,203,37*69

1610625293000,$BDGSV,2,1,07,205,18,125,38,210,30,051,40,211,08,073,42,220,49,292,47*60

1610625293000,$BDGSV,2,2,07,223,64,054,42,225,13,061,38,232,51,193,31*6C

1610625293000,$GPGSA,A,3,13,28,14,15,30,05,24,17,20,23,,,0.8,0.4,0.6*34

1610625293000,$GNGSA,A,3,69,70,73,79,80,,,,,,,,0.8,0.4,0.6*2C

1610625293000,$GAGSA,A,3,101,105,121,131,,,,,,,,,0.8,0.4,0.6*2C

1610625293000,$BDGSA,A,3,210,211,220,223,232,,,,,,,,0.8,0.4,0.6*18

1610625293000,$GPRMC,115453.000,A,4540.3680,N,01156.0195,E,2.8,348.2,140121,,,A*6F

1610625293000,$PSAMCLK,2140,38851100,24,9740688,803833,388511000*45

1610625293000,$PSAMCLK,2140,38851100,24,9740688,803833,388511000*45

1610625294000,$GPGGA,115454.000,4540.3686,N,01156.0198,E,1,24,0.4,41.2,M,47.1,M,,*66

1610625294000,$PSAMSA,115454.000,4540.3686,N,01156.0198,E,0,M,,*64

1610625294000,$GPGLL,4540.3686,N,01156.0198,E,115454.000,A,A*54

1610625294000,$GPVTG,354.9,T,,M,2.7,N,5.0,K,A*06

1610625294000,$GPGSV,3,1,11,05,29,204,29,13,86,356,38,14,57,071,39,15,47,302,42*74

1610625294000,$GPGSV,3,2,11,17,13,126,40,19,02,146,21,20,13,320,31,23,13,323,31*77

1610625294000,$GPGSV,3,3,11,24,19,266,37,28,62,082,40,30,32,070,40*40

1610625294000,$GLGSV,2,1,06,69,44,162,36,70,66,302,36,73,16,235,45,79,48,037,45*6D

1610625294000,$GLGSV,2,2,06,80,65,256,43,88,08,036,28*69

1610625294000,$GAGSV,2,1,06,101,54,055,41,104,54,147,20,105,14,311,35,109,62,298,39*6C

1610625294000,$GAGSV,2,2,06,121,06,045,22,131,64,203,38*60

1610625294000,$BDGSV,2,1,08,205,18,125,38,210,30,051,39,211,08,073,41,220,49,292,47*62

1610625294000,$BDGSV,2,2,08,223,64,054,42,225,13,061,37,232,51,193,31,237,58,248,45*68

1610625294000,$GPGSA,A,3,13,28,14,15,30,05,24,17,20,23,,,0.8,0.4,0.6*34

1610625294000,$GNGSA,A,3,69,70,73,79,80,,,,,,,,0.8,0.4,0.6*2C

1610625294000,$GAGSA,A,3,101,105,121,131,,,,,,,,,0.8,0.4,0.6*2C

1610625294000,$BDGSA,A,3,210,211,220,223,232,,,,,,,,0.8,0.4,0.6*18

1610625294000,$GPRMC,115454.000,A,4540.3686,N,01156.0198,E,2.7,354.9,140121,,,A*6A

1610625294000,$PSAMCLK,2140,38851200,24,9740718,865664,388512000*41

1610625294000,$PSAMCLK,2140,38851200,24,9740718,865664,388512000*41

1610625295000,$GPGGA,115455.000,4540.3691,N,01156.0198,E,1,23,0.4,41.2,M,47.1,M,,*66

1610625295000,$PSAMSA,115455.000,4540.3691,N,01156.0198,E,0,M,,*63

1610625295000,$GPGLL,4540.3691,N,01156.0198,E,115455.000,A,A*53

1610625295000,$GPVTG,355.5,T,,M,2.4,N,4.4,K,A*0D

1610625295000,$GPGSV,3,1,11,05,29,204,29,13,86,356,38,14,57,071,39,15,47,302,41*77

1610625295000,$GPGSV,3,2,11,17,13,126,40,19,02,146,20,20,13,320,31,23,13,323,30*77

1610625295000,$GPGSV,3,3,11,24,19,266,37,28,62,082,40,30,32,070,39*4E

1610625295000,$GLGSV,2,1,06,69,44,162,36,70,66,302,35,73,16,235,45,79,48,037,45*6E

1610625295000,$GLGSV,2,2,06,80,65,256,42,88,08,036,28*68

1610625295000,$GAGSV,2,1,06,101,54,055,40,104,54,147,18,105,14,311,34,109,62,298,42*6B

1610625295000,$GAGSV,2,2,06,121,06,045,22,131,64,203,38*60

1610625295000,$BDGSV,2,1,08,205,18,125,38,210,30,051,38,211,08,073,41,220,49,292,47*63

1610625295000,$BDGSV,2,2,08,223,64,054,42,225,13,061,35,232,51,193,32,237,58,248,45*69

1610625295000,$GPGSA,A,3,13,28,14,15,30,05,24,17,20,23,,,0.8,0.4,0.6*34

1610625295000,$GNGSA,A,3,69,73,79,80,,,,,,,,,0.8,0.4,0.6*2B

1610625295000,$GAGSA,A,3,101,105,121,131,,,,,,,,,0.8,0.4,0.6*2C

1610625295000,$BDGSA,A,3,210,211,220,223,232,,,,,,,,0.8,0.4,0.6*18

1610625295000,$GPRMC,115455.000,A,4540.3691,N,01156.0198,E,2.4,355.5,140121,,,A*63

1610625295000,$PSAMCLK,2140,38851300,23,9740640,927494,388513000*40

1610625295000,$PSAMCLK,2140,38851300,23,9740640,927494,388513000*40

1610625296000,$GPGGA,115456.000,4540.3698,N,01156.0196,E,1,24,0.4,41.1,M,47.1,M,,*66

1610625296000,$PSAMSA,115456.000,4540.3698,N,01156.0196,E,0,M,,*67

1610625296000,$GPGLL,4540.3698,N,01156.0196,E,115456.000,A,A*57

1610625296000,$GPVTG,352.1,T,,M,2.9,N,5.3,K,A*05

1610625296000,$GPGSV,3,1,11,05,29,204,29,13,86,356,38,14,57,071,38,15,47,302,41*76

1610625296000,$GPGSV,3,2,11,17,13,126,40,19,02,146,18,20,13,320,31,23,13,323,30*7C

1610625296000,$GPGSV,3,3,11,24,19,266,37,28,62,082,39,30,32,070,39*40

1610625296000,$GLGSV,2,1,06,69,44,162,36,70,66,302,34,73,16,235,45,79,48,037,44*6E

1610625296000,$GLGSV,2,2,06,80,65,256,42,88,08,036,28*68

1610625296000,$GAGSV,2,1,06,101,54,055,40,104,54,147,17,105,14,311,34,109,62,298,42*64

1610625296000,$GAGSV,2,2,06,121,06,045,22,131,64,203,38*60

1610625296000,$BDGSV,2,1,08,205,18,125,38,210,30,051,38,211,08,073,40,220,49,292,46*63

1610625296000,$BDGSV,2,2,08,223,64,054,42,225,13,061,34,232,51,193,32,237,58,248,45*68

1610625296000,$GPGSA,A,3,13,28,14,15,30,05,24,17,20,23,,,0.8,0.4,0.6*34

1610625296000,$GNGSA,A,3,69,70,73,79,80,,,,,,,,0.8,0.4,0.6*2C

1610625296000,$GAGSA,A,3,101,105,121,131,,,,,,,,,0.8,0.4,0.6*2C

1610625296000,$BDGSA,A,3,210,211,220,223,232,,,,,,,,0.8,0.4,0.6*18

1610625296000,$GPRMC,115456.000,A,4540.3698,N,01156.0196,E,2.9,352.1,140121,,,A*69

1610625296000,$PSAMCLK,2140,38851400,24,9740488,989323,388514000*4E

1610625296000,$PSAMCLK,2140,38851400,24,9740488,989323,388514000*4E

1610625297000,$GPGGA,115457.000,4540.3706,N,01156.0195,E,1,24,0.4,41.4,M,47.1,M,,*67

1610625297000,$PSAMSA,115457.000,4540.3706,N,01156.0195,E,0,M,,*63

1610625297000,$GPGLL,4540.3706,N,01156.0195,E,115457.000,A,A*53

1610625297000,$GPVTG,353.3,T,,M,2.9,N,5.3,K,A*06

1610625297000,$GPGSV,3,1,11,05,29,204,31,13,86,356,38,14,57,071,38,15,47,302,41*7F

1610625297000,$GPGSV,3,2,11,17,13,126,40,19,02,146,17,20,13,320,31,23,13,323,30*73

1610625297000,$GPGSV,3,3,11,24,19,266,36,28,62,082,39,30,32,070,39*41

1610625297000,$GLGSV,2,1,06,69,44,162,36,70,66,302,33,73,16,235,45,79,48,037,44*69

1610625297000,$GLGSV,2,2,06,80,65,256,42,88,08,036,28*68

1610625297000,$GAGSV,2,1,06,101,54,055,39,104,54,147,15,105,14,311,33,109,62,298,41*6C

1610625297000,$GAGSV,2,2,06,121,06,045,22,131,64,203,38*60

1610625297000,$BDGSV,2,1,08,205,18,125,38,210,30,051,37,211,08,073,39,220,49,292,46*62

1610625297000,$BDGSV,2,2,08,223,64,054,42,225,13,061,32,232,51,193,36,237,58,248,45*6A

1610625297000,$GPGSA,A,3,13,28,14,15,30,05,24,17,20,23,,,0.8,0.4,0.6*34

1610625297000,$GNGSA,A,3,69,70,73,79,80,,,,,,,,0.8,0.4,0.6*2C

1610625297000,$GAGSA,A,3,101,105,121,131,,,,,,,,,0.8,0.4,0.6*2C

1610625297000,$BDGSA,A,3,210,211,220,223,232,,,,,,,,0.8,0.4,0.6*18

1610625297000,$GPRMC,115457.000,A,4540.3706,N,01156.0195,E,2.9,353.3,140121,,,A*6E

1610625297000,$PSAMCLK,2140,38851500,24,9740475,1051153,388515000*74

1610625297000,$PSAMCLK,2140,38851500,24,9740475,1051153,388515000*74

1610625298000,$GPGGA,115458.000,4540.3712,N,01156.0194,E,1,24,0.4,41.3,M,47.1,M,,*6B

1610625298000,$PSAMSA,115458.000,4540.3712,N,01156.0194,E,0,M,,*68

1610625298000,$GPGLL,4540.3712,N,01156.0194,E,115458.000,A,A*58

1610625298000,$GPVTG,358.4,T,,M,2.4,N,4.5,K,A*00

1610625298000,$GPGSV,3,1,11,05,29,204,35,13,86,356,38,14,57,071,38,15,47,302,41*7B

1610625298000,$GPGSV,3,2,11,17,13,126,39,19,02,146,15,20,13,320,31,23,13,323,30*7F

1610625298000,$GPGSV,3,3,11,24,19,266,36,28,62,082,39,30,32,070,38*40

1610625298000,$GLGSV,2,1,06,69,44,162,36,70,66,302,32,73,16,235,44,79,48,037,43*6E

1610625298000,$GLGSV,2,2,06,80,65,256,42,88,08,036,28*68

1610625298000,$GAGSV,2,1,06,101,54,055,39,104,54,147,14,105,14,311,33,109,62,298,41*6D

1610625298000,$GAGSV,2,2,06,121,06,045,22,131,64,203,38*60

1610625298000,$BDGSV,2,1,08,205,18,125,38,210,30,051,36,211,08,073,38,220,49,292,45*61

1610625298000,$BDGSV,2,2,08,223,64,054,41,225,13,061,31,232,51,193,38,237,58,248,45*64

1610625298000,$GPGSA,A,3,13,28,14,15,30,05,24,17,20,23,,,0.8,0.4,0.6*34

1610625298000,$GNGSA,A,3,69,70,73,79,80,,,,,,,,0.8,0.4,0.6*2C

1610625298000,$GAGSA,A,3,101,105,121,131,,,,,,,,,0.8,0.4,0.6*2C

1610625298000,$BDGSA,A,3,210,211,220,223,232,,,,,,,,0.8,0.4,0.6*18

1610625298000,$GPRMC,115458.000,A,4540.3712,N,01156.0194,E,2.4,358.4,140121,,,A*64

1610625298000,$PSAMCLK,2140,38851600,24,9740273,1112979,388516000*72

1610625298000,$PSAMCLK,2140,38851600,24,9740273,1112979,388516000*72

1610625299000,$GPGGA,115459.000,4540.3721,N,01156.0191,E,1,24,0.4,41.1,M,47.1,M,,*6D

1610625299000,$PSAMSA,115459.000,4540.3721,N,01156.0191,E,0,M,,*6C

1610625299000,$GPGLL,4540.3721,N,01156.0191,E,115459.000,A,A*5C

1610625299000,$GPVTG,356.6,T,,M,2.8,N,5.3,K,A*07

1610625299000,$GPGSV,3,1,11,05,29,204,35,13,86,356,37,14,57,071,37,15,47,302,40*7A

1610625299000,$GPGSV,3,2,11,17,13,126,39,19,02,146,14,20,13,320,31,23,13,323,29*76

1610625299000,$GPGSV,3,3,11,24,19,266,36,28,62,082,39,30,32,070,38*40

1610625299000,$GLGSV,2,1,06,69,44,162,36,70,66,302,32,73,16,235,43,79,48,037,43*69

1610625299000,$GLGSV,2,2,06,80,65,256,41,88,08,036,28*6B

1610625299000,$GAGSV,2,1,06,101,54,055,38,104,54,147,13,105,14,311,32,109,62,298,40*6B

1610625299000,$GAGSV,2,2,06,121,06,045,22,131,64,203,38*60

1610625299000,$BDGSV,2,1,08,205,18,125,37,210,30,051,35,211,08,073,38,220,49,292,44*6C

1610625299000,$BDGSV,2,2,08,223,64,054,41,225,13,061,29,232,51,193,38,237,58,248,44*6C

1610625299000,$GPGSA,A,3,13,28,14,15,30,05,24,17,20,23,,,0.8,0.4,0.6*34

1610625299000,$GNGSA,A,3,69,70,73,79,80,,,,,,,,0.8,0.4,0.6*2C

1610625299000,$GAGSA,A,3,101,105,121,131,,,,,,,,,0.8,0.4,0.6*2C

1610625299000,$BDGSA,A,3,210,211,220,223,232,,,,,,,,0.8,0.4,0.6*18

1610625299000,$GPRMC,115459.000,A,4540.3721,N,01156.0191,E,2.8,356.6,140121,,,A*60

1610625299000,$PSAMCLK,2140,38851700,24,9740279,1174807,388517000*70

1610625299000,$PSAMCLK,2140,38851700,24,9740279,1174807,388517000*70

1610625300000,$GPGGA,115500.000,4540.3731,N,01156.0190,E,1,23,0.4,41.0,M,47.1,M,,*66

1610625300000,$PSAMSA,115500.000,4540.3731,N,01156.0190,E,0,M,,*61

1610625300000,$GPGLL,4540.3731,N,01156.0190,E,115500.000,A,A*51

1610625300000,$GPVTG,1.2,T,,M,3.2,N,6.0,K,A*09

1610625300000,$GPGSV,3,1,11,05,29,204,35,13,86,356,37,14,57,071,37,15,47,302,40*7A

1610625300000,$GPGSV,3,2,11,17,13,126,39,19,02,146,13,20,13,320,31,23,13,323,29*71

1610625300000,$GPGSV,3,3,11,24,19,266,36,28,62,082,39,30,32,070,38*40

1610625300000,$GLGSV,2,1,06,69,44,162,36,70,66,302,31,73,16,235,43,79,48,037,43*6A

1610625300000,$GLGSV,2,2,06,80,65,256,40,88,08,036,28*6A

1610625300000,$GAGSV,2,1,06,101,54,055,38,104,54,147,13,105,14,311,32,109,62,298,40*6B

1610625300000,$GAGSV,2,2,06,121,06,045,22,131,64,203,38*60

1610625300000,$BDGSV,2,1,08,205,18,125,37,210,30,051,35,211,08,073,37,220,49,292,44*63

1610625300000,$BDGSV,2,2,08,223,64,054,41,225,13,061,28,232,51,193,38,237,58,248,44*6D

1610625300000,$GPGSA,A,3,13,28,14,15,30,05,24,17,23,,,,0.8,0.4,0.6*36

1610625300000,$GNGSA,A,3,69,70,73,79,80,,,,,,,,0.8,0.4,0.6*2C

1610625300000,$GAGSA,A,3,101,105,121,131,,,,,,,,,0.8,0.4,0.6*2C

1610625300000,$BDGSA,A,3,210,211,220,223,232,,,,,,,,0.8,0.4,0.6*18

1610625300000,$GPRMC,115500.000,A,4540.3731,N,01156.0190,E,3.2,1.2,140121,,,A*63

1610625300000,$PSAMCLK,2140,38851800,23,9740223,1236636,388518000*71

1610625300000,$PSAMCLK,2140,38851800,23,9740223,1236636,388518000*71

1610625301000,$GPGGA,115501.000,4540.3741,N,01156.0186,E,1,24,0.4,41.1,M,47.1,M,,*61

1610625301000,$PSAMSA,115501.000,4540.3741,N,01156.0186,E,0,M,,*60

1610625301000,$GPGLL,4540.3741,N,01156.0186,E,115501.000,A,A*50

1610625301000,$GPVTG,0.2,T,,M,1.8,N,3.3,K,A*06

1610625301000,$GPGSV,3,1,11,05,29,204,35,13,86,356,37,14,57,071,37,15,47,302,40*7A

1610625301000,$GPGSV,3,2,11,17,13,126,39,19,02,146,12,20,13,320,30,23,13,323,29*71

1610625301000,$GPGSV,3,3,11,24,19,266,36,28,62,082,39,30,32,070,38*40

1610625301000,$GLGSV,2,1,06,69,44,162,36,70,66,302,31,73,16,235,42,79,48,037,42*6A

1610625301000,$GLGSV,2,2,06,80,65,256,39,88,08,036,28*64

1610625301000,$GAGSV,2,1,05,101,54,055,38,105,14,311,32,109,62,298,39,121,06,045,21*64

1610625301000,$GAGSV,2,2,05,131,64,203,38*66

1610625301000,$BDGSV,2,1,08,205,18,125,37,210,30,051,34,211,08,073,36,220,49,292,43*64

1610625301000,$BDGSV,2,2,08,223,64,054,40,225,13,061,26,232,51,193,38,237,58,248,43*65

1610625301000,$GPGSA,A,3,13,28,14,15,30,05,24,17,20,23,,,0.8,0.4,0.6*34

1610625301000,$GNGSA,A,3,69,70,73,79,80,,,,,,,,0.8,0.4,0.6*2C

1610625301000,$GAGSA,A,3,101,105,121,131,,,,,,,,,0.8,0.4,0.6*2C

1610625301000,$BDGSA,A,3,210,211,220,223,232,,,,,,,,0.8,0.4,0.6*18

1610625301000,$GPRMC,115501.000,A,4540.3741,N,01156.0186,E,1.8,0.2,140121,,,A*6B

1610625301000,$PSAMCLK,2140,38851900,24,9740103,1298460,388519000*72

1610625301000,$PSAMCLK,2140,38851900,24,9740103,1298460,388519000*72

1610625302000,$GPGGA,115502.000,4540.3750,N,01156.0180,E,1,24,0.4,41.4,M,47.1,M,,*61

1610625302000,$PSAMSA,115502.000,4540.3750,N,01156.0180,E,0,M,,*65

1610625302000,$GPGLL,4540.3750,N,01156.0180,E,115502.000,A,A*55

1610625302000,$GPVTG,357.4,T,,M,1.2,N,2.3,K,A*0A

1610625302000,$GPGSV,3,1,10,05,29,204,35,13,86,356,36,14,57,071,37,15,47,302,46*7C

1610625302000,$GPGSV,3,2,10,17,13,126,39,20,13,320,30,23,13,323,29,24,19,266,36*73

1610625302000,$GPGSV,3,3,10,28,62,082,38,30,32,070,37*76

1610625302000,$GLGSV,2,1,06,69,44,162,36,70,66,302,30,73,16,235,41,79,48,037,42*68

1610625302000,$GLGSV,2,2,06,80,65,256,38,88,08,036,28*65

1610625302000,$GAGSV,2,1,05,101,54,055,37,105,14,311,31,109,62,298,39,121,06,045,21*68

1610625302000,$GAGSV,2,2,05,131,64,203,37*69

1610625302000,$BDGSV,2,1,08,205,18,125,37,210,30,051,34,211,08,073,36,220,49,292,43*64

1610625302000,$BDGSV,2,2,08,223,64,054,40,225,13,061,25,232,51,193,38,237,58,248,43*66

1610625302000,$GPGSA,A,3,13,28,14,15,30,05,24,17,20,23,,,0.8,0.4,0.6*34

1610625302000,$GNGSA,A,3,69,70,73,79,80,,,,,,,,0.8,0.4,0.6*2C

1610625302000,$GAGSA,A,3,101,105,121,131,,,,,,,,,0.8,0.4,0.6*2C

1610625302000,$BDGSA,A,3,210,211,220,223,232,,,,,,,,0.8,0.4,0.6*18

1610625302000,$GPRMC,115502.000,A,4540.3750,N,01156.0180,E,1.2,357.4,140121,,,A*63

1610625302000,$PSAMCLK,2140,38852000,24,9739909,1360285,388520000*75

1610625302000,$PSAMCLK,2140,38852000,24,9739909,1360285,388520000*75

1610625303000,$GPGGA,115503.000,4540.3758,N,01156.0174,E,1,24,0.4,41.2,M,47.1,M,,*65

1610625303000,$PSAMSA,115503.000,4540.3758,N,01156.0174,E,0,M,,*67

1610625303000,$GPGLL,4540.3758,N,01156.0174,E,115503.000,A,A*57

1610625303000,$GPVTG,6.9,T,,M,2.0,N,3.7,K,A*04

1610625303000,$GPGSV,3,1,10,05,29,204,34,13,86,356,36,14,57,071,37,15,47,302,45*7E

1610625303000,$GPGSV,3,2,10,17,13,126,39,20,13,320,30,23,13,323,29,24,19,266,36*73

1610625303000,$GPGSV,3,3,10,28,62,082,38,30,32,070,37*76

1610625303000,$GLGSV,2,1,06,69,44,162,36,70,66,302,31,73,16,235,41,79,48,037,41*6A

1610625303000,$GLGSV,2,2,06,80,65,256,38,88,08,036,28*65

1610625303000,$GAGSV,2,1,05,101,54,055,37,105,14,311,31,109,62,298,39,121,06,045,21*68

1610625303000,$GAGSV,2,2,05,131,64,203,37*69

1610625303000,$BDGSV,2,1,08,205,18,125,37,210,30,051,33,211,08,073,35,220,49,292,43*60

1610625303000,$BDGSV,2,2,08,223,64,054,39,225,13,061,23,232,51,193,38,237,58,248,42*6F

1610625303000,$GPGSA,A,3,13,28,14,15,30,05,24,17,20,23,,,0.8,0.4,0.6*34

1610625303000,$GNGSA,A,3,69,70,73,79,80,,,,,,,,0.8,0.4,0.6*2C

1610625303000,$GAGSA,A,3,101,105,121,131,,,,,,,,,0.8,0.4,0.6*2C

1610625303000,$BDGSA,A,3,210,211,220,223,232,,,,,,,,0.8,0.4,0.6*18

1610625303000,$GPRMC,115503.000,A,4540.3758,N,01156.0174,E,2.0,6.9,140121,,,A*6A

1610625303000,$PSAMCLK,2140,38852100,24,9739567,1422106,388521000*78

1610625303000,$PSAMCLK,2140,38852100,24,9739567,1422106,388521000*78

1610625304000,$GPGGA,115504.000,4540.3768,N,01156.0173,E,1,24,0.4,41.3,M,47.1,M,,*67

1610625304000,$PSAMSA,115504.000,4540.3768,N,01156.0173,E,0,M,,*64

1610625304000,$GPGLL,4540.3768,N,01156.0173,E,115504.000,A,A*54

1610625304000,$GPVTG,355.6,T,,M,2.5,N,4.6,K,A*0D

1610625304000,$GPGSV,3,1,10,05,29,204,34,13,86,356,36,14,57,071,36,15,47,302,45*7F

1610625304000,$GPGSV,3,2,10,17,13,126,38,20,13,320,30,23,13,323,29,24,19,266,36*72

1610625304000,$GPGSV,3,3,10,28,62,082,38,30,32,070,37*76

1610625304000,$GLGSV,2,1,06,69,44,162,36,70,66,302,32,73,16,235,40,79,48,037,41*68

1610625304000,$GLGSV,2,2,06,80,65,256,37,88,08,036,28*6A

1610625304000,$GAGSV,2,1,05,101,54,055,37,105,14,311,31,109,62,298,40,121,06,045,21*66

1610625304000,$GAGSV,2,2,05,131,64,203,36*68

1610625304000,$BDGSV,2,1,08,205,18,125,37,210,30,051,33,211,08,073,35,220,49,292,42*61

1610625304000,$BDGSV,2,2,08,223,64,054,39,225,13,061,22,232,51,193,38,237,58,248,42*6E

1610625304000,$GPGSA,A,3,13,28,14,15,30,05,24,17,20,23,,,0.8,0.4,0.6*34

1610625304000,$GNGSA,A,3,69,70,73,79,80,,,,,,,,0.8,0.4,0.6*2C

1610625304000,$GAGSA,A,3,101,105,121,131,,,,,,,,,0.8,0.4,0.6*2C

1610625304000,$BDGSA,A,3,210,211,220,223,232,,,,,,,,0.8,0.4,0.6*18

1610625304000,$GPRMC,115504.000,A,4540.3768,N,01156.0173,E,2.5,355.6,140121,,,A*66

1610625304000,$PSAMCLK,2140,38852200,24,9739632,1483928,388522000*74

1610625304000,$PSAMCLK,2140,38852200,24,9739632,1483928,388522000*74

1610625305000,$GPGGA,115505.000,4540.3779,N,01156.0168,E,1,24,0.4,41.5,M,47.1,M,,*6A

1610625305000,$PSAMSA,115505.000,4540.3779,N,01156.0168,E,0,M,,*6F

1610625305000,$GPGLL,4540.3779,N,01156.0168,E,115505.000,A,A*5F

1610625305000,$GPVTG,349.2,T,,M,2.1,N,4.0,K,A*06

1610625305000,$GPGSV,3,1,10,05,29,204,34,13,86,356,36,14,57,071,36,15,47,302,45*7F

1610625305000,$GPGSV,3,2,10,17,13,126,38,20,13,320,30,23,13,323,29,24,19,266,36*72

1610625305000,$GPGSV,3,3,10,28,62,082,37,30,32,070,37*79

1610625305000,$GLGSV,2,1,06,69,44,162,37,70,66,302,32,73,16,235,40,79,48,037,41*69

1610625305000,$GLGSV,2,2,06,80,65,256,37,88,08,036,28*6A

1610625305000,$GAGSV,2,1,05,101,54,055,36,105,14,311,31,109,62,298,40,121,06,045,22*64

1610625305000,$GAGSV,2,2,05,131,64,203,36*68

1610625305000,$BDGSV,2,1,08,205,18,125,35,210,30,051,32,211,08,073,34,220,49,292,42*63

1610625305000,$BDGSV,2,2,08,223,64,054,38,225,13,061,20,232,51,193,38,237,58,248,41*6E

1610625305000,$GPGSA,A,3,13,28,14,15,30,05,24,17,20,23,,,0.8,0.4,0.6*34

1610625305000,$GNGSA,A,3,69,70,73,79,80,,,,,,,,0.8,0.4,0.6*2C

1610625305000,$GAGSA,A,3,101,105,121,131,,,,,,,,,0.8,0.4,0.6*2C

1610625305000,$BDGSA,A,3,210,211,220,223,232,,,,,,,,0.8,0.4,0.6*18

1610625305000,$GPRMC,115505.000,A,4540.3779,N,01156.0168,E,2.1,349.2,140121,,,A*60

1610625305000,$PSAMCLK,2140,38852300,24,9739479,1545750,388523000*73

1610625305000,$PSAMCLK,2140,38852300,24,9739479,1545750,388523000*73

1610625306000,$GPGGA,115506.000,4540.3788,N,01156.0165,E,1,24,0.4,41.5,M,47.1,M,,*6A

1610625306000,$PSAMSA,115506.000,4540.3788,N,01156.0165,E,0,M,,*6F

1610625306000,$GPGLL,4540.3788,N,01156.0165,E,115506.000,A,A*5F

1610625306000,$GPVTG,346.1,T,,M,1.9,N,3.6,K,A*00

1610625306000,$GPGSV,3,1,10,05,29,204,34,13,86,356,36,14,57,071,36,15,47,302,44*7E

1610625306000,$GPGSV,3,2,10,17,13,126,37,20,13,320,30,23,13,323,29,24,19,266,36*7D

1610625306000,$GPGSV,3,3,10,28,62,082,37,30,32,070,37*79

1610625306000,$GLGSV,2,1,06,69,44,162,37,70,66,302,32,73,16,235,39,79,48,037,41*67

1610625306000,$GLGSV,2,2,06,80,65,256,37,88,08,036,28*6A

1610625306000,$GAGSV,2,1,05,101,54,055,36,105,14,311,30,109,62,298,40,121,06,045,23*64

1610625306000,$GAGSV,2,2,05,131,64,203,36*68

1610625306000,$BDGSV,2,1,08,205,18,125,34,210,30,051,32,211,08,073,34,220,49,292,42*62

1610625306000,$BDGSV,2,2,08,223,64,054,38,225,13,061,19,232,51,193,38,237,58,248,41*64

1610625306000,$GPGSA,A,3,13,28,14,15,30,05,24,17,20,23,,,0.8,0.4,0.6*34

1610625306000,$GNGSA,A,3,69,70,73,79,80,,,,,,,,0.8,0.4,0.6*2C

1610625306000,$GAGSA,A,3,101,105,121,131,,,,,,,,,0.8,0.4,0.6*2C

1610625306000,$BDGSA,A,3,210,211,220,223,232,,,,,,,,0.8,0.4,0.6*18

1610625306000,$GPRMC,115506.000,A,4540.3788,N,01156.0165,E,1.9,346.1,140121,,,A*67

1610625306000,$PSAMCLK,2140,38852400,24,9739267,1607570,388524000*7F

1610625306000,$PSAMCLK,2140,38852400,24,9739267,1607570,388524000*7F

1610625307000,$GPGGA,115507.000,4540.3799,N,01156.0164,E,1,24,0.4,40.6,M,47.1,M,,*68

1610625307000,$PSAMSA,115507.000,4540.3799,N,01156.0164,E,0,M,,*6F

1610625307000,$GPGLL,4540.3799,N,01156.0164,E,115507.000,A,A*5F

1610625307000,$GPVTG,347.1,T,,M,2.2,N,4.1,K,A*09

1610625307000,$GPGSV,3,1,10,05,29,204,34,13,86,356,35,14,57,071,36,15,47,302,44*7D

1610625307000,$GPGSV,3,2,10,17,13,126,37,20,13,320,30,23,13,323,29,24,19,266,37*7C

1610625307000,$GPGSV,3,3,10,28,62,082,36,30,32,070,36*79

1610625307000,$GLGSV,2,1,06,69,44,162,37,70,66,302,31,73,16,235,39,79,48,037,41*64

1610625307000,$GLGSV,2,2,06,80,65,256,36,88,08,036,28*6B

1610625307000,$GAGSV,2,1,05,101,54,055,36,105,14,311,30,109,62,298,40,121,06,045,23*64

1610625307000,$GAGSV,2,2,05,131,64,203,35*6B

1610625307000,$BDGSV,2,1,08,205,18,125,32,210,30,051,32,211,08,073,33,220,49,292,42*63

1610625307000,$BDGSV,2,2,08,223,64,054,38,225,13,061,17,232,51,193,37,237,58,248,41*65

1610625307000,$GPGSA,A,3,13,28,14,15,30,05,24,17,20,23,,,0.8,0.4,0.6*34

1610625307000,$GNGSA,A,3,69,70,73,79,80,,,,,,,,0.8,0.4,0.6*2C

1610625307000,$GAGSA,A,3,101,105,121,131,,,,,,,,,0.8,0.4,0.6*2C

1610625307000,$BDGSA,A,3,210,211,220,223,232,,,,,,,,0.8,0.4,0.6*18

1610625307000,$GPRMC,115507.000,A,4540.3799,N,01156.0164,E,2.2,347.1,140121,,,A*6E

1610625307000,$PSAMCLK,2140,38852500,24,9738777,1669385,388525000*7E

1610625307000,$PSAMCLK,2140,38852500,24,9738777,1669385,388525000*7E

1610625308000,$GPGGA,115508.000,4540.3808,N,01156.0161,E,1,24,0.4,39.8,M,47.1,M,,*65

1610625308000,$PSAMSA,115508.000,4540.3808,N,01156.0161,E,0,M,,*62

1610625308000,$GPGLL,4540.3808,N,01156.0161,E,115508.000,A,A*52

1610625308000,$GPVTG,352.6,T,,M,1.4,N,2.6,K,A*0E

1610625308000,$GPGSV,3,1,10,05,29,204,34,13,86,356,35,14,57,071,35,15,47,302,43*79

1610625308000,$GPGSV,3,2,10,17,13,126,36,20,13,320,30,23,13,323,29,24,19,266,43*7E

1610625308000,$GPGSV,3,3,10,28,62,082,36,30,32,070,36*79

1610625308000,$GLGSV,2,1,06,69,44,162,37,70,66,302,31,73,16,235,39,79,48,037,40*65

1610625308000,$GLGSV,2,2,06,80,65,256,36,88,08,036,28*6B

1610625308000,$GAGSV,2,1,05,101,54,055,36,105,14,311,30,109,62,298,40,121,06,045,24*63

1610625308000,$GAGSV,2,2,05,131,64,203,35*6B

1610625308000,$BDGSV,2,1,08,205,18,125,31,210,30,051,32,211,08,073,33,220,49,292,42*60

1610625308000,$BDGSV,2,2,08,223,64,054,38,225,13,061,16,232,51,193,37,237,58,248,40*65

1610625308000,$GPGSA,A,3,13,28,14,15,30,05,24,17,20,23,,,0.8,0.4,0.6*34

1610625308000,$GNGSA,A,3,69,70,73,79,80,,,,,,,,0.8,0.4,0.6*2C

1610625308000,$GAGSA,A,3,101,105,121,131,,,,,,,,,0.8,0.4,0.6*2C

1610625308000,$BDGSA,A,3,210,211,220,223,232,,,,,,,,0.8,0.4,0.6*18

1610625308000,$GPRMC,115508.000,A,4540.3808,N,01156.0161,E,1.4,352.6,140121,,,A*65

1610625308000,$PSAMCLK,2140,38852600,24,9738480,1731198,388526000*77

1610625308000,$PSAMCLK,2140,38852600,24,9738480,1731198,388526000*77

1610625309000,$GPGGA,115509.000,4540.3813,N,01156.0157,E,1,23,0.4,39.1,M,47.1,M,,*65

1610625309000,$PSAMSA,115509.000,4540.3813,N,01156.0157,E,0,M,,*6C

1610625309000,$GPGLL,4540.3813,N,01156.0157,E,115509.000,A,A*5C

1610625309000,$GPVTG,1.4,T,,M,2.3,N,4.2,K,A*0F

1610625309000,$GPGSV,3,1,10,05,29,204,34,13,86,356,35,14,57,071,35,15,47,302,43*79

1610625309000,$GPGSV,3,2,10,17,13,126,36,20,13,320,30,23,13,323,29,24,19,266,43*7E

1610625309000,$GPGSV,3,3,10,28,62,082,36,30,32,070,36*79

1610625309000,$GLGSV,2,1,06,69,44,162,37,70,66,302,31,73,16,235,39,79,48,037,40*65

1610625309000,$GLGSV,2,2,06,80,65,256,36,88,08,036,28*6B

1610625309000,$GAGSV,2,1,05,101,54,055,35,105,14,311,30,109,62,298,39,121,06,045,26*6C

1610625309000,$GAGSV,2,2,05,131,64,203,35*6B

1610625309000,$BDGSV,2,1,08,205,18,125,29,210,30,051,31,211,08,073,33,220,49,292,41*69

1610625309000,$BDGSV,2,2,08,223,64,054,38,225,13,061,14,232,51,193,37,237,58,248,40*67

1610625309000,$GPGSA,A,3,13,28,14,15,30,05,24,17,20,,,,0.8,0.4,0.6*35

1610625309000,$GNGSA,A,3,69,70,73,79,80,,,,,,,,0.8,0.4,0.6*2C

1610625309000,$GAGSA,A,3,101,105,121,131,,,,,,,,,0.8,0.4,0.6*2C

1610625309000,$BDGSA,A,3,210,211,220,223,232,,,,,,,,0.8,0.4,0.6*18

1610625309000,$GPRMC,115509.000,A,4540.3813,N,01156.0157,E,2.3,1.4,140121,,,A*68

1610625309000,$PSAMCLK,2140,38852700,23,9738390,1793012,388527000*7D

1610625309000,$PSAMCLK,2140,38852700,23,9738390,1793012,388527000*7D

1610625310000,$GPGGA,115510.000,4540.3822,N,01156.0158,E,1,24,0.4,39.7,M,47.1,M,,*61

1610625310000,$PSAMSA,115510.000,4540.3822,N,01156.0158,E,0,M,,*69

1610625310000,$GPGLL,4540.3822,N,01156.0158,E,115510.000,A,A*59

1610625310000,$GPVTG,1.9,T,,M,2.8,N,5.3,K,A*09

1610625310000,$GPGSV,3,1,10,05,29,204,34,13,86,356,41,14,57,071,35,15,47,302,43*7A

1610625310000,$GPGSV,3,2,10,17,13,126,35,20,13,320,30,23,13,323,29,24,19,266,42*7C

1610625310000,$GPGSV,3,3,10,28,62,082,36,30,32,070,36*79

1610625310000,$GLGSV,2,1,06,69,44,162,37,70,66,302,31,73,16,235,38,79,48,037,44*60

1610625310000,$GLGSV,2,2,06,80,65,256,36,88,08,036,28*6B

1610625310000,$GAGSV,2,1,05,101,54,055,35,105,14,311,30,109,62,298,39,121,06,045,26*6C

1610625310000,$GAGSV,2,2,05,131,64,203,35*6B

1610625310000,$BDGSV,2,1,08,205,18,125,28,210,30,051,31,211,09,073,32,220,49,292,41*68

1610625310000,$BDGSV,2,2,08,223,64,054,38,225,13,061,14,232,51,193,37,237,58,248,40*67

1610625310000,$GPGSA,A,3,13,28,14,15,30,05,24,17,20,23,,,0.8,0.4,0.6*34

1610625310000,$GNGSA,A,3,69,70,73,79,80,,,,,,,,0.8,0.4,0.6*2C

1610625310000,$GAGSA,A,3,101,105,121,131,,,,,,,,,0.8,0.4,0.6*2C

1610625310000,$BDGSA,A,3,210,211,220,223,232,,,,,,,,0.8,0.4,0.6*18

1610625310000,$GPRMC,115510.000,A,4540.3822,N,01156.0158,E,2.8,1.9,140121,,,A*6B

1610625310000,$PSAMCLK,2140,38852800,24,9738265,1854823,388528000*7F

1610625310000,$PSAMCLK,2140,38852800,24,9738265,1854823,388528000*7F

1610625311000,$GPGGA,115511.000,4540.3829,N,01156.0152,E,1,24,0.4,40.7,M,47.1,M,,*6F

1610625311000,$PSAMSA,115511.000,4540.3829,N,01156.0152,E,0,M,,*69

1610625311000,$GPGLL,4540.3829,N,01156.0152,E,115511.000,A,A*59

1610625311000,$GPVTG,341.3,T,,M,2.7,N,5.1,K,A*09

1610625311000,$GPGSV,3,1,10,05,29,204,35,13,86,356,42,14,57,071,35,15,47,302,43*78

1610625311000,$GPGSV,3,2,10,17,13,126,35,20,13,320,30,23,13,323,29,24,19,266,41*7F

1610625311000,$GPGSV,3,3,10,28,62,082,35,30,32,070,35*79

1610625311000,$GLGSV,2,1,06,69,44,162,36,70,66,302,31,73,16,235,43,79,48,037,47*6E

1610625311000,$GLGSV,2,2,06,80,65,256,35,88,08,036,28*68

1610625311000,$GAGSV,2,1,05,101,54,055,35,105,14,311,29,109,62,298,39,121,06,045,26*64

1610625311000,$GAGSV,2,2,05,131,64,203,35*6B

1610625311000,$BDGSV,2,1,08,205,18,125,26,210,30,051,33,211,09,073,32,220,49,292,41*64

1610625311000,$BDGSV,2,2,08,223,64,054,38,225,13,061,13,232,51,193,36,237,58,248,40*61

1610625311000,$GPGSA,A,3,13,28,14,15,30,05,24,17,20,23,,,0.8,0.4,0.6*34

1610625311000,$GNGSA,A,3,69,70,73,79,80,,,,,,,,0.8,0.4,0.6*2C

1610625311000,$GAGSA,A,3,101,105,121,131,,,,,,,,,0.8,0.4,0.6*2C

1610625311000,$BDGSA,A,3,210,211,220,223,232,,,,,,,,0.8,0.4,0.6*18

1610625311000,$GPRMC,115511.000,A,4540.3829,N,01156.0152,E,2.7,341.3,140121,,,A*69

1610625311000,$PSAMCLK,2140,38852900,24,9738048,1916636,388529000*7F

1610625311000,$PSAMCLK,2140,38852900,24,9738048,1916636,388529000*7F

1610625312000,$GPGGA,115512.000,4540.3837,N,01156.0146,E,1,24,0.4,41.3,M,47.1,M,,*63

1610625312000,$PSAMSA,115512.000,4540.3837,N,01156.0146,E,0,M,,*60

1610625312000,$GPGLL,4540.3837,N,01156.0146,E,115512.000,A,A*50

1610625312000,$GPVTG,331.9,T,,M,2.1,N,3.8,K,A*0D

1610625312000,$GPGSV,3,1,10,05,29,204,35,13,86,358,42,14,57,071,35,15,47,302,43*76

1610625312000,$GPGSV,3,2,10,17,13,126,35,20,13,320,30,23,13,323,29,24,19,266,40*7E

1610625312000,$GPGSV,3,3,10,28,62,082,35,30,32,070,35*79

1610625312000,$GLGSV,2,1,06,69,44,162,36,70,66,302,30,73,16,235,44,79,48,037,47*68

1610625312000,$GLGSV,2,2,06,80,65,256,35,88,08,036,28*68

1610625312000,$GAGSV,2,1,05,101,54,055,35,105,14,311,29,109,62,298,39,121,06,045,26*64

1610625312000,$GAGSV,2,2,05,131,64,203,36*68

1610625312000,$BDGSV,2,1,08,205,18,125,25,210,30,051,33,211,09,073,32,220,49,292,41*67

1610625312000,$BDGSV,2,2,08,223,64,054,38,225,13,061,12,232,51,193,36,237,58,248,40*60

1610625312000,$GPGSA,A,3,13,28,14,15,30,05,24,17,20,23,,,0.8,0.4,0.6*34

1610625312000,$GNGSA,A,3,69,70,73,79,80,,,,,,,,0.8,0.4,0.6*2C

1610625312000,$GAGSA,A,3,101,105,121,131,,,,,,,,,0.8,0.4,0.6*2C

1610625312000,$BDGSA,A,3,210,211,220,223,232,,,,,,,,0.8,0.4,0.6*18

1610625312000,$GPRMC,115512.000,A,4540.3837,N,01156.0146,E,2.1,331.9,140121,,,A*6B

1610625312000,$PSAMCLK,2140,38853000,24,9737868,1978448,388530000*79

1610625312000,$PSAMCLK,2140,38853000,24,9737868,1978448,388530000*79

1610625313000,$GPGGA,115513.000,4540.3846,N,01156.0142,E,1,24,0.4,41.7,M,47.1,M,,*64

1610625313000,$PSAMSA,115513.000,4540.3846,N,01156.0142,E,0,M,,*63

1610625313000,$GPGLL,4540.3846,N,01156.0142,E,115513.000,A,A*53

1610625313000,$GPVTG,327.7,T,,M,2.4,N,4.5,K,A*0B

1610625313000,$GPGSV,3,1,10,05,29,204,35,13,86,358,42,14,56,070,35,15,47,301,43*75

1610625313000,$GPGSV,3,2,10,17,13,126,34,20,13,320,30,23,13,323,29,24,19,266,39*71

1610625313000,$GPGSV,3,3,10,28,62,082,35,30,32,070,35*79

1610625313000,$GLGSV,2,1,06,69,44,162,36,70,66,302,30,73,16,235,44,79,48,037,46*69

1610625313000,$GLGSV,2,2,06,80,65,256,35,88,08,036,28*68

1610625313000,$GAGSV,2,1,05,101,54,055,35,105,14,311,29,109,62,298,38,121,06,045,26*65

1610625313000,$GAGSV,2,2,05,131,64,203,36*68

1610625313000,$BDGSV,2,1,07,205,18,125,23,210,30,051,32,211,09,073,32,220,50,292,41*67

1610625313000,$BDGSV,2,2,07,223,64,054,38,232,51,193,36,237,58,248,40*6C

1610625313000,$GPGSA,A,3,13,28,14,15,30,05,24,17,20,23,,,0.8,0.4,0.6*34

1610625313000,$GNGSA,A,3,69,70,73,79,80,,,,,,,,0.8,0.4,0.6*2C

1610625313000,$GAGSA,A,3,101,105,121,131,,,,,,,,,0.8,0.4,0.6*2C

1610625313000,$BDGSA,A,3,210,211,220,223,232,,,,,,,,0.8,0.4,0.6*18

1610625313000,$GPRMC,115513.000,A,4540.3846,N,01156.0142,E,2.4,327.7,140121,,,A*64

1610625313000,$PSAMCLK,2140,38853100,24,9737639,2040261,388531000*7F

1610625313000,$PSAMCLK,2140,38853100,24,9737639,2040261,388531000*7F

1610625314000,$GPGGA,115514.000,4540.3852,N,01156.0136,E,1,24,0.4,42.0,M,47.1,M,,*61

1610625314000,$PSAMSA,115514.000,4540.3852,N,01156.0136,E,0,M,,*62

1610625314000,$GPGLL,4540.3852,N,01156.0136,E,115514.000,A,A*52

1610625314000,$GPVTG,314.9,T,,M,2.3,N,4.2,K,A*05

1610625314000,$GPGSV,3,1,10,05,29,204,35,13,86,358,42,14,56,070,35,15,47,301,43*75

1610625314000,$GPGSV,3,2,10,17,13,126,34,20,13,320,30,23,13,323,29,24,19,266,39*71

1610625314000,$GPGSV,3,3,10,28,62,082,35,30,32,070,35*79

1610625314000,$GLGSV,2,1,06,69,44,162,36,70,66,302,30,73,16,235,44,79,48,037,46*69

1610625314000,$GLGSV,2,2,06,80,65,256,35,88,08,036,28*68

1610625314000,$GAGSV,2,1,05,101,54,055,35,105,14,311,29,109,62,298,38,121,06,045,26*65

1610625314000,$GAGSV,2,2,05,131,64,203,36*68

1610625314000,$BDGSV,2,1,07,205,18,125,22,210,30,051,32,211,09,073,31,220,50,292,41*65

1610625314000,$BDGSV,2,2,07,223,63,054,39,232,51,193,35,237,58,248,39*67

1610625314000,$GPGSA,A,3,13,28,14,15,30,05,24,17,20,23,,,0.8,0.4,0.6*34

1610625314000,$GNGSA,A,3,69,70,73,79,80,,,,,,,,0.8,0.4,0.6*2C

1610625314000,$GAGSA,A,3,101,105,121,131,,,,,,,,,0.8,0.4,0.6*2C

1610625314000,$BDGSA,A,3,210,211,220,223,232,,,,,,,,0.8,0.4,0.6*18

1610625314000,$GPRMC,115514.000,A,4540.3852,N,01156.0136,E,2.3,314.9,140121,,,A*6C

1610625314000,$PSAMCLK,2140,38853200,24,9737451,2102071,388532000*77

1610625314000,$PSAMCLK,2140,38853200,24,9737451,2102071,388532000*77

1610625315000,$GPGGA,115515.000,4540.3857,N,01156.0135,E,1,24,0.4,42.1,M,47.1,M,,*67

1610625315000,$PSAMSA,115515.000,4540.3857,N,01156.0135,E,0,M,,*65

1610625315000,$GPGLL,4540.3857,N,01156.0135,E,115515.000,A,A*55

1610625315000,$GPVTG,316.5,T,,M,1.7,N,3.2,K,A*0B

1610625315000,$GPGSV,3,1,10,05,29,204,35,13,86,358,42,14,56,070,35,15,47,301,42*74

1610625315000,$GPGSV,3,2,10,17,13,126,34,20,13,320,30,23,13,323,29,24,19,266,38*70

1610625315000,$GPGSV,3,3,10,28,62,082,39,30,32,070,35*75

1610625315000,$GLGSV,2,1,06,69,44,162,36,70,66,302,30,73,16,235,45,79,48,037,46*68

1610625315000,$GLGSV,2,2,06,80,65,256,35,88,08,036,28*68

1610625315000,$GAGSV,2,1,05,101,54,055,35,105,14,311,29,109,62,298,38,121,06,045,25*66

1610625315000,$GAGSV,2,2,05,131,65,203,36*69

1610625315000,$BDGSV,2,1,07,205,18,125,20,210,30,051,32,211,09,073,31,220,50,292,41*67

1610625315000,$BDGSV,2,2,07,223,63,054,39,232,51,193,35,237,58,248,39*67

1610625315000,$GPGSA,A,3,13,28,14,15,30,05,24,17,20,23,,,0.8,0.4,0.6*34

1610625315000,$GNGSA,A,3,69,70,73,79,80,,,,,,,,0.8,0.4,0.6*2C

1610625315000,$GAGSA,A,3,101,105,121,131,,,,,,,,,0.8,0.4,0.6*2C

1610625315000,$BDGSA,A,3,210,211,220,223,232,,,,,,,,0.8,0.4,0.6*18

1610625315000,$GPRMC,115515.000,A,4540.3857,N,01156.0135,E,1.7,316.5,140121,,,A*62

1610625315000,$PSAMCLK,2140,38853300,24,9737186,2163881,388533000*78

1610625315000,$PSAMCLK,2140,38853300,24,9737186,2163881,388533000*78

1610625316000,$GPGGA,115516.000,4540.3863,N,01156.0133,E,1,24,0.4,42.4,M,47.1,M,,*60

1610625316000,$PSAMSA,115516.000,4540.3863,N,01156.0133,E,0,M,,*67

1610625316000,$GPGLL,4540.3863,N,01156.0133,E,115516.000,A,A*57

1610625316000,$GPVTG,310.7,T,,M,2.3,N,4.3,K,A*0E

1610625316000,$GPGSV,3,1,10,05,29,204,35,13,86,358,41,14,56,070,35,15,47,301,42*77

1610625316000,$GPGSV,3,2,10,17,13,126,34,20,13,320,30,23,13,323,29,24,19,266,37*7F

1610625316000,$GPGSV,3,3,10,28,62,082,40,30,32,070,35*7B

1610625316000,$GLGSV,2,1,06,69,43,162,36,70,66,302,30,73,16,235,45,79,48,037,45*6C

1610625316000,$GLGSV,2,2,06,80,65,257,35,88,08,036,28*69

1610625316000,$GAGSV,2,1,05,101,54,055,35,105,14,311,29,109,62,298,38,121,06,045,25*66

1610625316000,$GAGSV,2,2,05,131,65,203,36*69

1610625316000,$BDGSV,2,1,07,205,18,125,19,210,30,051,32,211,09,073,31,220,50,292,41*6D

1610625316000,$BDGSV,2,2,07,223,63,054,39,232,51,193,35,237,58,248,39*67

1610625316000,$GPGSA,A,3,13,28,14,15,30,05,24,17,20,23,,,0.8,0.4,0.6*34

1610625316000,$GNGSA,A,3,69,70,73,79,80,,,,,,,,0.8,0.4,0.6*2C

1610625316000,$GAGSA,A,3,101,105,121,131,,,,,,,,,0.8,0.4,0.6*2C

1610625316000,$BDGSA,A,3,210,211,220,223,232,,,,,,,,0.8,0.4,0.6*18

1610625316000,$GPRMC,115516.000,A,4540.3863,N,01156.0133,E,2.3,310.7,140121,,,A*63

1610625316000,$PSAMCLK,2140,38853400,24,9736930,2225690,388534000*73

1610625316000,$PSAMCLK,2140,38853400,24,9736930,2225690,388534000*73

1610625317000,$GPGGA,115517.000,4540.3872,N,01156.0127,E,1,24,0.4,41.7,M,47.1,M,,*64

1610625317000,$PSAMSA,115517.000,4540.3872,N,01156.0127,E,0,M,,*63

1610625317000,$GPGLL,4540.3872,N,01156.0127,E,115517.000,A,A*53

1610625317000,$GPVTG,323.9,T,,M,2.8,N,5.1,K,A*08

1610625317000,$GPGSV,3,1,10,05,29,204,35,13,86,358,41,14,56,070,34,15,47,301,41*75

1610625317000,$GPGSV,3,2,10,17,13,126,33,20,13,320,30,23,13,323,29,24,19,266,36*79

1610625317000,$GPGSV,3,3,10,28,62,082,40,30,32,070,40*79

1610625317000,$GLGSV,2,1,06,69,43,162,36,70,66,302,30,73,16,235,45,79,48,037,45*6C

1610625317000,$GLGSV,2,2,06,80,65,257,34,88,08,036,28*68

1610625317000,$GAGSV,2,1,05,101,54,055,35,105,14,311,29,109,62,298,38,121,06,045,25*66

1610625317000,$GAGSV,2,2,05,131,65,203,35*6A

1610625317000,$BDGSV,2,1,07,205,18,125,17,210,30,051,32,211,09,073,31,220,50,292,40*62

1610625317000,$BDGSV,2,2,07,223,63,054,39,232,51,193,35,237,58,248,39*67

1610625317000,$GPGSA,A,3,13,28,14,15,30,05,24,17,20,23,,,0.8,0.4,0.6*34

1610625317000,$GNGSA,A,3,69,70,73,79,80,,,,,,,,0.8,0.4,0.6*2C

1610625317000,$GAGSA,A,3,101,105,121,131,,,,,,,,,0.8,0.4,0.6*2C

1610625317000,$BDGSA,A,3,210,211,220,223,232,,,,,,,,0.8,0.4,0.6*18

1610625317000,$GPRMC,115517.000,A,4540.3872,N,01156.0127,E,2.8,323.9,140121,,,A*62

1610625317000,$PSAMCLK,2140,38853500,24,9736628,2287493,388535000*7C

1610625317000,$PSAMCLK,2140,38853500,24,9736628,2287493,388535000*7C

