# 2021 02 03 12:32:26
#
# Version: 10 Manufacturer: Blackview Make: BV4900
#
1612351947000,$GNGGA,113227.000,4540.3675,N,01156.0233,E,1,28,0.48,60.2,M,47.1,M,,*45

1612351947000,$GPGSA,A,3,15,13,28,24,14,17,23,12,30,19,20,10,0.77,0.48,0.60*0B

1612351947000,$GLGSA,A,3,76,66,67,77,85,65,,,,,,,0.77,0.48,0.60*1A

1612351947000,$BDGSA,A,3,27,28,22,05,10,20,19,,,,,,0.77,0.48,0.60*18

1612351947000,$GAGSA,A,3,01,09,,,,,,,,,,,0.77,0.48,0.60*11

1612351947000,$GPGSV,4,1,14,15,69,269,41.6,13,64,142,37.0,28,43,053,39.7,24,43,285,36.9*7B

1612351947000,$GPGSV,4,2,14,14,35,052,35.0,17,33,104,36.1,36,33,153,28.0,23,25,301,33.7*74

1612351947000,$GPGSV,4,3,14,19,24,131,45.5,20,21,297,35.5,12,13,218,17.1,30,12,086,27.6*7C

1612351947000,$GPGSV,4,4,14,10,09,329,24.3,05,06,196,19.8*74

1612351947000,$GLGSV,3,1,9,76,69,005,37.7,66,61,211,32.4,67,45,314,42.6,77,41,261,23.1*50

1612351947000,$GLGSV,3,2,9,85,18,062,39.9,84,08,007,,86,07,108,26.2,65,06,169,39.6*42

1612351947000,$GLGSV,3,3,9,68,01,337,*64

1612351947000,$BDGSV,3,1,9,19,50,238,38.2,22,31,308,34.6,10,24,051,38.5,20,21,183,25.2*55

1612351947000,$BDGSV,3,2,9,05,19,125,35.8,28,18,070,27.9,27,13,121,42.0,07,03,045,*45

1612351947000,$BDGSV,3,3,9,02,03,104,*65

1612351947000,$GAGSV,2,1,7,09,72,238,32.7,01,35,053,31.1,24,35,232,,04,33,158,*56

1612351947000,$GAGSV,2,2,7,05,33,310,,13,03,023,,26,02,071,*68

1612351947000,$GNRMC,113227.000,A,4540.3675,N,01156.0233,E,0.133,148.78,030221,,,A*46

1612351947000,$PMTKAG2,113227.000,6,0115,0,0,0,0,0,0,0,0,0,0,0,0*33

1612351948000,$GNGGA,113228.000,4540.3674,N,01156.0234,E,1,28,0.48,60.2,M,47.1,M,,*4C

1612351948000,$GPGSA,A,3,15,13,28,24,14,17,23,12,30,19,20,10,0.77,0.48,0.60*0B

1612351948000,$GLGSA,A,3,76,66,67,77,85,65,,,,,,,0.77,0.48,0.60*1A

1612351948000,$BDGSA,A,3,27,28,22,05,10,20,19,,,,,,0.77,0.48,0.60*18

1612351948000,$GAGSA,A,3,01,09,,,,,,,,,,,0.77,0.48,0.60*11

1612351948000,$GPGSV,4,1,14,15,69,269,44.9,13,64,142,38.3,28,43,053,41.0,24,43,285,38.3*71

1612351948000,$GPGSV,4,2,14,14,35,052,34.8,17,33,104,39.9,36,33,153,29.0,23,25,301,31.9*77

1612351948000,$GPGSV,4,3,14,19,24,131,41.8,20,21,297,32.1,12,13,218,21.6,30,12,086,23.0*76

1612351948000,$GPGSV,4,4,14,10,09,329,25.9,05,06,196,18.9*7F

1612351948000,$GLGSV,3,1,9,76,69,005,40.6,66,61,211,40.2,67,45,314,42.4,77,41,261,25.6*51

1612351948000,$GLGSV,3,2,9,85,18,062,43.0,84,08,007,,86,07,108,24.7,65,06,169,39.2*45

1612351948000,$GLGSV,3,3,9,68,01,337,*64

1612351948000,$BDGSV,3,1,9,19,50,238,38.1,22,31,308,36.2,10,24,051,41.9,20,21,183,22.4*53

1612351948000,$BDGSV,3,2,9,05,19,125,26.7,28,18,070,36.4,27,13,121,38.2,07,03,045,*4A

1612351948000,$BDGSV,3,3,9,02,03,104,*65

1612351948000,$GAGSV,2,1,7,09,72,238,32.0,01,35,053,36.2,24,35,232,,04,33,158,*55

1612351948000,$GAGSV,2,2,7,05,33,310,,13,03,023,,26,02,071,*68

1612351948000,$GNRMC,113228.000,A,4540.3674,N,01156.0234,E,0.120,212.59,030221,,,A*42

1612351948000,$GNVTG,212.59,T,,M,0.120,N,0.223,K,A*2E

1612351948000,$PMTKTSX1,29757,19571.732,21.298,20.349,8e320000,1.869739,1.957173,0.596271,-0.207520,0.510459,1.955*1C

1612351948000,$PMTKGEPH,32,1,1,1,1,1,1,1,1,1,1,1,1,1,1,1,1,1,1,1,1,1,1,1,1,1,1,1,1,1,1,1,1*35

1612351948000,$PMTKGALM,31,1,1,1,1,1,1,1,1,1,1,0,1,1,1,1,1,1,1,1,1,1,1,1,1,1,1,1,1,1,1,1,1*2A

1612351948000,$GNACCURACY,1.2,179.9,0.4,7.9*1B

1612351948000,$PMTKAG2,113228.000,6,0115,0,0,0,0,0,0,0,0,0,0,0,0*3C

1612351949000,$GNGGA,113229.000,4540.3674,N,01156.0235,E,1,28,0.48,60.1,M,47.1,M,,*4F

1612351949000,$GPGSA,A,3,15,13,28,24,14,17,23,12,30,19,20,10,0.77,0.48,0.60*0B

1612351949000,$GLGSA,A,3,76,66,67,77,85,65,,,,,,,0.77,0.48,0.60*1A

1612351949000,$BDGSA,A,3,27,28,22,05,10,20,19,,,,,,0.77,0.48,0.60*18

1612351949000,$GAGSA,A,3,01,09,,,,,,,,,,,0.77,0.48,0.60*11

1612351949000,$GPGSV,4,1,14,15,69,269,43.8,13,64,142,41.4,28,43,053,41.3,24,43,285,38.9*77

1612351949000,$GPGSV,4,2,14,14,35,052,36.0,17,33,104,43.0,36,33,153,30.0,23,25,301,32.9*72

1612351949000,$GPGSV,4,3,14,19,24,131,46.1,20,21,297,31.9,12,13,218,21.1,30,12,086,22.4*71

1612351949000,$GPGSV,4,4,14,10,09,329,26.2,05,06,196,19.4*7B

1612351949000,$GLGSV,3,1,9,76,69,005,40.1,66,61,211,37.1,67,45,314,42.2,77,41,261,26.4*52

1612351949000,$GLGSV,3,2,9,85,18,062,42.1,84,08,007,,86,07,108,27.4,65,06,169,35.3*48

1612351949000,$GLGSV,3,3,9,68,01,337,*64

1612351949000,$BDGSV,3,1,9,19,50,238,38.0,22,31,308,36.4,10,24,051,40.3,20,21,183,25.6*5A

1612351949000,$BDGSV,3,2,9,05,19,125,33.4,28,18,070,33.0,27,13,121,39.8,07,03,045,*47

1612351949000,$BDGSV,3,3,9,02,03,104,*65

1612351949000,$GAGSV,2,1,7,09,72,238,26.0,01,35,053,39.0,24,35,232,,04,33,158,*5D

1612351949000,$GAGSV,2,2,7,05,33,310,,13,03,023,,26,02,071,*68

1612351949000,$GNRMC,113229.000,A,4540.3674,N,01156.0235,E,0.123,211.92,030221,,,A*45

1612351949000,$GNVTG,211.92,T,,M,0.123,N,0.228,K,A*22

1612351949000,$PMTKGEPH,32,1,1,1,1,1,1,1,1,1,1,1,1,1,1,1,1,1,1,1,1,1,1,1,1,1,1,1,1,1,1,1,1*35

1612351949000,$PMTKAGC,113229.000,4359,4447,5694,5912,0,0,0*6A

1612351949000,$PMTKAG2,113229.000,6,0115,0,0,0,0,0,0,0,0,0,0,0,0*3D

1612351950000,$GNGGA,113230.000,4540.3673,N,01156.0236,E,1,29,0.46,60.0,M,47.1,M,,*4D

1612351950000,$GPGSA,A,3,15,13,28,24,14,17,23,12,30,19,20,10,0.74,0.46,0.58*0D

1612351950000,$GLGSA,A,3,76,66,67,77,85,84,65,,,,,,0.74,0.46,0.58*10

1612351950000,$BDGSA,A,3,27,28,22,05,10,20,19,,,,,,0.74,0.46,0.58*1E

1612351950000,$GAGSA,A,3,01,09,,,,,,,,,,,0.74,0.46,0.58*17

1612351950000,$GPGSV,4,1,14,15,69,269,43.6,13,64,142,41.2,28,43,053,41.0,24,43,285,35.7*7F

1612351950000,$GPGSV,4,2,14,14,35,052,34.7,17,33,104,41.9,36,33,153,32.0,23,25,301,27.9*7A

1612351950000,$GPGSV,4,3,14,19,24,131,46.1,20,21,297,33.4,12,13,218,21.9,30,12,086,21.6*77

1612351950000,$GPGSV,4,4,14,10,09,329,25.2,05,06,196,19.9*75

1612351950000,$GLGSV,3,1,9,76,69,005,40.4,66,61,211,37.9,67,45,314,42.1,77,41,261,22.7*5B

1612351950000,$GLGSV,3,2,9,85,18,062,42.7,84,08,007,13.3,86,07,108,27.2,65,06,169,35.4*50

1612351950000,$GLGSV,3,3,9,68,01,337,*64

1612351950000,$BDGSV,3,1,9,19,50,238,38.1,22,31,308,36.2,10,24,051,40.7,20,21,183,25.1*5E

1612351950000,$BDGSV,3,2,9,05,19,125,32.0,28,18,070,35.8,27,13,121,40.2,07,03,045,*48

1612351950000,$BDGSV,3,3,9,02,03,104,*65

1612351950000,$GAGSV,2,1,7,09,72,238,23.4,01,35,053,36.1,24,35,232,,04,33,158,*52

1612351950000,$GAGSV,2,2,7,05,33,310,,13,03,023,,26,02,071,*68

1612351950000,$GNVTG,158.97,T,,M,0.000,N,0.000,K,A*21

1612351950000,$PMTKAG2,113230.000,6,0115,0,0,0,0,0,0,0,0,0,0,0,0*35

1612351951000,$GNGGA,113231.000,4540.3672,N,01156.0237,E,1,29,0.46,59.9,M,47.1,M,,*4F

1612351951000,$GPGSA,A,3,15,13,28,24,14,17,23,12,30,19,20,10,0.74,0.46,0.58*0D

1612351951000,$GLGSA,A,3,76,66,67,77,85,84,65,,,,,,0.74,0.46,0.58*10

1612351951000,$BDGSA,A,3,27,28,22,05,10,20,19,,,,,,0.74,0.46,0.58*1E

1612351951000,$GAGSA,A,3,01,09,,,,,,,,,,,0.74,0.46,0.58*17

1612351951000,$GPGSV,4,1,14,15,69,269,44.3,13,64,142,41.8,28,43,053,41.0,24,43,285,30.4*71

1612351951000,$GPGSV,4,2,14,14,35,052,31.0,17,33,104,42.3,36,33,153,31.0,23,25,301,34.2*7B

1612351951000,$GPGSV,4,3,14,19,24,131,46.5,20,21,297,33.6,12,13,218,21.7,30,12,086,25.3*7E

1612351951000,$GPGSV,4,4,14,10,09,329,25.9,05,06,196,20.1*7C

1612351951000,$GLGSV,3,1,9,76,69,005,40.7,66,61,211,41.4,67,45,314,41.6,77,41,261,19.2*5D

1612351951000,$GLGSV,3,2,9,85,18,062,43.0,84,08,007,13.3,86,07,108,27.1,65,06,169,32.8*5E

1612351951000,$GLGSV,3,3,9,68,01,337,*64

1612351951000,$BDGSV,3,1,9,19,50,238,38.2,22,31,308,35.3,10,24,051,41.2,20,21,183,24.2*59

1612351951000,$BDGSV,3,2,9,05,19,125,32.7,28,18,070,36.2,27,13,121,40.8,07,03,045,*4C

1612351951000,$BDGSV,3,3,9,02,03,104,*65

1612351951000,$GAGSV,2,1,7,09,72,238,18.7,01,35,053,36.6,24,35,232,,04,33,158,*5E

1612351951000,$GAGSV,2,2,7,05,33,310,,13,03,023,,26,02,071,*68

1612351951000,$PMTKAG2,113231.000,6,0115,0,0,0,0,0,0,0,0,0,0,0,0*34

1612351952000,$GNGGA,113232.000,4540.3672,N,01156.0237,E,1,29,0.46,59.8,M,47.1,M,,*4D

1612351952000,$GPGSA,A,3,15,13,28,24,14,17,23,12,30,19,20,10,0.74,0.46,0.58*0D

1612351952000,$GLGSA,A,3,76,66,67,77,85,84,65,,,,,,0.74,0.46,0.58*10

1612351952000,$BDGSA,A,3,27,28,22,05,10,20,19,,,,,,0.74,0.46,0.58*1E

1612351952000,$GAGSA,A,3,01,09,,,,,,,,,,,0.74,0.46,0.58*17

1612351952000,$GPGSV,4,1,14,15,69,269,44.1,13,64,142,41.7,28,43,053,41.4,24,43,285,35.7*7E

1612351952000,$GPGSV,4,2,14,14,35,052,30.6,17,33,104,42.8,36,33,153,32.0,23,25,301,30.3*71

1612351952000,$GPGSV,4,3,14,19,24,131,47.3,20,21,297,33.2,12,13,218,22.0,30,12,086,25.1*7B

1612351952000,$GPGSV,4,4,14,10,09,329,25.0,05,06,196,20.3*77

1612351952000,$GLGSV,3,1,9,76,69,005,40.4,66,61,211,40.9,67,45,314,41.1,77,41,261,19.7*50

1612351952000,$GLGSV,3,2,9,85,18,062,42.7,84,08,007,13.3,86,07,108,26.3,65,06,169,34.2*57

1612351952000,$GLGSV,3,3,9,68,01,337,*64

1612351952000,$BDGSV,3,1,9,19,50,238,38.1,22,31,308,35.5,10,24,051,41.0,20,21,183,23.6*5D

1612351952000,$BDGSV,3,2,9,05,19,125,33.1,28,18,070,36.3,27,13,121,40.2,07,03,045,*40

1612351952000,$BDGSV,3,3,9,02,03,104,*65

1612351952000,$GAGSV,2,1,7,09,72,238,18.2,01,35,053,36.5,24,35,232,,04,33,158,*58

1612351952000,$GAGSV,2,2,7,05,33,310,,13,03,023,,26,02,071,*68

1612351952000,$GNRMC,113232.000,A,4540.3672,N,01156.0237,E,0.000,274.99,030221,,,A*43

1612351952000,$GNVTG,274.99,T,,M,0.000,N,0.000,K,A*22

1612351952000,$PMTKTSX1,33757,19362.080,21.169,20.461,8dda0000,1.845079,1.936208,2.240535,-0.207520,0.510459,1.937*10

1612351952000,$PMTKAGC,113232.000,4753,4948,5859,5631,0,0,0*6D

1612351952000,$PMTKAG2,113232.000,6,0115,0,0,0,0,0,0,0,0,0,0,0,0*37

1612351953000,$GNGGA,113233.000,4540.3672,N,01156.0237,E,1,29,0.46,59.8,M,47.1,M,,*4C

1612351953000,$GPGSA,A,3,15,13,28,24,14,17,23,12,30,19,20,10,0.74,0.46,0.58*0D

1612351953000,$GLGSA,A,3,76,66,67,77,85,84,65,,,,,,0.74,0.46,0.58*10

1612351953000,$BDGSA,A,3,27,28,22,05,10,20,19,,,,,,0.74,0.46,0.58*1E

1612351953000,$GAGSA,A,3,01,09,,,,,,,,,,,0.74,0.46,0.58*17

1612351953000,$GPGSV,4,1,14,15,69,269,44.0,13,64,142,41.6,28,43,053,41.4,24,43,285,36.7*7D

1612351953000,$GPGSV,4,2,14,14,35,052,33.8,17,33,104,42.5,36,33,153,32.0,23,25,301,31.9*7A

1612351953000,$GPGSV,4,3,14,19,24,131,46.4,20,21,297,33.6,12,13,218,22.3,30,12,086,25.5*7E

1612351953000,$GPGSV,4,4,14,10,09,329,25.6,05,06,196,20.3*71

1612351953000,$GLGSV,3,1,9,76,69,005,40.5,66,61,211,41.2,67,45,314,40.5,77,41,261,24.1*56

1612351953000,$GLGSV,3,2,9,85,18,062,42.4,84,08,007,14.1,86,07,108,26.5,65,06,169,38.4*5D

1612351953000,$GLGSV,3,3,9,68,01,337,*64

1612351953000,$BDGSV,3,1,9,19,50,238,37.8,22,31,308,35.1,10,24,051,40.8,20,21,183,23.8*58

1612351953000,$BDGSV,3,2,9,05,19,125,32.9,28,18,070,37.6,27,13,121,40.8,07,03,045,*47

1612351953000,$BDGSV,3,3,9,02,03,104,*65

1612351953000,$GAGSV,2,1,7,09,72,238,18.0,01,35,053,37.0,24,35,232,,04,33,158,*5E

1612351953000,$GAGSV,2,2,7,05,33,310,,13,03,023,,26,02,071,*68

1612351953000,$GNRMC,113233.000,A,4540.3672,N,01156.0237,E,0.000,274.99,030221,,,A*42

1612351953000,$GNVTG,274.99,T,,M,0.000,N,0.000,K,A*22

1612351953000,$PMTKTSX1,34757,19339.470,21.007,20.481,8dca0000,1.840653,1.933947,2.165167,-0.207520,0.510459,1.937*1B

1612351953000,$PMTKGEPH,32,1,1,1,1,1,1,1,1,1,1,1,1,1,1,1,1,1,1,1,1,1,1,1,1,1,1,1,1,1,1,1,1*35

1612351953000,$PMTKAGC,113233.000,5100,5034,5914,5916,0,0,0*6C

1612351953000,$PMTKAG2,113233.000,6,0115,0,0,0,0,0,0,0,0,0,0,0,0*36

1612351954000,$GNGGA,113234.000,4540.3672,N,01156.0237,E,1,29,0.46,59.8,M,47.1,M,,*4B

1612351954000,$GPGSA,A,3,15,13,28,24,14,17,23,12,30,19,20,10,0.74,0.46,0.58*0D

1612351954000,$GLGSA,A,3,76,66,67,77,85,84,65,,,,,,0.74,0.46,0.58*10

1612351954000,$BDGSA,A,3,27,28,22,05,10,20,19,,,,,,0.74,0.46,0.58*1E

1612351954000,$GAGSA,A,3,01,09,,,,,,,,,,,0.74,0.46,0.58*17

1612351954000,$GPGSV,4,1,14,15,69,269,44.1,13,64,142,41.5,28,43,053,41.5,24,43,285,37.0*78

1612351954000,$GPGSV,4,2,14,14,35,052,30.0,17,33,104,42.4,36,33,153,33.0,23,25,301,33.3*79

1612351954000,$GPGSV,4,3,14,19,24,131,46.4,20,21,297,34.0,12,13,218,22.8,30,12,086,26.3*71

1612351954000,$GPGSV,4,4,14,10,09,329,24.6,05,06,196,20.1*72

1612351954000,$GLGSV,3,1,9,76,69,005,40.7,66,61,211,41.4,67,45,314,39.9,77,41,261,23.8*5E

1612351954000,$GLGSV,3,2,9,85,18,062,42.3,84,08,007,14.5,86,07,108,26.1,65,06,169,40.0*51

1612351954000,$GLGSV,3,3,9,68,01,337,*64

1612351954000,$BDGSV,3,1,9,19,50,238,37.7,22,31,308,35.0,10,24,051,41.0,20,21,183,20.8*5C

1612351954000,$BDGSV,3,2,9,05,19,125,32.7,28,18,070,36.5,27,13,121,40.8,07,03,045,*4B

1612351954000,$BDGSV,3,3,9,02,03,104,*65

1612351954000,$GAGSV,2,1,7,09,72,238,18.7,01,35,053,36.5,24,35,232,,05,33,310,*52

1612351954000,$GAGSV,2,2,7,04,32,158,,13,03,023,,26,02,071,*66

1612351954000,$GNRMC,113234.000,A,4540.3672,N,01156.0237,E,0.000,274.99,030221,,,A*45

1612351954000,$PMTKAG2,113234.000,6,0115,0,0,0,0,0,0,0,0,0,0,0,0*31

1612351955000,$GNGGA,113235.000,4540.3672,N,01156.0237,E,1,29,0.46,59.8,M,47.1,M,,*4A

1612351955000,$GPGSA,A,3,15,13,28,24,14,17,23,12,30,19,20,10,0.74,0.46,0.58*0D

1612351955000,$GLGSA,A,3,76,66,67,77,85,84,65,,,,,,0.74,0.46,0.58*10

1612351955000,$BDGSA,A,3,27,28,22,05,10,20,19,,,,,,0.74,0.46,0.58*1E

1612351955000,$GAGSA,A,3,01,09,,,,,,,,,,,0.74,0.46,0.58*17

1612351955000,$GPGSV,4,1,14,15,69,269,44.1,13,64,142,41.5,28,43,053,41.5,24,43,285,36.4*7D

1612351955000,$GPGSV,4,2,14,14,35,052,33.0,17,33,104,42.6,36,33,153,33.0,23,25,301,33.1*7A

1612351955000,$GPGSV,4,3,14,19,24,131,46.6,20,21,297,33.5,12,13,218,22.8,30,12,086,25.9*78

1612351955000,$GPGSV,4,4,14,10,09,329,23.6,05,06,196,19.8*76

1612351955000,$GLGSV,3,1,9,76,69,005,40.7,66,61,211,41.3,67,45,314,39.3,77,41,261,24.2*5E

1612351955000,$GLGSV,3,2,9,85,18,062,42.0,84,08,007,15.7,86,07,108,25.9,65,06,169,33.2*5C

1612351955000,$GLGSV,3,3,9,68,01,337,*64

1612351955000,$BDGSV,3,1,9,19,50,238,37.4,22,31,308,34.9,10,24,051,40.9,20,21,183,20.4*53

1612351955000,$BDGSV,3,2,9,05,19,125,33.1,28,18,070,36.7,27,13,121,40.8,07,03,045,*4E

1612351955000,$BDGSV,3,3,9,02,03,104,*65

1612351955000,$GAGSV,2,1,7,09,72,238,18.7,01,35,053,36.6,24,35,232,,05,33,310,*51

1612351955000,$GAGSV,2,2,7,04,32,158,,13,03,023,,26,02,071,*66

1612351955000,$GNRMC,113235.000,A,4540.3672,N,01156.0237,E,0.000,274.99,030221,,,A*44

1612351955000,$GNVTG,274.99,T,,M,0.000,N,0.000,K,A*22

1612351955000,$PMTKTSX1,36757,19339.125,21.557,20.484,8dc80000,1.840021,1.933912,-1.067508,-0.207520,0.510459,1.937*63

1612351955000,$PMTKAG2,113235.000,6,0115,0,0,0,0,0,0,0,0,0,0,0,0*30

1612351956000,$GNGGA,113236.000,4540.3672,N,01156.0237,E,1,29,0.46,59.8,M,47.1,M,,*49

1612351956000,$GPGSA,A,3,15,13,28,24,14,17,23,12,30,19,20,10,0.74,0.46,0.58*0D

1612351956000,$GLGSA,A,3,76,66,67,77,85,84,65,,,,,,0.74,0.46,0.58*10

1612351956000,$BDGSA,A,3,27,28,22,05,10,20,19,,,,,,0.74,0.46,0.58*1E

1612351956000,$GAGSA,A,3,01,09,,,,,,,,,,,0.74,0.46,0.58*17

1612351956000,$GPGSV,4,1,14,15,69,269,44.1,13,64,142,41.2,28,43,053,41.4,24,43,285,36.2*7D

1612351956000,$GPGSV,4,2,14,14,35,052,32.9,17,33,104,42.6,36,33,153,33.0,23,25,301,32.5*77

1612351956000,$GPGSV,4,3,14,19,24,131,46.8,20,21,297,33.4,12,13,218,23.6,30,12,086,26.3*71

1612351956000,$GPGSV,4,4,14,10,09,329,23.9,05,06,196,19.6*77

1612351956000,$GLGSV,3,1,9,76,69,005,40.8,66,61,211,41.5,67,45,314,39.0,77,41,261,25.5*52

1612351956000,$GLGSV,3,2,9,85,18,062,42.0,84,08,007,15.7,86,07,108,26.0,65,06,169,34.4*57

1612351956000,$GLGSV,3,3,9,68,01,337,*64

1612351956000,$BDGSV,3,1,9,19,50,238,37.0,22,31,308,35.2,10,24,051,40.8,20,21,183,20.3*5B

1612351956000,$BDGSV,3,2,9,05,19,125,33.1,28,18,070,36.8,27,13,121,40.4,07,03,045,*4D

1612351956000,$BDGSV,3,3,9,02,03,104,*65

1612351956000,$GAGSV,2,1,7,09,72,238,22.1,01,35,053,36.1,24,35,232,,05,33,310,*59

1612351956000,$GAGSV,2,2,7,04,32,158,,13,03,023,,26,02,071,*66

1612351956000,$GNRMC,113236.000,A,4540.3672,N,01156.0237,E,0.000,274.99,030221,,,A*47

1612351956000,$GNVTG,274.99,T,,M,0.000,N,0.000,K,A*22

1612351956000,$GNACCURACY,1.2,179.9,0.3,7.9*1C

1612351956000,$PMTKAG2,113236.000,6,0115,0,0,0,0,0,0,0,0,0,0,0,0*33

1612351957000,$GNGGA,113237.000,4540.3672,N,01156.0237,E,1,29,0.46,59.8,M,47.1,M,,*48

1612351957000,$GPGSA,A,3,15,13,28,24,14,17,23,12,30,19,20,10,0.74,0.46,0.58*0D

1612351957000,$GLGSA,A,3,76,66,67,77,85,84,65,,,,,,0.74,0.46,0.58*10

1612351957000,$BDGSA,A,3,27,28,22,05,10,20,19,,,,,,0.74,0.46,0.58*1E

1612351957000,$GAGSA,A,3,01,09,,,,,,,,,,,0.74,0.46,0.58*17

1612351957000,$GPGSV,4,1,14,15,69,269,44.1,13,64,142,41.0,28,43,053,41.2,24,43,285,36.0*7B

1612351957000,$GPGSV,4,2,14,14,35,052,31.7,17,33,104,42.7,36,33,153,33.0,23,25,301,36.0*7A

1612351957000,$GPGSV,4,3,14,19,24,131,46.4,20,21,297,33.3,12,13,218,22.8,30,12,086,26.7*71

1612351957000,$GPGSV,4,4,14,10,09,329,24.3,05,06,196,19.2*7E

1612351957000,$GLGSV,3,1,9,76,69,005,40.7,66,61,211,41.7,67,45,314,38.7,77,41,261,24.6*5B

1612351957000,$GLGSV,3,2,9,85,18,062,42.1,84,08,007,15.7,86,07,108,26.4,65,06,169,35.1*56

1612351957000,$GLGSV,3,3,9,68,01,337,*64

1612351957000,$BDGSV,3,1,9,19,50,238,37.0,22,31,308,35.6,10,24,051,40.7,20,21,183,21.1*53

1612351957000,$BDGSV,3,2,9,05,19,125,33.1,28,18,070,37.2,27,13,121,40.3,07,03,045,*41

1612351957000,$BDGSV,3,3,9,02,03,104,*65

1612351957000,$GAGSV,2,1,7,09,72,238,22.5,01,35,053,35.9,24,35,232,,05,33,310,*56

1612351957000,$GAGSV,2,2,7,04,32,158,,13,03,023,,26,02,071,*66

1612351957000,$GNRMC,113237.000,A,4540.3672,N,01156.0237,E,0.000,274.99,030221,,,A*46

1612351957000,$PMTKAG2,113237.000,6,0115,0,0,0,0,0,0,0,0,0,0,0,0*32

1612351958000,$GNGGA,113238.000,4540.3672,N,01156.0237,E,1,29,0.46,59.8,M,47.1,M,,*47

1612351958000,$GPGSA,A,3,15,13,28,24,14,17,23,12,30,19,20,10,0.74,0.46,0.58*0D

1612351958000,$GLGSA,A,3,76,66,67,77,85,84,65,,,,,,0.74,0.46,0.58*10

1612351958000,$BDGSA,A,3,27,28,22,05,10,20,19,,,,,,0.74,0.46,0.58*1E

1612351958000,$GAGSA,A,3,01,09,,,,,,,,,,,0.74,0.46,0.58*17

1612351958000,$GPGSV,4,1,14,15,69,269,44.1,13,64,142,40.8,28,43,053,41.0,24,43,285,35.9*7A

1612351958000,$GPGSV,4,2,14,14,35,052,34.3,17,33,104,42.9,36,33,153,32.0,23,25,301,35.5*72

1612351958000,$GPGSV,4,3,14,19,24,131,46.7,20,21,297,33.3,12,13,218,24.5,30,12,086,27.0*7F

1612351958000,$GPGSV,4,4,14,10,09,329,23.8,05,06,196,14.6*7B

1612351958000,$GLGSV,3,1,9,76,69,005,40.2,66,61,211,41.7,67,45,314,38.6,77,41,261,24.8*51

1612351958000,$GLGSV,3,2,9,85,18,062,42.4,84,08,007,13.0,86,07,108,26.8,65,06,169,34.0*5E

1612351958000,$GLGSV,3,3,9,68,01,337,*64

1612351958000,$BDGSV,3,1,9,19,50,238,37.1,22,31,308,35.9,10,24,051,40.6,20,21,183,19.7*51

1612351958000,$BDGSV,3,2,9,05,19,125,33.1,28,18,070,37.1,27,13,121,40.2,07,03,045,*43

1612351958000,$BDGSV,3,3,9,02,03,104,*65

1612351958000,$GAGSV,2,1,7,09,72,238,23.3,01,35,053,35.5,24,35,232,,05,33,310,*5D

1612351958000,$GAGSV,2,2,7,04,32,158,,13,03,023,,26,02,071,*66

1612351958000,$GNRMC,113238.000,A,4540.3672,N,01156.0237,E,0.000,274.99,030221,,,A*49

1612351958000,$GNVTG,274.99,T,,M,0.000,N,0.000,K,A*22

1612351958000,$PMTKTSX1,39757,19260.564,21.298,20.522,8daa0000,1.831168,1.926056,1.815899,-0.207520,0.510459,1.924*12

1612351958000,$PMTKGEPH,32,1,1,1,1,1,1,1,1,1,1,1,1,1,1,1,1,1,1,1,1,1,1,1,1,1,1,1,1,1,1,1,1*35

1612351958000,$PMTKAG2,113238.000,6,0115,0,0,0,0,0,0,0,0,0,0,0,0*3D

1612351959000,$GNGGA,113239.000,4540.3672,N,01156.0237,E,1,29,0.46,59.8,M,47.1,M,,*46

1612351959000,$GPGSA,A,3,15,13,28,24,14,17,23,12,30,19,20,10,0.74,0.46,0.58*0D

1612351959000,$GLGSA,A,3,76,66,67,77,85,84,65,,,,,,0.74,0.46,0.58*10

1612351959000,$BDGSA,A,3,27,28,22,05,10,20,19,,,,,,0.74,0.46,0.58*1E

1612351959000,$GAGSA,A,3,01,09,,,,,,,,,,,0.74,0.46,0.58*17

1612351959000,$GPGSV,4,1,14,15,69,269,44.2,13,64,142,40.8,28,43,053,40.8,24,43,285,35.5*7C

1612351959000,$GPGSV,4,2,14,14,35,052,34.3,17,33,104,42.7,36,33,153,32.0,23,25,301,32.7*79

1612351959000,$GPGSV,4,3,14,19,24,131,46.9,20,21,297,33.1,12,13,218,23.3,30,12,086,26.7*74

1612351959000,$GPGSV,4,4,14,10,09,329,23.8,05,06,196,18.0*71

1612351959000,$GLGSV,3,1,9,76,69,005,39.9,66,61,211,41.8,67,45,314,38.6,77,41,261,25.1*53

1612351959000,$GLGSV,3,2,9,85,18,062,42.7,84,08,007,13.0,86,07,108,27.1,65,06,169,34.0*55

1612351959000,$GLGSV,3,3,9,68,01,337,*64

1612351959000,$BDGSV,3,1,9,19,50,238,37.2,22,31,308,36.1,10,24,051,40.6,20,21,183,19.8*56

1612351959000,$BDGSV,3,2,9,05,19,125,33.0,28,18,070,37.2,27,13,121,40.2,07,03,045,*41

1612351959000,$BDGSV,3,3,9,02,03,104,*65

1612351959000,$GAGSV,2,1,7,09,72,237,23.7,01,35,053,35.1,24,35,232,,05,33,310,*52

1612351959000,$GAGSV,2,2,7,04,32,158,,13,03,023,,26,02,071,*66

1612351959000,$GNRMC,113239.000,A,4540.3672,N,01156.0237,E,0.000,274.99,030221,,,A*48

1612351959000,$GNACCURACY,1.1,179.9,0.3,8.4*1D

1612351959000,$PMTKAGC,113239.000,4602,4365,5948,6016,0,0,0*67

1612351959000,$PMTKAG2,113239.000,6,0115,0,0,0,0,0,0,0,0,0,0,0,0*3C

1612351960000,$GNGGA,113240.000,4540.3672,N,01156.0237,E,1,30,0.45,59.8,M,47.1,M,,*43

1612351960000,$GPGSA,A,3,15,13,28,24,14,17,23,12,30,19,20,10,0.73,0.45,0.58*09

1612351960000,$GLGSA,A,3,76,66,67,77,85,86,84,65,,,,,0.73,0.45,0.58*1A

1612351960000,$BDGSA,A,3,27,28,22,05,10,20,19,,,,,,0.73,0.45,0.58*1A

1612351960000,$GAGSA,A,3,01,09,,,,,,,,,,,0.73,0.45,0.58*13

1612351960000,$GPGSV,4,1,14,15,69,269,44.3,13,64,142,40.8,28,43,053,40.7,24,43,285,34.9*7F

1612351960000,$GPGSV,4,2,14,14,35,052,32.7,17,33,104,42.9,36,33,153,32.0,23,25,301,32.6*74

1612351960000,$GPGSV,4,3,14,19,24,131,46.5,20,21,297,33.5,12,13,218,23.4,30,12,086,26.7*7B

1612351960000,$GPGSV,4,4,14,10,09,329,24.3,05,06,196,18.0*7D

1612351960000,$GLGSV,3,1,9,76,69,005,39.8,66,61,211,41.8,67,45,314,38.7,77,41,261,24.9*5A

1612351960000,$GLGSV,3,2,9,85,18,062,43.0,84,08,007,16.4,86,07,108,27.4,65,06,169,34.7*50

1612351960000,$GLGSV,3,3,9,68,01,337,*64

1612351960000,$BDGSV,3,1,9,19,50,238,37.3,22,31,308,35.7,10,24,051,40.5,20,21,183,20.0*53

1612351960000,$BDGSV,3,2,9,05,19,125,33.0,28,18,070,37.3,27,13,121,40.4,07,03,045,*46

1612351960000,$BDGSV,3,3,9,02,03,104,*65

1612351960000,$GAGSV,2,1,7,09,72,237,23.1,01,35,053,34.9,24,35,232,,05,33,310,*5D

1612351960000,$GAGSV,2,2,7,04,32,158,,13,03,023,,26,02,071,*66

1612351960000,$GNRMC,113240.000,A,4540.3672,N,01156.0237,E,0.000,274.99,030221,,,A*46

1612351960000,$GNVTG,274.99,T,,M,0.000,N,0.000,K,A*22

1612351960000,$PMTKGALM,31,1,1,1,1,1,1,1,1,1,1,0,1,1,1,1,1,1,1,1,1,1,1,1,1,1,1,1,1,1,1,1,1*2A

1612351960000,$GNACCURACY,1.1,179.9,0.3,7.8*1E

1612351960000,$PMTKAGC,113240.000,4891,4739,5598,5595,0,0,0*6C

1612351960000,$PMTKAG2,113240.000,6,0115,0,0,0,0,0,0,0,0,0,0,0,0*32

1612351961000,$GNGGA,113241.000,4540.3672,N,01156.0237,E,1,29,0.47,59.8,M,47.1,M,,*48

1612351961000,$GPGSA,A,3,15,13,28,24,14,17,23,12,30,19,20,10,0.76,0.47,0.59*0F

1612351961000,$GLGSA,A,3,76,66,67,77,85,86,84,65,,,,,0.76,0.47,0.59*1C

1612351961000,$BDGSA,A,3,27,28,22,05,10,20,19,,,,,,0.76,0.47,0.59*1C

1612351961000,$GAGSA,A,3,01,09,,,,,,,,,,,0.76,0.47,0.59*15

1612351961000,$GPGSV,4,1,14,15,69,269,44.3,13,64,142,40.8,28,43,053,40.6,24,43,285,34.7*70

1612351961000,$GPGSV,4,2,14,14,35,052,32.4,17,33,104,43.0,36,33,153,32.0,23,25,301,32.9*70

1612351961000,$GPGSV,4,3,14,19,24,131,46.2,20,21,297,33.5,12,13,218,24.1,30,12,086,26.9*70

1612351961000,$GPGSV,4,4,14,10,09,329,24.6,05,06,196,18.0*78

1612351961000,$GLGSV,3,1,9,76,69,005,39.7,66,61,211,41.8,67,45,314,40.6,77,41,261,21.9*5E

1612351961000,$GLGSV,3,2,9,85,18,062,42.9,84,08,007,16.4,86,07,108,27.2,65,06,169,39.3*57

1612351961000,$GLGSV,3,3,9,68,01,337,*64

1612351961000,$BDGSV,3,1,9,19,50,238,37.4,22,31,308,35.4,10,24,051,40.4,20,21,183,20.5*53

1612351961000,$BDGSV,3,2,9,05,19,125,33.1,28,18,070,37.5,27,13,121,40.6,07,03,045,*43

1612351961000,$BDGSV,3,3,9,02,03,104,*65

1612351961000,$GAGSV,2,1,7,09,72,237,25.7,01,35,053,35.0,24,35,232,,05,33,310,*55

1612351961000,$GAGSV,2,2,7,04,32,158,,13,03,023,,26,02,071,*66

1612351961000,$GNRMC,113241.000,A,4540.3672,N,01156.0237,E,0.000,274.99,030221,,,A*47

1612351961000,$GNVTG,274.99,T,,M,0.000,N,0.000,K,A*22

1612351961000,$PMTKTSX1,42757,19212.724,21.524,20.545,8d980000,1.826110,1.921272,1.115334,-0.207520,0.510459,1.915*10

1612351961000,$PMTKAG2,113241.000,6,0115,0,0,0,0,0,0,0,0,0,0,0,0*33

1612351962000,$GNGGA,113242.000,4540.3672,N,01156.0237,E,1,30,0.45,59.8,M,47.1,M,,*41

1612351962000,$GPGSA,A,3,15,13,28,24,14,17,23,12,30,19,20,10,0.73,0.45,0.58*09

1612351962000,$GLGSA,A,3,76,66,67,77,85,86,84,65,,,,,0.73,0.45,0.58*1A

1612351962000,$BDGSA,A,3,27,28,22,05,10,20,19,,,,,,0.73,0.45,0.58*1A

1612351962000,$GAGSA,A,3,01,09,,,,,,,,,,,0.73,0.45,0.58*13

1612351962000,$GPGSV,4,1,14,15,69,269,44.4,13,64,142,41.0,28,43,053,40.7,24,43,285,34.7*7F

1612351962000,$GPGSV,4,2,14,14,35,052,33.4,17,33,104,42.9,36,33,153,32.0,23,25,301,33.0*71

1612351962000,$GPGSV,4,3,14,19,24,131,46.4,20,21,297,33.6,12,13,218,26.8,30,12,086,26.6*71

1612351962000,$GPGSV,4,4,14,10,09,329,24.8,05,06,196,16.9*71

1612351962000,$GLGSV,3,1,9,76,69,005,40.1,66,61,211,41.8,67,45,314,40.4,77,41,261,21.6*5B

1612351962000,$GLGSV,3,2,9,85,18,062,42.8,84,08,007,16.4,86,07,108,26.7,65,06,169,34.2*5E

1612351962000,$GLGSV,3,3,9,68,01,337,*64

1612351962000,$BDGSV,3,1,9,19,50,238,37.6,22,31,308,35.4,10,24,051,40.5,20,21,183,23.2*54

1612351962000,$BDGSV,3,2,9,05,19,125,33.3,28,18,070,37.3,27,13,121,40.8,07,03,045,*49

1612351962000,$BDGSV,3,3,9,02,03,104,*65

1612351962000,$GAGSV,2,1,7,09,72,237,26.4,01,35,053,34.7,24,35,232,,05,33,310,*53

1612351962000,$GAGSV,2,2,7,04,32,158,,13,03,023,,26,02,071,*66

1612351962000,$GNRMC,113242.000,A,4540.3672,N,01156.0237,E,0.000,274.99,030221,,,A*44

1612351962000,$GNVTG,274.99,T,,M,0.000,N,0.000,K,A*22

1612351962000,$PMTKAG2,113242.000,6,0115,0,0,0,0,0,0,0,0,0,0,0,0*30

1612351963000,$GNGGA,113243.000,4540.3672,N,01156.0237,E,1,30,0.45,59.8,M,47.1,M,,*40

1612351963000,$GPGSA,A,3,15,13,28,24,14,17,23,12,30,19,20,10,0.73,0.45,0.58*09

1612351963000,$GLGSA,A,3,76,66,67,77,85,86,84,65,,,,,0.73,0.45,0.58*1A

1612351963000,$BDGSA,A,3,27,28,22,05,10,20,19,,,,,,0.73,0.45,0.58*1A

1612351963000,$GAGSA,A,3,01,09,,,,,,,,,,,0.73,0.45,0.58*13

1612351963000,$GPGSV,4,1,14,15,69,269,44.4,13,64,142,41.0,28,43,053,40.5,24,43,285,34.4*7E

1612351963000,$GPGSV,4,2,14,14,35,052,33.0,17,33,104,42.9,36,33,153,32.0,23,25,301,32.8*7C

1612351963000,$GPGSV,4,3,14,19,24,131,46.1,20,21,297,33.4,12,13,218,25.9,30,12,086,26.3*71

1612351963000,$GPGSV,4,4,14,10,09,329,25.2,05,06,196,17.4*76

1612351963000,$GLGSV,3,1,9,76,69,005,40.8,66,61,211,41.8,67,45,314,40.2,77,41,261,21.0*52

1612351963000,$GLGSV,3,2,9,85,18,062,42.8,84,08,007,17.0,86,07,108,26.5,65,06,169,27.4*5D

1612351963000,$GLGSV,3,3,9,68,01,337,*64

1612351963000,$BDGSV,3,1,9,19,50,238,37.6,22,31,308,35.1,10,24,051,40.4,20,21,183,24.4*51

1612351963000,$BDGSV,3,2,9,05,19,125,33.2,28,18,070,37.3,27,13,121,41.0,07,03,045,*41

1612351963000,$BDGSV,3,3,9,02,03,104,*65

1612351963000,$GAGSV,2,1,7,09,72,237,27.3,01,35,053,34.4,24,35,232,,05,33,310,*56

1612351963000,$GAGSV,2,2,7,04,32,158,,13,03,023,,26,02,071,*66

1612351963000,$GNRMC,113243.000,A,4540.3672,N,01156.0237,E,0.000,274.99,030221,,,A*45

1612351963000,$GNVTG,274.99,T,,M,0.000,N,0.000,K,A*22

1612351963000,$PMTKAG2,113243.000,6,0115,0,0,0,0,0,0,0,0,0,0,0,0*31

1612351964000,$GNGGA,113244.000,4540.3672,N,01156.0237,E,1,30,0.45,59.8,M,47.1,M,,*47

1612351964000,$GPGSA,A,3,15,13,28,24,14,17,23,12,30,19,20,10,0.73,0.45,0.58*09

1612351964000,$GLGSA,A,3,76,66,67,77,85,86,84,65,,,,,0.73,0.45,0.58*1A

1612351964000,$BDGSA,A,3,27,28,22,05,10,20,19,,,,,,0.73,0.45,0.58*1A

1612351964000,$GAGSA,A,3,01,09,,,,,,,,,,,0.73,0.45,0.58*13

1612351964000,$GPGSV,4,1,14,15,69,269,44.5,13,64,142,41.1,28,43,053,40.5,24,43,285,34.7*7D

1612351964000,$GPGSV,4,2,14,14,35,052,32.9,17,33,104,43.1,36,33,153,32.0,23,25,301,32.8*7D

1612351964000,$GPGSV,4,3,14,19,24,131,45.9,20,21,297,33.6,12,13,218,25.9,30,12,086,26.6*7D

1612351964000,$GPGSV,4,4,14,10,09,329,25.4,05,06,196,17.0*74

1612351964000,$GLGSV,3,1,9,76,69,005,41.3,66,61,211,41.8,67,45,314,40.0,77,41,261,21.6*5C

1612351964000,$GLGSV,3,2,9,85,18,062,43.2,84,08,007,16.8,86,07,108,26.5,65,06,169,35.2*5A

1612351964000,$GLGSV,3,3,9,68,01,337,*64

1612351964000,$BDGSV,3,1,9,19,50,238,37.7,22,31,308,34.9,10,24,051,40.5,20,21,183,23.3*58

1612351964000,$BDGSV,3,2,9,05,19,125,33.3,28,18,070,37.5,27,13,121,41.3,07,03,045,*45

1612351964000,$BDGSV,3,3,9,02,03,104,*65

1612351964000,$GAGSV,2,1,7,09,72,237,28.1,01,35,053,34.3,24,35,232,,05,33,310,*5C

1612351964000,$GAGSV,2,2,7,04,32,158,,13,03,023,,26,02,071,*66

1612351964000,$GNRMC,113244.000,A,4540.3672,N,01156.0237,E,0.000,274.99,030221,,,A*42

1612351964000,$GNVTG,274.99,T,,M,0.000,N,0.000,K,A*22

1612351964000,$PMTKTSX1,45757,19077.143,21.524,20.627,8d580000,1.809670,1.907714,2.123036,-0.207520,0.510459,1.915*10

1612351964000,$PMTKGALM,31,1,1,1,1,1,1,1,1,1,1,0,1,1,1,1,1,1,1,1,1,1,1,1,1,1,1,1,1,1,1,1,1*2A

1612351964000,$PMTKAG2,113244.000,6,0115,0,0,0,0,0,0,0,0,0,0,0,0*36

1612351965000,$GNGGA,113245.000,4540.3672,N,01156.0237,E,1,30,0.45,59.8,M,47.1,M,,*46

1612351965000,$GPGSA,A,3,15,13,28,24,14,17,23,12,30,19,20,10,0.73,0.45,0.58*09

1612351965000,$GLGSA,A,3,76,66,67,77,85,86,84,65,,,,,0.73,0.45,0.58*1A

1612351965000,$BDGSA,A,3,27,28,22,05,10,20,19,,,,,,0.73,0.45,0.58*1A

1612351965000,$GAGSA,A,3,01,09,,,,,,,,,,,0.73,0.45,0.58*13

1612351965000,$GPGSV,4,1,14,15,69,269,44.5,13,64,142,41.2,28,43,053,40.2,24,43,285,35.0*7F

1612351965000,$GPGSV,4,2,14,14,35,052,32.9,17,33,104,43.1,36,33,153,32.0,23,25,301,32.9*7C

1612351965000,$GPGSV,4,3,14,19,24,131,46.0,20,21,297,33.6,12,13,218,26.4,30,12,086,26.4*7B

1612351965000,$GPGSV,4,4,14,10,09,329,25.2,05,06,196,16.3*70

1612351965000,$GLGSV,3,1,9,76,69,005,41.7,66,61,211,41.6,67,45,314,40.0,77,41,261,21.7*57

1612351965000,$GLGSV,3,2,9,85,18,062,43.3,84,08,007,16.9,86,07,108,26.3,65,06,169,34.7*58

1612351965000,$GLGSV,3,3,9,68,01,337,*64

1612351965000,$BDGSV,3,1,9,19,50,238,37.6,22,31,308,35.3,10,24,051,40.4,20,21,183,23.5*55

1612351965000,$BDGSV,3,2,9,05,19,125,33.1,28,18,070,37.3,27,13,121,41.5,07,03,045,*47

1612351965000,$BDGSV,3,3,9,02,03,104,*65

1612351965000,$GAGSV,2,1,7,09,72,237,27.1,01,35,053,33.8,24,35,232,,05,33,310,*5F

1612351965000,$GAGSV,2,2,7,04,32,158,,13,03,023,,26,02,071,*66

1612351965000,$PMTKTSX1,46757,19039.313,21.428,20.642,8d4c0000,1.805244,1.903931,0.643137,-0.207520,0.510459,1.915*4B

1612351965000,$PMTKGEPH,32,1,1,1,1,1,1,1,1,1,1,1,1,1,1,1,1,1,1,1,1,1,1,1,1,1,1,1,1,1,1,1,1*35

1612351965000,$GNACCURACY,1.1,179.9,0.3,7.8*1E

1612351965000,$PMTKAG2,113245.000,6,0115,0,0,0,0,0,0,0,0,0,0,0,0*37

1612351966000,$GNGGA,113246.000,4540.3672,N,01156.0237,E,1,30,0.45,59.8,M,47.1,M,,*45

1612351966000,$GPGSA,A,3,15,13,28,24,14,17,23,12,30,19,20,10,0.73,0.45,0.58*09

1612351966000,$GLGSA,A,3,76,66,67,77,85,86,84,65,,,,,0.73,0.45,0.58*1A

1612351966000,$BDGSA,A,3,27,28,22,05,10,20,19,,,,,,0.73,0.45,0.58*1A

1612351966000,$GAGSA,A,3,01,09,,,,,,,,,,,0.73,0.45,0.58*13

1612351966000,$GPGSV,4,1,14,15,69,269,44.5,13,64,142,41.4,28,43,053,40.8,24,43,285,35.6*75

1612351966000,$GPGSV,4,2,14,14,35,052,32.9,17,33,104,43.0,36,33,153,33.0,23,25,301,33.0*74

1612351966000,$GPGSV,4,3,14,19,24,131,45.9,20,21,297,33.7,12,13,218,25.9,30,12,086,25.9*70

1612351966000,$GPGSV,4,4,14,10,09,329,25.2,05,06,196,15.6*76

1612351966000,$GLGSV,3,1,9,76,69,005,42.1,66,61,211,41.7,67,45,314,39.9,77,41,261,22.2*52

1612351966000,$GLGSV,3,2,9,85,18,062,43.6,84,08,007,17.1,86,07,108,26.3,65,06,169,31.5*53

1612351966000,$GLGSV,3,3,9,68,01,337,*64

1612351966000,$BDGSV,3,1,9,19,50,238,37.5,22,31,308,35.6,10,24,051,40.3,20,21,183,24.8*5E

1612351966000,$BDGSV,3,2,9,05,19,125,33.1,28,18,070,37.3,27,13,121,41.7,07,03,045,*45

1612351966000,$BDGSV,3,3,9,02,03,104,*65

1612351966000,$GAGSV,2,1,7,09,72,237,27.4,01,35,053,33.3,24,35,232,,05,33,310,*51

1612351966000,$GNRMC,113246.000,A,4540.3672,N,01156.0237,E,0.000,274.99,030221,,,A*40

1612351966000,$GNVTG,274.99,T,,M,0.000,N,0.000,K,A*22

1612351966000,$PMTKTSX1,47757,19008.701,21.234,20.655,8d420000,1.802082,1.900870,0.100326,-0.207520,0.510459,1.906*1B

1612351966000,$PMTKGEPH,32,1,1,1,1,1,1,1,1,1,1,1,1,1,1,1,1,1,1,1,1,1,1,1,1,1,1,1,1,1,1,1,1*35

1612351966000,$PMTKAG2,113246.000,6,0115,0,0,0,0,0,0,0,0,0,0,0,0*34

1612351967000,$GNGGA,113247.000,4540.3672,N,01156.0237,E,1,30,0.45,59.8,M,47.1,M,,*44

1612351967000,$GPGSA,A,3,15,13,28,24,14,17,23,12,30,19,20,10,0.73,0.45,0.58*09

1612351967000,$GLGSA,A,3,76,66,67,77,85,86,84,65,,,,,0.73,0.45,0.58*1A

1612351967000,$BDGSA,A,3,27,28,22,05,10,20,19,,,,,,0.73,0.45,0.58*1A

1612351967000,$GAGSA,A,3,01,09,,,,,,,,,,,0.73,0.45,0.58*13

1612351967000,$GPGSV,4,1,14,15,69,269,44.3,13,64,142,41.5,28,43,053,40.8,24,43,285,35.8*7C

1612351967000,$GPGSV,4,2,14,14,35,052,33.2,17,33,104,43.1,36,33,153,33.0,23,25,301,33.0*7F

1612351967000,$GPGSV,4,3,14,19,24,131,45.9,20,21,297,33.4,12,13,218,25.9,30,12,086,25.9*73

1612351967000,$GPGSV,4,4,14,10,09,329,25.0,05,06,196,18.3*7C

1612351967000,$GLGSV,3,1,9,76,69,005,40.8,66,61,211,41.6,67,45,314,39.8,77,41,261,24.5*58

1612351967000,$GLGSV,3,2,9,85,18,062,42.9,84,08,007,16.9,86,07,108,26.6,65,06,169,31.6*52

1612351967000,$GLGSV,3,3,9,68,01,337,*64

1612351967000,$BDGSV,3,1,9,19,50,238,37.5,22,31,308,35.5,10,24,051,40.6,20,21,183,24.9*59

1612351967000,$BDGSV,3,2,9,05,19,125,33.0,28,18,070,37.3,27,13,121,40.8,07,03,045,*4A

1612351967000,$BDGSV,3,3,9,02,03,104,*65

1612351967000,$GAGSV,2,1,7,09,72,237,27.7,01,35,053,33.0,24,35,232,,05,33,310,*51

1612351967000,$GAGSV,2,2,7,04,32,158,,13,03,023,,26,02,071,*66

1612351967000,$GNRMC,113247.000,A,4540.3672,N,01156.0237,E,0.000,274.99,030221,,,A*41

1612351967000,$PMTKGALM,31,1,1,1,1,1,1,1,1,1,1,0,1,1,1,1,1,1,1,1,1,1,1,1,1,1,1,1,1,1,1,1,1*2A

1612351967000,$PMTKAG2,113247.000,6,0115,0,0,0,0,0,0,0,0,0,0,0,0*35

1612351968000,$GNGGA,113248.000,4540.3672,N,01156.0237,E,1,30,0.45,59.8,M,47.1,M,,*4B

1612351968000,$GPGSA,A,3,15,13,28,24,14,17,23,12,30,19,20,10,0.73,0.45,0.58*09

1612351968000,$GLGSA,A,3,76,66,67,77,85,86,84,65,,,,,0.73,0.45,0.58*1A

1612351968000,$BDGSA,A,3,27,28,22,05,10,20,19,,,,,,0.73,0.45,0.58*1A

1612351968000,$GAGSA,A,3,01,09,,,,,,,,,,,0.73,0.45,0.58*13

1612351968000,$GPGSV,4,1,14,15,69,269,44.3,13,64,142,41.3,28,43,053,40.7,24,43,285,35.7*7A

1612351968000,$GPGSV,4,2,14,14,35,052,33.8,17,33,104,42.8,36,33,153,33.0,23,25,301,33.1*7C

1612351968000,$GPGSV,4,3,14,19,24,131,46.2,20,21,297,33.5,12,13,218,26.8,30,12,086,26.0*72

1612351968000,$GPGSV,4,4,14,10,09,329,24.9,05,06,196,18.3*74

1612351968000,$GLGSV,3,1,9,76,69,005,40.8,66,61,211,41.7,67,45,314,39.7,77,41,261,26.8*59

1612351968000,$GLGSV,3,2,9,85,18,062,42.9,84,08,007,16.5,86,07,108,26.7,65,06,169,31.6*5F

1612351968000,$GLGSV,3,3,9,68,01,337,*64

1612351968000,$BDGSV,3,1,9,19,50,238,37.5,22,31,308,35.5,10,24,051,40.5,20,21,183,24.8*5B

1612351968000,$BDGSV,3,2,9,05,19,125,33.0,28,18,070,37.5,27,13,121,41.0,07,03,045,*45

1612351968000,$BDGSV,3,3,9,02,03,104,*65

1612351968000,$GAGSV,2,1,7,09,72,237,27.5,01,35,053,33.0,24,35,232,,05,33,310,*53

1612351968000,$GAGSV,2,2,7,04,32,158,,13,03,023,,26,02,071,*66

1612351968000,$GNRMC,113248.000,A,4540.3672,N,01156.0237,E,0.000,274.99,030221,,,A*4E

1612351968000,$GNVTG,274.99,T,,M,0.000,N,0.000,K,A*22

1612351968000,$PMTKGALM,31,1,1,1,1,1,1,1,1,1,1,0,1,1,1,1,1,1,1,1,1,1,1,1,1,1,1,1,1,1,1,1,1*2A

1612351968000,$PMTKAG2,113248.000,6,0115,0,0,0,0,0,0,0,0,0,0,0,0*3A

1612351969000,$GNGGA,113249.000,4540.3672,N,01156.0237,E,1,30,0.45,59.8,M,47.1,M,,*4A

1612351969000,$GPGSA,A,3,15,13,28,24,14,17,23,12,30,19,20,10,0.73,0.45,0.58*09

1612351969000,$GLGSA,A,3,76,66,67,77,85,86,84,65,,,,,0.73,0.45,0.58*1A

1612351969000,$BDGSA,A,3,27,28,22,05,10,20,19,,,,,,0.73,0.45,0.58*1A

1612351969000,$GAGSA,A,3,01,09,,,,,,,,,,,0.73,0.45,0.58*13

1612351969000,$GPGSV,4,1,14,15,69,269,44.3,13,64,142,41.3,28,43,053,40.6,24,43,285,35.4*78

1612351969000,$GPGSV,4,2,14,14,35,052,36.9,17,33,104,42.8,36,33,153,33.0,23,25,301,33.2*7B

1612351969000,$GPGSV,4,3,14,19,24,131,46.2,20,21,297,33.6,12,13,218,27.8,30,12,086,25.8*7B

1612351969000,$GPGSV,4,4,14,10,09,329,24.6,05,06,196,18.3*7B

1612351969000,$GLGSV,3,1,9,76,69,005,40.9,66,61,211,41.8,67,45,314,39.6,77,41,261,27.0*5F

1612351969000,$GLGSV,3,2,9,85,18,062,43.0,84,08,007,13.8,86,07,108,26.7,65,06,169,32.2*58

1612351969000,$GLGSV,3,3,9,68,01,337,*64

1612351969000,$BDGSV,3,1,9,19,50,238,37.5,22,31,308,35.4,10,24,051,40.6,20,21,183,24.1*50

1612351969000,$BDGSV,3,2,9,05,19,125,33.0,28,18,070,37.2,27,13,121,41.1,07,03,045,*43

1612351969000,$BDGSV,3,3,9,02,03,104,*65

1612351969000,$GAGSV,2,1,7,09,72,237,27.4,01,35,053,34.7,24,35,232,,05,33,310,*52

1612351969000,$GAGSV,2,2,7,04,32,158,,13,03,023,,26,02,071,*66

1612351969000,$GNRMC,113249.000,A,4540.3672,N,01156.0237,E,0.000,274.99,030221,,,A*4F

1612351969000,$GNVTG,274.99,T,,M,0.000,N,0.000,K,A*22

1612351969000,$PMTKGEPH,32,1,1,1,1,1,1,1,1,1,1,1,1,1,1,1,1,1,1,1,1,1,1,1,1,1,1,1,1,1,1,1,1*35

1612351969000,$PMTKGALM,31,1,1,1,1,1,1,1,1,1,1,0,1,1,1,1,1,1,1,1,1,1,1,1,1,1,1,1,1,1,1,1,1*2A

1612351969000,$GNACCURACY,1.1,179.9,0.3,7.7*11

1612351969000,$PMTKAG2,113249.000,6,0115,0,0,0,0,0,0,0,0,0,0,0,0*3B

1612351970000,$GNGGA,113250.000,4540.3672,N,01156.0237,E,1,30,0.45,59.8,M,47.1,M,,*42

1612351970000,$GPGSA,A,3,15,13,28,24,14,17,23,12,30,19,20,10,0.73,0.45,0.58*09

1612351970000,$GLGSA,A,3,76,66,67,77,85,86,84,65,,,,,0.73,0.45,0.58*1A

1612351970000,$BDGSA,A,3,27,28,22,05,10,20,19,,,,,,0.73,0.45,0.58*1A

1612351970000,$GAGSA,A,3,01,09,,,,,,,,,,,0.73,0.45,0.58*13

1612351970000,$GPGSV,4,1,14,15,69,269,44.4,13,64,142,41.4,28,43,053,40.6,24,43,285,35.3*7F

1612351970000,$GPGSV,4,2,14,14,35,052,37.0,17,33,104,42.8,36,33,153,34.0,23,25,301,33.2*74

1612351970000,$GPGSV,4,3,14,19,24,131,46.2,20,21,297,33.5,12,13,218,26.8,30,12,086,26.2*70

1612351970000,$GPGSV,4,4,14,10,09,329,24.2,05,06,196,19.4*79

1612351970000,$GLGSV,3,1,9,76,69,005,40.9,66,61,211,41.7,67,45,314,39.6,77,41,261,26.0*51

1612351970000,$GLGSV,3,2,9,85,18,062,43.0,84,08,007,13.8,86,07,108,26.7,65,06,169,31.8*51

1612351970000,$GLGSV,3,3,9,68,01,337,*64

1612351970000,$BDGSV,3,1,9,19,50,238,37.5,22,31,308,35.4,10,24,051,40.5,20,21,183,24.7*55

1612351970000,$BDGSV,3,2,9,05,19,125,33.1,28,18,070,37.3,27,13,121,41.2,07,03,045,*40

1612351970000,$BDGSV,3,3,9,02,03,104,*65

1612351970000,$GAGSV,2,1,7,09,72,237,27.6,01,35,053,34.5,24,35,232,,05,33,310,*52

1612351970000,$GAGSV,2,2,7,04,32,158,,13,03,023,,26,02,071,*66

1612351970000,$GNRMC,113250.000,A,4540.3672,N,01156.0237,E,0.000,274.99,030221,,,A*47

1612351970000,$PMTKTSX1,51757,19046.162,21.169,20.647,8d480000,1.804611,1.904616,-0.174021,-0.207520,0.510459,1.902*39

1612351970000,$PMTKGEPH,32,1,1,1,1,1,1,1,1,1,1,1,1,1,1,1,1,1,1,1,1,1,1,1,1,1,1,1,1,1,1,1,1*35

1612351970000,$PMTKAG2,113250.000,6,0115,0,0,0,0,0,0,0,0,0,0,0,0*33

1612351971000,$GNGGA,113251.000,4540.3672,N,01156.0237,E,1,30,0.45,59.8,M,47.1,M,,*43

1612351971000,$GPGSA,A,3,15,13,28,24,14,17,23,12,30,19,20,10,0.73,0.45,0.58*09

1612351971000,$GLGSA,A,3,76,66,67,77,85,86,84,65,,,,,0.73,0.45,0.58*1A

1612351971000,$BDGSA,A,3,27,28,22,05,10,20,19,,,,,,0.73,0.45,0.58*1A

1612351971000,$GAGSA,A,3,01,09,,,,,,,,,,,0.73,0.45,0.58*13

1612351971000,$GPGSV,4,1,14,15,69,269,44.4,13,64,142,41.3,28,43,053,40.4,24,43,285,35.3*7A

1612351971000,$GPGSV,4,2,14,14,35,052,37.2,17,33,104,42.8,36,33,153,34.0,23,25,301,33.0*74

1612351971000,$GPGSV,4,3,14,19,24,131,46.2,20,21,297,33.5,12,13,218,27.5,30,12,086,26.2*7C

1612351971000,$GPGSV,4,4,14,10,09,329,23.8,05,06,196,18.9*78

1612351971000,$GLGSV,3,1,9,76,69,005,40.9,66,61,211,41.7,67,45,314,39.6,77,41,261,24.4*57

1612351971000,$GLGSV,3,2,9,85,18,062,43.1,84,08,007,13.8,86,07,108,26.8,65,06,169,29.2*5C

1612351971000,$GLGSV,3,3,9,68,01,337,*64

1612351971000,$BDGSV,3,1,9,19,50,238,37.4,22,31,308,35.4,10,24,051,40.5,20,21,183,24.6*55

1612351971000,$BDGSV,3,2,9,05,19,125,33.1,28,18,070,37.4,27,13,121,41.3,07,03,045,*46

1612351971000,$BDGSV,3,3,9,02,03,104,*65

1612351971000,$GAGSV,2,1,7,09,72,237,28.0,01,35,053,34.3,24,35,232,,05,33,310,*5D

1612351971000,$GAGSV,2,2,7,04,32,158,,13,03,023,,26,02,071,*66

1612351971000,$GNRMC,113251.000,A,4540.3672,N,01156.0237,E,0.000,274.99,030221,,,A*46

1612351971000,$GNVTG,274.99,T,,M,0.000,N,0.000,K,A*22

1612351971000,$PMTKTSX1,52757,19059.696,21.137,20.645,8d4a0000,1.806508,1.905970,-0.543535,-0.207520,0.510459,1.897*62

1612351971000,$PMTKGEPH,32,1,1,1,1,1,1,1,1,1,1,1,1,1,1,1,1,1,1,1,1,1,1,1,1,1,1,1,1,1,1,1,1*35

1612351971000,$PMTKAG2,113251.000,6,0115,0,0,0,0,0,0,0,0,0,0,0,0*32

1612351972000,$GNGGA,113252.000,4540.3672,N,01156.0237,E,1,30,0.45,59.8,M,47.1,M,,*40

1612351972000,$GPGSA,A,3,15,13,28,24,14,17,23,12,30,19,20,10,0.73,0.45,0.58*09

1612351972000,$GLGSA,A,3,76,66,67,77,85,86,84,65,,,,,0.73,0.45,0.58*1A

1612351972000,$BDGSA,A,3,27,28,22,05,10,20,19,,,,,,0.73,0.45,0.58*1A

1612351972000,$GAGSA,A,3,01,09,,,,,,,,,,,0.73,0.45,0.58*13

1612351972000,$GPGSV,4,1,14,15,69,269,44.4,13,64,142,41.3,28,43,053,40.3,24,43,285,35.3*7D

1612351972000,$GPGSV,4,2,14,14,35,052,37.7,17,33,104,42.8,36,33,153,34.0,23,25,301,33.1*70

1612351972000,$GPGSV,4,3,14,19,24,131,46.1,20,21,297,33.4,12,13,218,28.4,30,12,086,26.3*71

1612351972000,$GPGSV,4,4,14,10,09,329,24.4,05,06,196,19.2*79

1612351972000,$GLGSV,3,1,9,76,69,005,41.0,66,61,211,41.7,67,45,314,39.6,77,41,261,23.9*55

1612351972000,$GLGSV,3,2,9,85,18,062,43.2,84,08,007,13.7,86,07,108,26.9,65,06,169,32.5*5C

1612351972000,$GLGSV,3,3,9,68,01,337,*64

1612351972000,$BDGSV,3,1,9,19,50,238,37.4,22,31,308,35.5,10,24,051,40.5,20,21,183,24.3*51

1612351972000,$BDGSV,3,2,9,05,19,125,33.1,28,18,070,37.5,27,13,121,41.3,07,03,045,*47

1612351972000,$BDGSV,3,3,9,02,03,104,*65

1612351972000,$GAGSV,2,1,7,09,72,237,28.1,01,35,053,34.1,24,35,232,,05,33,310,*5E

1612351972000,$GAGSV,2,2,7,04,32,158,,13,03,023,,26,02,071,*66

1612351972000,$GNRMC,113252.000,A,4540.3672,N,01156.0237,E,0.000,274.99,030221,,,A*45

1612351972000,$PMTKTSX1,53757,19046.996,21.040,20.645,8d4a0000,1.805876,1.904700,-0.637734,-0.207520,0.510459,1.897*6F

1612351972000,$PMTKAG2,113252.000,6,0115,0,0,0,0,0,0,0,0,0,0,0,0*31

1612351973000,$GNGGA,113253.000,4540.3672,N,01156.0237,E,1,30,0.45,59.8,M,47.1,M,,*41

1612351973000,$GPGSA,A,3,15,13,28,24,14,17,23,12,30,19,20,10,0.73,0.45,0.58*09

1612351973000,$GLGSA,A,3,76,66,67,77,85,86,84,65,,,,,0.73,0.45,0.58*1A

1612351973000,$BDGSA,A,3,27,28,22,05,10,20,19,,,,,,0.73,0.45,0.58*1A

1612351973000,$GAGSA,A,3,01,09,,,,,,,,,,,0.73,0.45,0.58*13

1612351973000,$GPGSV,4,1,14,15,69,269,44.5,13,64,142,41.3,28,43,053,40.1,24,43,285,35.1*7C

1612351973000,$GPGSV,4,2,14,14,35,052,37.6,17,33,104,42.8,36,33,153,34.0,23,25,301,33.4*74

1612351973000,$GPGSV,4,3,14,19,24,131,46.2,20,21,297,33.4,12,13,218,28.8,30,12,086,26.2*7F

1612351973000,$GPGSV,4,4,14,10,09,329,24.2,05,06,196,19.4*79

1612351973000,$GLGSV,3,1,9,76,69,005,41.1,66,61,211,41.7,67,45,314,39.6,77,41,261,23.4*59

1612351973000,$GLGSV,3,2,9,85,18,062,43.3,84,08,007,13.7,86,07,108,27.0,65,06,169,35.3*54

1612351973000,$GLGSV,3,3,9,68,01,337,*64

1612351973000,$BDGSV,3,1,9,19,50,238,37.4,22,31,308,35.6,10,24,051,40.4,20,21,183,24.0*50

1612351973000,$BDGSV,3,2,9,05,19,125,33.0,28,18,070,37.6,27,13,121,41.4,07,03,045,*42

1612351973000,$BDGSV,3,3,9,02,03,104,*65

1612351973000,$GAGSV,2,1,7,09,72,237,28.4,01,35,053,33.9,24,35,232,,05,33,310,*54

1612351973000,$GAGSV,2,2,7,04,32,158,,13,03,023,,26,02,071,*66

1612351973000,$GNRMC,113253.000,A,4540.3672,N,01156.0237,E,0.000,274.99,030221,,,A*44

1612351973000,$GNVTG,274.99,T,,M,0.000,N,0.000,K,A*22

1612351973000,$PMTKTSX1,54758,19048.688,20.975,20.645,8d4a0000,1.805876,1.904869,0.169209,-0.207520,0.510459,1.902*40

1612351973000,$PMTKGEPH,32,1,1,1,1,1,1,1,1,1,1,1,1,1,1,1,1,1,1,1,1,1,1,1,1,1,1,1,1,1,1,1,1*35

1612351973000,$PMTKGALM,31,1,1,1,1,1,1,1,1,1,1,0,1,1,1,1,1,1,1,1,1,1,1,1,1,1,1,1,1,1,1,1,1*2A

1612351973000,$GNACCURACY,1.1,179.9,0.3,7.7*11

1612351973000,$PMTKAG2,113253.000,6,0115,0,0,0,0,0,0,0,0,0,0,0,0*30

1612351974000,$GNGGA,113254.000,4540.3672,N,01156.0237,E,1,29,0.47,59.8,M,47.1,M,,*4C

1612351974000,$GPGSA,A,3,15,13,28,24,14,17,23,12,30,19,20,10,0.76,0.47,0.60*05

1612351974000,$GLGSA,A,3,76,66,67,77,85,86,65,,,,,,0.76,0.47,0.60*1A

1612351974000,$BDGSA,A,3,27,28,22,05,10,20,19,,,,,,0.76,0.47,0.60*16

1612351974000,$GAGSA,A,3,01,09,,,,,,,,,,,0.76,0.47,0.60*1F

1612351974000,$GPGSV,4,1,14,15,69,269,44.5,13,64,142,41.4,28,43,053,40.0,24,43,285,35.0*7B

1612351974000,$GPGSV,4,2,14,14,35,052,37.8,17,33,104,42.8,36,33,153,34.0,23,25,301,33.7*79

1612351974000,$GPGSV,4,3,14,19,24,131,46.2,20,21,297,33.5,12,13,218,28.3,30,12,086,25.2*76

1612351974000,$GPGSV,4,4,14,10,09,329,24.1,05,06,196,19.7*79

1612351974000,$GLGSV,3,1,9,76,69,005,41.1,66,61,211,41.7,67,45,314,39.7,77,41,261,23.9*55

1612351974000,$GLGSV,3,2,9,85,18,062,43.4,84,08,007,,86,07,108,27.0,65,06,169,34.8*42

1612351974000,$GLGSV,3,3,9,68,01,337,*64

1612351974000,$BDGSV,3,1,9,19,50,238,37.4,22,31,308,35.6,10,24,051,40.4,20,21,183,23.6*51

1612351974000,$BDGSV,3,2,9,05,19,125,33.1,28,18,070,37.7,27,13,121,41.5,07,03,045,*43

1612351974000,$BDGSV,3,3,9,02,03,104,*65

1612351974000,$GAGSV,2,1,7,09,72,237,28.1,01,35,053,33.8,24,35,233,,05,33,310,*51

1612351974000,$GAGSV,2,2,7,04,32,158,,13,03,023,,26,02,071,*66

1612351974000,$GNRMC,113254.000,A,4540.3672,N,01156.0237,E,0.000,274.99,030221,,,A*43

1612351974000,$GNVTG,274.99,T,,M,0.000,N,0.000,K,A*22

1612351974000,$PMTKTSX1,55758,19056.486,21.072,20.634,8d520000,1.807141,1.905649,-0.484772,-0.207520,0.510459,1.902*39

1612351974000,$PMTKGALM,31,1,1,1,1,1,1,1,1,1,1,0,1,1,1,1,1,1,1,1,1,1,1,1,1,1,1,1,1,1,1,1,1*2A

1612351974000,$PMTKAG2,113254.000,6,0115,0,0,0,0,0,0,0,0,0,0,0,0*37

1612351975000,$GNGGA,113255.000,4540.3672,N,01156.0237,E,1,29,0.47,59.8,M,47.1,M,,*4D

1612351975000,$GPGSA,A,3,15,13,28,24,14,17,23,12,30,19,20,10,0.76,0.47,0.60*05

1612351975000,$GLGSA,A,3,76,66,67,77,85,86,65,,,,,,0.76,0.47,0.60*1A

1612351975000,$BDGSA,A,3,27,28,22,05,10,20,19,,,,,,0.76,0.47,0.60*16

1612351975000,$GAGSA,A,3,01,09,,,,,,,,,,,0.76,0.47,0.60*1F

1612351975000,$GPGSV,4,1,14,15,69,269,44.5,13,64,142,41.4,28,43,053,39.8,24,43,285,34.9*75

1612351975000,$GPGSV,4,2,14,14,35,052,38.1,17,33,104,42.8,36,33,153,34.0,23,25,301,34.2*7D

1612351975000,$GPGSV,4,3,14,19,24,131,46.1,20,21,297,33.5,12,13,218,28.6,30,12,086,24.2*71

1612351975000,$GPGSV,4,4,14,10,09,329,24.0,05,06,196,19.8*77

1612351975000,$GLGSV,3,1,9,76,69,005,41.1,66,61,211,41.6,67,45,314,39.7,77,41,261,25.0*5B

1612351975000,$GLGSV,3,2,9,85,18,062,43.4,84,08,007,,86,07,108,24.2,65,06,169,34.5*4E

1612351975000,$GLGSV,3,3,9,68,01,337,*64

1612351975000,$BDGSV,3,1,9,19,50,238,37.3,22,31,308,35.6,10,24,051,40.4,20,21,183,20.2*51

1612351975000,$BDGSV,3,2,9,05,19,125,33.0,28,18,070,37.8,27,13,121,41.6,07,03,045,*4E

1612351975000,$BDGSV,3,3,9,02,03,104,*65

1612351975000,$GAGSV,2,1,7,09,72,237,28.0,01,35,053,33.7,24,35,233,,05,33,310,*5F

1612351975000,$GAGSV,2,2,7,04,32,158,,13,03,023,,26,02,071,*66

1612351975000,$GNRMC,113255.000,A,4540.3672,N,01156.0237,E,0.000,274.99,030221,,,A*42

1612351975000,$GNVTG,274.99,T,,M,0.000,N,0.000,K,A*22

1612351975000,$PMTKTSX1,56758,19088.419,21.234,20.627,8d580000,1.809670,1.908842,0.664041,-0.207520,0.510459,1.902*12

1612351975000,$PMTKGEPH,32,1,1,1,1,1,1,1,1,1,1,1,1,1,1,1,1,1,1,1,1,1,1,1,1,1,1,1,1,1,1,1,1*35

1612351975000,$PMTKGALM,31,1,1,1,1,1,1,1,1,1,1,0,1,1,1,1,1,1,1,1,1,1,1,1,1,1,1,1,1,1,1,1,1*2A

1612351975000,$GNACCURACY,1.1,179.9,0.3,7.8*1E

1612351975000,$PMTKAG2,113255.000,6,0115,0,0,0,0,0,0,0,0,0,0,0,0*36

1612351976000,$GNGGA,113256.000,4540.3672,N,01156.0237,E,1,29,0.47,59.8,M,47.1,M,,*4E

1612351976000,$GPGSA,A,3,15,13,28,24,14,17,23,12,30,19,20,10,0.76,0.47,0.60*05

1612351976000,$GLGSA,A,3,76,66,67,77,85,86,65,,,,,,0.76,0.47,0.60*1A

1612351976000,$BDGSA,A,3,27,28,22,05,10,20,19,,,,,,0.76,0.47,0.60*16

1612351976000,$GAGSA,A,3,01,09,,,,,,,,,,,0.76,0.47,0.60*1F

1612351976000,$GPGSV,4,1,14,15,69,269,44.6,13,64,142,41.5,28,43,053,39.6,24,43,285,34.9*79

1612351976000,$GPGSV,4,2,14,14,35,052,38.3,17,33,104,42.7,36,33,153,34.0,23,25,301,34.8*7A

1612351976000,$GPGSV,4,3,14,19,24,131,46.0,20,21,297,33.6,12,13,218,28.9,30,12,086,24.4*7A

1612351976000,$GPGSV,4,4,14,10,09,329,24.0,05,06,196,19.7*78

1612351976000,$GLGSV,3,1,9,76,69,005,41.1,66,61,211,41.5,67,45,314,39.8,77,41,261,27.6*53

1612351976000,$GLGSV,3,2,9,85,18,062,43.5,84,08,007,,86,07,108,25.1,65,06,169,34.4*4C

1612351976000,$GLGSV,3,3,9,68,01,337,*64

1612351976000,$BDGSV,3,1,9,19,50,238,37.3,22,31,308,35.5,10,24,051,40.3,20,21,183,20.1*56

1612351976000,$BDGSV,3,2,9,05,19,125,33.0,28,18,070,37.9,27,13,121,41.7,07,03,045,*4E

1612351976000,$BDGSV,3,3,9,02,03,104,*65

1612351976000,$GAGSV,2,1,7,09,72,237,27.8,01,35,053,33.7,24,35,233,,05,33,310,*58

1612351976000,$GAGSV,2,2,7,04,32,158,,13,03,023,,26,02,071,*66

1612351976000,$GNRMC,113256.000,A,4540.3672,N,01156.0237,E,0.000,274.99,030221,,,A*41

1612351976000,$GNVTG,274.99,T,,M,0.000,N,0.000,K,A*22

1612351976000,$PMTKTSX1,57758,19078.178,21.169,20.624,8d5a0000,1.809670,1.907818,-1.024071,-0.207520,0.510459,1.902*62

1612351976000,$PMTKGEPH,32,1,1,1,1,1,1,1,1,1,1,1,1,1,1,1,1,1,1,1,1,1,1,1,1,1,1,1,1,1,1,1,1*35

1612351976000,$PMTKGALM,31,1,1,1,1,1,1,1,1,1,1,0,1,1,1,1,1,1,1,1,1,1,1,1,1,1,1,1,1,1,1,1,1*2A

1612351976000,$PMTKAGC,113256.000,4807,4822,5713,5876,0,0,0*60

1612351976000,$PMTKAG2,113256.000,6,0115,0,0,0,0,0,0,0,0,0,0,0,0*35

1612351977000,$GNGGA,113257.000,4540.3672,N,01156.0237,E,1,29,0.47,59.8,M,47.1,M,,*4F

1612351977000,$GPGSA,A,3,15,13,28,24,14,17,23,12,30,19,20,10,0.76,0.47,0.60*05

1612351977000,$GLGSA,A,3,76,66,67,77,85,86,65,,,,,,0.76,0.47,0.60*1A

1612351977000,$BDGSA,A,3,27,28,22,05,10,20,19,,,,,,0.76,0.47,0.60*16

1612351977000,$GAGSA,A,3,01,09,,,,,,,,,,,0.76,0.47,0.60*1F

1612351977000,$GPGSV,4,1,14,15,69,269,44.6,13,64,142,41.5,28,43,053,39.5,24,43,285,34.9*7A

1612351977000,$GPGSV,4,2,14,14,35,052,38.4,17,33,104,42.7,36,33,153,34.0,23,25,301,35.4*70

1612351977000,$GPGSV,4,3,14,19,24,131,46.0,20,21,297,33.5,12,13,218,28.8,30,12,086,23.2*79

1612351977000,$GPGSV,4,4,14,10,09,329,24.0,05,06,196,20.1*74

1612351977000,$GLGSV,3,1,9,76,69,005,41.2,66,61,211,38.8,67,45,314,39.8,77,41,261,26.9*5D

1612351977000,$GLGSV,3,2,9,85,18,062,43.5,84,08,007,,86,07,108,25.6,65,06,169,34.9*46

1612351977000,$GLGSV,3,3,9,68,01,337,*64

1612351977000,$BDGSV,3,1,9,19,50,238,37.3,22,31,308,35.5,10,24,051,40.3,20,21,183,19.2*5F

1612351977000,$BDGSV,3,2,9,05,19,125,33.0,28,18,070,38.0,27,13,121,41.9,07,03,045,*46

1612351977000,$BDGSV,3,3,9,02,03,104,*65

1612351977000,$GAGSV,2,1,7,09,72,237,27.9,01,35,053,33.7,24,35,233,,05,33,310,*59

1612351977000,$GAGSV,2,2,7,04,32,158,,13,03,023,,26,02,071,*66

1612351977000,$GNRMC,113257.000,A,4540.3672,N,01156.0237,E,0.000,274.99,030221,,,A*40

1612351977000,$PMTKTSX1,58758,19063.216,21.040,20.627,8d580000,1.809670,1.906322,-1.496180,-0.207520,0.510459,1.906*39

1612351977000,$PMTKAG2,113257.000,6,0115,0,0,0,0,0,0,0,0,0,0,0,0*34

1612351978000,$GNGGA,113258.000,4540.3672,N,01156.0237,E,1,29,0.47,59.8,M,47.1,M,,*40

1612351978000,$GPGSA,A,3,15,13,28,24,14,17,23,12,30,19,20,10,0.76,0.47,0.60*05

1612351978000,$GLGSA,A,3,76,66,67,77,85,86,65,,,,,,0.76,0.47,0.60*1A

1612351978000,$BDGSA,A,3,27,28,22,05,10,20,19,,,,,,0.76,0.47,0.60*16

1612351978000,$GAGSA,A,3,01,09,,,,,,,,,,,0.76,0.47,0.60*1F

1612351978000,$GPGSV,4,1,14,15,69,269,44.6,13,64,142,41.6,28,43,053,39.3,24,43,285,34.8*7E

1612351978000,$GPGSV,4,2,14,14,35,052,38.3,17,33,104,42.7,36,33,153,34.0,23,25,301,33.7*72

1612351978000,$GPGSV,4,3,14,19,24,131,46.1,20,21,297,33.5,12,13,218,28.7,30,12,086,22.3*77

1612351978000,$GPGSV,4,4,14,10,09,329,24.1,05,06,196,20.4*70

1612351978000,$GLGSV,3,1,9,76,69,005,41.4,66,61,211,39.5,67,45,314,39.9,77,41,261,27.0*5E

1612351978000,$GLGSV,3,2,9,85,18,062,43.5,84,08,007,,86,07,108,25.3,65,06,169,34.9*43

1612351978000,$GLGSV,3,3,9,68,01,337,*64

1612351978000,$BDGSV,3,1,9,19,50,238,37.2,22,31,308,35.5,10,24,051,40.3,20,21,183,18.4*59

1612351978000,$BDGSV,3,2,9,05,19,125,33.0,28,18,070,38.1,27,13,121,42.0,07,03,045,*4D

1612351978000,$BDGSV,3,3,9,02,03,104,*65

1612351978000,$GAGSV,2,1,7,09,72,237,27.6,01,35,053,33.7,24,35,233,,05,33,310,*56

1612351978000,$GAGSV,2,2,7,04,32,158,,13,03,023,,26,02,071,*66

1612351978000,$GNRMC,113258.000,A,4540.3672,N,01156.0237,E,0.000,274.99,030221,,,A*4F

1612351978000,$GNVTG,274.99,T,,M,0.000,N,0.000,K,A*22

1612351978000,$PMTKTSX1,59758,19056.400,20.943,20.632,8d540000,1.808405,1.905640,0.582982,-0.207520,0.510459,1.897*14

1612351978000,$PMTKAG2,113258.000,6,0115,0,0,0,0,0,0,0,0,0,0,0,0*3B

1612351979000,$GNGGA,113259.000,4540.3672,N,01156.0237,E,1,29,0.47,59.8,M,47.1,M,,*41

1612351979000,$GPGSA,A,3,15,13,28,24,14,17,23,12,30,19,20,10,0.76,0.47,0.60*05

1612351979000,$GLGSA,A,3,76,66,67,77,85,86,65,,,,,,0.76,0.47,0.60*1A

1612351979000,$BDGSA,A,3,27,28,22,05,10,20,19,,,,,,0.76,0.47,0.60*16

1612351979000,$GAGSA,A,3,01,09,,,,,,,,,,,0.76,0.47,0.60*1F

1612351979000,$GPGSV,4,1,14,15,69,269,44.6,13,64,142,41.6,28,43,053,39.3,24,43,285,34.9*7F

1612351979000,$GPGSV,4,2,14,14,35,052,38.6,17,33,104,42.7,36,33,153,33.0,23,25,301,36.7*75

1612351979000,$GPGSV,4,3,14,19,24,131,46.0,20,21,297,33.6,12,13,218,28.5,30,12,086,21.9*7E

1612351979000,$GPGSV,4,4,14,10,09,329,24.0,05,06,196,20.7*72

1612351979000,$GLGSV,3,1,9,76,69,005,41.4,66,61,211,39.3,67,45,314,40.0,77,41,261,25.9*54

1612351979000,$GLGSV,3,2,9,85,18,062,43.5,84,08,007,,86,07,108,25.0,65,06,169,34.8*41

1612351979000,$GLGSV,3,3,9,68,01,337,*64

1612351979000,$BDGSV,3,1,9,19,50,238,37.2,22,31,308,35.4,10,24,051,40.3,20,21,183,18.4*58

1612351979000,$BDGSV,3,2,9,05,19,125,33.0,28,18,070,38.2,27,13,121,42.1,07,03,045,14.2*56

1612351979000,$BDGSV,3,3,9,02,03,104,*65

1612351979000,$GAGSV,2,1,7,09,72,237,27.5,01,35,053,33.8,24,35,233,,05,33,310,*5A

1612351979000,$GAGSV,2,2,7,04,32,158,,13,03,023,,26,02,071,*66

1612351979000,$GNRMC,113259.000,A,4540.3672,N,01156.0237,E,0.000,274.99,030221,,,A*4E

1612351979000,$PMTKTSX1,60758,19076.886,21.040,20.627,8d580000,1.809037,1.907689,1.416266,-0.207520,0.510459,1.902*1F

1612351979000,$PMTKGEPH,32,1,1,1,1,1,1,1,1,1,1,1,1,1,1,1,1,1,1,1,1,1,1,1,1,1,1,1,1,1,1,1,1*35

1612351979000,$PMTKGALM,31,1,1,1,1,1,1,1,1,1,1,0,1,1,1,1,1,1,1,1,1,1,1,1,1,1,1,1,1,1,1,1,1*2A

1612351979000,$GNACCURACY,1.1,179.9,0.3,8.1*18

1612351979000,$PMTKAGC,113259.000,4875,5028,5545,5530,0,0,0*67

1612351979000,$PMTKAG2,113259.000,6,0115,0,0,0,0,0,0,0,0,0,0,0,0*3A

1612351980000,$GNGGA,113300.000,4540.3672,N,01156.0237,E,1,28,0.49,59.8,M,47.1,M,,*43

1612351980000,$GPGSA,A,3,15,13,28,24,14,17,23,12,30,19,20,10,0.77,0.49,0.60*0A

1612351980000,$GLGSA,A,3,76,66,67,77,85,86,65,,,,,,0.77,0.49,0.60*15

1612351980000,$BDGSA,A,3,27,28,22,05,10,19,,,,,,,0.77,0.49,0.60*1B

1612351980000,$GAGSA,A,3,01,09,,,,,,,,,,,0.77,0.49,0.60*10

1612351980000,$GPGSV,4,1,14,15,69,269,44.6,13,64,142,41.6,28,43,053,39.2,24,43,285,35.0*76

1612351980000,$GPGSV,4,2,14,14,35,052,38.7,17,33,104,42.7,36,33,153,33.0,23,25,301,37.0*72

1612351980000,$GPGSV,4,3,14,19,24,131,46.0,20,21,297,33.6,12,13,218,28.2,30,12,086,21.9*79

1612351980000,$GPGSV,4,4,14,10,09,329,23.8,05,06,196,21.1*7A

1612351980000,$GLGSV,3,1,9,76,69,005,41.3,66,61,211,39.0,67,45,314,40.1,77,41,261,26.8*53

1612351980000,$GLGSV,3,2,9,85,18,062,43.5,84,08,007,,86,07,108,25.1,65,06,169,34.8*40

1612351980000,$GLGSV,3,3,9,68,01,337,*64

1612351980000,$BDGSV,3,1,9,19,50,238,37.1,22,31,308,35.4,10,24,051,40.3,20,21,183,*48

1612351980000,$BDGSV,3,2,9,05,19,125,32.9,28,18,070,38.3,27,13,121,42.2,07,03,045,14.2*5C

1612351980000,$BDGSV,3,3,9,02,03,104,*65

1612351980000,$GAGSV,2,1,7,09,72,237,27.4,01,35,053,33.7,24,35,233,,05,33,310,*54

1612351980000,$GAGSV,2,2,7,04,32,158,,13,03,023,,26,02,071,*66

1612351980000,$PMTKGEPH,32,1,1,1,1,1,1,1,1,1,1,1,1,1,1,1,1,1,1,1,1,1,1,1,1,1,1,1,1,1,1,1,1*35

1612351980000,$PMTKGALM,31,1,1,1,1,1,1,1,1,1,1,0,1,1,1,1,1,1,1,1,1,1,1,1,1,1,1,1,1,1,1,1,1*2A

1612351980000,$GNACCURACY,1.1,179.9,0.3,7.8*1E

1612351980000,$PMTKAGC,113300.000,5030,4916,5792,5677,0,0,0*6F

1612351980000,$PMTKAG2,113300.000,6,0115,0,0,0,0,0,0,0,0,0,0,0,0*37

1612351981000,$GNGGA,113301.000,4540.3672,N,01156.0237,E,1,29,0.47,59.8,M,47.1,M,,*4D

1612351981000,$GPGSA,A,3,15,13,28,24,14,17,23,12,30,19,20,10,0.76,0.47,0.60*05

1612351981000,$GLGSA,A,3,76,66,67,77,85,86,65,,,,,,0.76,0.47,0.60*1A

1612351981000,$BDGSA,A,3,27,28,22,05,10,20,19,,,,,,0.76,0.47,0.60*16

1612351981000,$GAGSA,A,3,01,09,,,,,,,,,,,0.76,0.47,0.60*1F

1612351981000,$GPGSV,4,1,14,15,69,269,44.6,13,64,142,41.6,28,43,053,39.2,24,43,285,35.0*76

1612351981000,$GPGSV,4,2,14,14,35,052,38.7,17,33,104,42.6,36,33,153,33.0,23,25,301,37.3*70

1612351981000,$GPGSV,4,3,14,19,24,131,46.1,20,21,297,33.6,12,13,218,27.8,30,12,086,21.9*7D

1612351981000,$GPGSV,4,4,14,10,09,329,20.7,05,06,196,23.8*7D

1612351981000,$GLGSV,3,1,9,76,69,005,38.8,66,61,211,39.0,67,45,314,40.2,77,41,261,26.7*5A

1612351981000,$GLGSV,3,2,9,85,18,062,43.5,84,08,007,,86,07,108,24.9,65,06,169,35.0*40

1612351981000,$GLGSV,3,3,9,68,01,337,*64

1612351981000,$BDGSV,3,1,9,19,50,238,37.1,22,31,308,35.4,10,24,051,40.3,20,21,183,17.7*57

1612351981000,$BDGSV,3,2,9,05,19,125,32.9,28,18,070,38.4,27,13,121,42.4,07,03,045,14.2*5D

1612351981000,$BDGSV,3,3,9,02,03,104,*65

1612351981000,$GAGSV,2,1,7,09,72,237,24.5,01,35,053,33.7,24,35,233,,05,33,310,*56

1612351981000,$GAGSV,2,2,7,04,32,158,,13,03,023,,26,02,071,*66

1612351981000,$GNRMC,113301.000,A,4540.3672,N,01156.0237,E,0.000,274.99,030221,,,A*42

1612351981000,$PMTKAG2,113301.000,6,0115,0,0,0,0,0,0,0,0,0,0,0,0*36

1612351982000,$GNGGA,113302.000,4540.3672,N,01156.0237,E,1,29,0.47,59.8,M,47.1,M,,*4E

1612351982000,$GPGSA,A,3,15,13,28,24,14,17,23,12,30,19,20,10,0.76,0.47,0.60*05

1612351982000,$GLGSA,A,3,76,66,67,77,85,86,65,,,,,,0.76,0.47,0.60*1A

1612351982000,$BDGSA,A,3,27,28,22,05,10,20,19,,,,,,0.76,0.47,0.60*16

1612351982000,$GAGSA,A,3,01,09,,,,,,,,,,,0.76,0.47,0.60*1F

1612351982000,$GPGSV,4,1,14,15,69,269,44.6,13,64,142,41.6,28,43,053,39.2,24,43,285,35.1*77

1612351982000,$GPGSV,4,2,14,14,35,052,38.9,17,33,104,42.6,36,33,153,33.0,23,25,301,37.7*7A

1612351982000,$GPGSV,4,3,14,19,24,131,46.1,20,21,297,33.6,12,13,218,27.8,30,12,086,13.7*72

1612351982000,$GPGSV,4,4,14,10,09,329,19.2,05,06,196,23.5*7F

1612351982000,$GLGSV,3,1,9,76,69,005,38.9,66,61,211,38.9,67,45,314,40.2,77,41,261,26.8*5C

1612351982000,$GLGSV,3,2,9,85,18,062,43.6,84,08,007,,86,07,108,24.7,65,06,169,35.1*4C

1612351982000,$GLGSV,3,3,9,68,01,337,*64

1612351982000,$BDGSV,3,1,9,19,50,238,37.0,22,31,308,35.3,10,24,051,40.3,20,21,183,17.2*54

1612351982000,$BDGSV,3,2,9,05,19,125,32.9,28,18,070,38.5,27,13,121,42.4,07,03,045,13.9*50

1612351982000,$BDGSV,3,3,9,02,03,104,*65

1612351982000,$GAGSV,2,1,7,09,72,237,24.2,01,35,053,33.7,24,35,233,,05,33,310,*51

1612351982000,$GAGSV,2,2,7,04,32,158,,13,03,023,,26,02,071,*66

1612351982000,$GNRMC,113302.000,A,4540.3672,N,01156.0237,E,0.000,274.99,030221,,,A*41

1612351982000,$GNVTG,274.99,T,,M,0.000,N,0.000,K,A*22

1612351982000,$PMTKTSX1,63758,19078.758,21.007,20.627,8d580000,1.810302,1.907876,-0.319167,-0.207520,0.510459,1.906*3C

1612351982000,$PMTKAG2,113302.000,6,0115,0,0,0,0,0,0,0,0,0,0,0,0*35

1612351983000,$GNGGA,113303.000,4540.3672,N,01156.0237,E,1,29,0.47,59.8,M,47.1,M,,*4F

1612351983000,$GPGSA,A,3,15,13,28,24,14,17,23,12,30,19,20,10,0.76,0.47,0.60*05

1612351983000,$GLGSA,A,3,76,66,67,77,85,86,65,,,,,,0.76,0.47,0.60*1A

1612351983000,$BDGSA,A,3,27,28,22,05,10,20,19,,,,,,0.76,0.47,0.60*16

1612351983000,$GAGSA,A,3,01,09,,,,,,,,,,,0.76,0.47,0.60*1F

1612351983000,$GPGSV,4,1,14,15,69,269,44.6,13,64,142,41.6,28,43,053,39.2,24,43,285,35.2*74

1612351983000,$GPGSV,4,2,14,14,35,052,39.0,17,33,104,42.6,36,33,153,33.0,23,25,301,37.5*70

1612351983000,$GPGSV,4,3,14,19,24,131,46.2,20,21,297,33.6,12,13,218,27.5,30,12,086,13.7*7C

1612351983000,$GPGSV,4,4,14,10,09,329,18.3,05,06,196,23.9*73

1612351983000,$GLGSV,3,1,9,76,69,005,39.5,66,61,211,38.4,67,45,314,40.3,77,41,261,26.9*5C

1612351983000,$GLGSV,3,2,9,85,18,062,43.7,84,08,007,,86,07,108,24.4,65,06,169,35.2*4D

1612351983000,$GLGSV,3,3,9,68,01,337,*64

