# 2021 02 24 11:46:19
#
# Version: 10 Manufacturer: samsung Make: SM-A515F
#
1614163580000,$PSAMCLK,2146,29799800,24,9749315,742591,297998000*44

1614163580000,$GPGGA,104620.000,4540.3674,N,01156.0161,E,1,24,0.4,40.5,M,47.1,M,,*6A

1614163580000,$PSAMSA,104620.000,4540.3674,N,01156.0161,E,1,M,,*6F

1614163580000,$GPGLL,4540.3674,N,01156.0161,E,104620.000,A,A*5E

1614163580000,$GPVTG,222.9,T,,M,0.0,N,0.0,K,A*06

1614163580000,$GPGSV,3,1,11,10,15,314,32,12,30,225,39,13,44,150,38,14,19,052,24*77

1614163580000,$GPGSV,3,2,11,15,65,214,44,17,39,080,35,19,38,114,33,20,18,279,39*70

1614163580000,$GPGSV,3,3,11,23,23,281,35,24,60,298,43,28,27,050,31*48

1614163580000,$GLGSV,2,1,06,65,23,327,31,71,39,201,35,72,55,282,39,73,54,037,42*6F

1614163580000,$GLGSV,2,2,06,74,56,289,41,75,08,258,37*64

1614163580000,$GAGSV,2,1,05,101,26,242,34,104,25,313,33,115,09,077,39,119,64,241,28*6A

1614163580000,$GAGSV,2,2,05,127,44,055,32*68

1614163580000,$BDGSV,2,1,06,219,37,222,41,222,36,291,34,227,24,109,31,230,06,157,38*6A

1614163580000,$BDGSV,2,2,06,236,45,273,38,237,22,075,32*60

1614163580000,$GPGSA,A,3,15,24,13,17,19,12,14,20,10,,,,1.0,0.4,0.8*34

1614163580000,$GNGSA,A,3,65,71,72,73,74,,,,,,,,1.0,0.4,0.8*26

1614163580000,$GAGSA,A,3,101,104,115,119,127,,,,,,,,1.0,0.4,0.8*13

1614163580000,$BDGSA,A,3,219,222,227,230,236,,,,,,,,1.0,0.4,0.8*17

1614163580000,$GPRMC,104620.000,A,4540.3674,N,01156.0161,E,0.0,222.9,240221,,,A*65

1614163580000,$PSAMCLK,2146,29799800,24,9749315,742591,297998000*44

1614163581000,$PSAMCLK,2146,29799900,24,9749333,804475,297999000*46

1614163581000,$GPGGA,104621.000,4540.3673,N,01156.0171,E,1,24,0.4,40.5,M,47.1,M,,*6D

1614163581000,$PSAMSA,104621.000,4540.3673,N,01156.0171,E,0,M,,*69

1614163581000,$GPGLL,4540.3673,N,01156.0171,E,104621.000,A,A*59

1614163581000,$GPVTG,21.0,T,,M,1.2,N,2.3,K,A*3C

1614163581000,$GPGSV,3,1,11,10,15,314,32,12,30,225,40,13,44,150,38,14,19,052,24*79

1614163581000,$GPGSV,3,2,11,15,65,214,44,17,39,080,35,19,38,114,33,20,18,279,39*70

1614163581000,$GPGSV,3,3,11,23,23,281,36,24,60,298,43,28,27,050,31*4B

1614163581000,$GLGSV,2,1,06,65,24,327,31,71,39,201,36,72,55,282,39,73,54,037,41*68

1614163581000,$GLGSV,2,2,06,74,56,289,41,75,08,258,37*64

1614163581000,$GAGSV,2,1,05,101,26,242,42,104,25,313,33,115,09,077,38,119,64,241,29*6B

1614163581000,$GAGSV,2,2,05,127,44,055,31*6B

1614163581000,$BDGSV,2,1,06,219,37,222,42,222,36,291,34,227,24,109,36,230,06,157,37*61

1614163581000,$BDGSV,2,2,06,236,45,273,43,237,22,075,33*6D

1614163581000,$GPGSA,A,3,15,24,13,17,19,12,14,20,10,,,,1.0,0.4,0.8*34

1614163581000,$GNGSA,A,3,65,71,72,73,74,,,,,,,,1.0,0.4,0.8*26

1614163581000,$GAGSA,A,3,101,104,115,119,127,,,,,,,,1.0,0.4,0.8*13

1614163581000,$BDGSA,A,3,219,222,227,230,236,,,,,,,,1.0,0.4,0.8*17

1614163581000,$GPRMC,104621.000,A,4540.3673,N,01156.0171,E,1.2,21.0,240221,,,A*59

1614163581000,$PSAMCLK,2146,29799900,24,9749333,804475,297999000*46

1614163582000,$PSAMCLK,2146,29800000,23,9749331,866357,298000000*40

1614163582000,$GPGGA,104622.000,4540.3673,N,01156.0179,E,1,23,0.4,41.1,M,47.1,M,,*64

1614163582000,$PSAMSA,104622.000,4540.3673,N,01156.0179,E,0,M,,*62

1614163582000,$GPGLL,4540.3673,N,01156.0179,E,104622.000,A,A*52

1614163582000,$GPVTG,22.7,T,,M,0.4,N,0.8,K,A*36

1614163582000,$GPGSV,3,1,11,10,15,314,32,12,30,225,40,13,44,150,38,14,19,052,24*79

1614163582000,$GPGSV,3,2,11,15,65,214,44,17,39,080,36,19,38,114,40,20,18,279,38*76

1614163582000,$GPGSV,3,3,11,23,23,281,36,24,60,298,43,28,27,050,31*4B

1614163582000,$GLGSV,2,1,06,65,24,327,31,71,39,201,36,72,55,282,39,73,54,037,41*68

1614163582000,$GLGSV,2,2,06,74,56,289,41,75,08,258,37*64

1614163582000,$GAGSV,2,1,05,101,26,242,42,104,25,313,32,115,09,077,38,119,64,241,29*6A

1614163582000,$GAGSV,2,2,05,127,44,055,31*6B

1614163582000,$BDGSV,2,1,06,219,37,222,43,222,36,291,34,227,24,109,38,230,06,157,37*6E

1614163582000,$BDGSV,2,2,06,236,45,273,44,237,22,075,33*6A

1614163582000,$GPGSA,A,3,15,24,13,17,19,12,14,20,10,,,,1.0,0.4,0.8*34

1614163582000,$GNGSA,A,3,65,71,72,73,74,,,,,,,,1.0,0.4,0.8*26

1614163582000,$GAGSA,A,3,101,115,119,127,,,,,,,,,1.0,0.4,0.8*26

1614163582000,$BDGSA,A,3,219,222,227,230,236,,,,,,,,1.0,0.4,0.8*17

1614163582000,$GPRMC,104622.000,A,4540.3673,N,01156.0179,E,0.4,22.7,240221,,,A*51

1614163582000,$PSAMCLK,2146,29800000,23,9749331,866357,298000000*40

1614163583000,$PSAMCLK,2146,29800100,23,9749106,928240,298001000*4A

1614163583000,$GPGGA,104623.000,4540.3673,N,01156.0179,E,1,23,0.4,40.9,M,47.1,M,,*6C

1614163583000,$PSAMSA,104623.000,4540.3673,N,01156.0179,E,1,M,,*62

1614163583000,$GPGLL,4540.3673,N,01156.0179,E,104623.000,A,A*53

1614163583000,$GPVTG,22.9,T,,M,0.0,N,0.0,K,A*34

1614163583000,$GPGSV,3,1,11,10,15,314,31,12,30,225,40,13,44,150,38,14,19,052,24*7A

1614163583000,$GPGSV,3,2,11,15,65,214,43,17,39,080,36,19,38,114,39,20,18,279,38*7F

1614163583000,$GPGSV,3,3,11,23,23,281,36,24,60,298,42,28,27,050,31*4A

1614163583000,$GLGSV,2,1,06,65,24,327,31,71,39,201,36,72,55,282,39,73,54,037,40*69

1614163583000,$GLGSV,2,2,06,74,56,289,41,75,08,258,35*66

1614163583000,$GAGSV,2,1,05,101,26,242,42,104,25,313,32,115,09,077,36,119,64,241,29*64

1614163583000,$GAGSV,2,2,05,127,44,055,31*6B

1614163583000,$BDGSV,2,1,06,219,37,222,43,222,36,291,34,227,24,109,38,230,06,157,37*6E

1614163583000,$BDGSV,2,2,06,236,45,273,44,237,22,075,33*6A

1614163583000,$GPGSA,A,3,15,24,13,17,19,12,14,20,10,,,,1.0,0.4,0.8*34

1614163583000,$GNGSA,A,3,65,71,72,73,74,,,,,,,,1.0,0.4,0.8*26

1614163583000,$GAGSA,A,3,101,104,119,127,,,,,,,,,1.0,0.4,0.8*26

1614163583000,$BDGSA,A,3,219,222,227,230,236,,,,,,,,1.0,0.4,0.8*17

1614163583000,$GPRMC,104623.000,A,4540.3673,N,01156.0179,E,0.0,22.9,240221,,,A*5A

1614163583000,$PSAMCLK,2146,29800100,23,9749106,928240,298001000*4A

1614163584000,$PSAMCLK,2146,29800200,24,9749092,990121,298002000*46

1614163584000,$GPGGA,104624.000,4540.3674,N,01156.0181,E,1,24,0.4,41.6,M,47.1,M,,*62

1614163584000,$PSAMSA,104624.000,4540.3674,N,01156.0181,E,0,M,,*64

1614163584000,$GPGLL,4540.3674,N,01156.0181,E,104624.000,A,A*54

1614163584000,$GPVTG,23.1,T,,M,0.0,N,0.0,K,A*3D

1614163584000,$GPGSV,3,1,11,10,15,314,31,12,30,225,40,13,44,150,38,14,19,052,24*7A

1614163584000,$GPGSV,3,2,11,15,65,214,42,17,39,080,36,19,38,114,39,20,18,279,37*71

1614163584000,$GPGSV,3,3,11,23,23,281,36,24,60,298,42,28,27,050,30*4B

1614163584000,$GLGSV,2,1,06,65,24,327,30,71,39,201,35,72,55,282,39,73,54,037,39*65

1614163584000,$GLGSV,2,2,06,74,56,289,40,75,08,258,34*66

1614163584000,$GAGSV,2,1,05,101,26,242,41,104,25,313,31,115,09,077,35,119,64,241,28*66

1614163584000,$GAGSV,2,2,05,127,44,055,31*6B

1614163584000,$BDGSV,2,1,06,219,37,222,43,222,36,291,34,227,24,109,38,230,06,157,36*6F

1614163584000,$BDGSV,2,2,06,236,45,273,43,237,22,075,33*6D

1614163584000,$GPGSA,A,3,15,24,13,17,19,12,23,14,20,10,,,1.0,0.4,0.8*35

1614163584000,$GNGSA,A,3,65,71,72,73,74,,,,,,,,1.0,0.4,0.8*26

1614163584000,$GAGSA,A,3,101,104,119,127,,,,,,,,,1.0,0.4,0.8*26

1614163584000,$BDGSA,A,3,219,222,227,230,236,,,,,,,,1.0,0.4,0.8*17

1614163584000,$GPRMC,104624.000,A,4540.3674,N,01156.0181,E,0.0,23.1,240221,,,A*54

1614163584000,$PSAMCLK,2146,29800200,24,9749092,990121,298002000*46

1614163585000,$PSAMCLK,2146,29800300,23,9749044,1052004,298003000*7A

1614163585000,$GPGGA,104625.000,4540.3674,N,01156.0181,E,1,23,0.4,41.7,M,47.1,M,,*65

1614163585000,$PSAMSA,104625.000,4540.3674,N,01156.0181,E,1,M,,*64

1614163585000,$GPGLL,4540.3674,N,01156.0181,E,104625.000,A,A*55

1614163585000,$GPVTG,23.0,T,,M,0.0,N,0.0,K,A*3C

1614163585000,$GPGSV,3,1,11,10,15,314,31,12,30,225,40,13,44,150,38,14,19,052,24*7A

1614163585000,$GPGSV,3,2,11,15,65,214,42,17,39,080,36,19,38,114,39,20,18,279,36*70

1614163585000,$GPGSV,3,3,11,23,23,281,36,24,60,298,42,28,27,050,29*43

1614163585000,$GLGSV,2,1,07,65,24,327,29,71,39,201,34,72,55,282,38,73,54,037,38*6D

1614163585000,$GLGSV,2,2,07,74,56,289,39,75,08,258,33,82,19,034,29*50

1614163585000,$GAGSV,2,1,05,101,26,242,41,104,25,313,30,115,09,077,33,119,64,241,28*61

1614163585000,$GAGSV,2,2,05,127,44,055,31*6B

1614163585000,$BDGSV,2,1,06,219,37,222,43,222,36,291,34,227,24,109,37,230,06,157,36*60

1614163585000,$BDGSV,2,2,06,236,45,273,43,237,22,075,32*6C

1614163585000,$GPGSA,A,3,15,24,13,17,19,12,14,20,10,,,,1.0,0.4,0.8*34

1614163585000,$GNGSA,A,3,71,72,73,74,,,,,,,,,1.0,0.4,0.8*25

1614163585000,$GAGSA,A,3,101,104,115,119,127,,,,,,,,1.0,0.4,0.8*13

1614163585000,$BDGSA,A,3,219,222,227,230,236,,,,,,,,1.0,0.4,0.8*17

1614163585000,$GPRMC,104625.000,A,4540.3674,N,01156.0181,E,0.0,23.0,240221,,,A*54

1614163585000,$PSAMCLK,2146,29800300,23,9749044,1052004,298003000*7A

1614163586000,$PSAMCLK,2146,29800400,22,9748993,1113885,298004000*7C

1614163586000,$GPGGA,104626.000,4540.3674,N,01156.0181,E,1,22,0.4,41.7,M,47.1,M,,*67

1614163586000,$PSAMSA,104626.000,4540.3674,N,01156.0181,E,1,M,,*67

1614163586000,$GPGLL,4540.3674,N,01156.0181,E,104626.000,A,A*56

1614163586000,$GPVTG,23.0,T,,M,0.0,N,0.0,K,A*3C

1614163586000,$GPGSV,3,1,11,10,15,314,30,12,30,225,40,13,44,150,38,14,19,052,24*7B

1614163586000,$GPGSV,3,2,11,15,65,214,41,17,39,080,36,19,38,114,39,20,18,279,36*73

1614163586000,$GPGSV,3,3,11,23,23,281,36,24,60,298,41,28,27,050,27*4E

1614163586000,$GLGSV,2,1,07,65,24,327,29,71,39,201,33,72,55,282,38,73,54,037,37*65

1614163586000,$GLGSV,2,2,07,74,56,289,39,75,08,258,32,82,19,034,29*51

1614163586000,$GAGSV,2,1,05,101,26,242,41,104,25,313,30,115,09,077,32,119,64,241,28*60

1614163586000,$GAGSV,2,2,05,127,44,055,31*6B

1614163586000,$BDGSV,2,1,06,219,37,222,43,222,36,291,34,227,24,109,37,230,06,157,36*60

1614163586000,$BDGSV,2,2,06,236,45,273,42,237,22,075,32*6D

1614163586000,$GPGSA,A,3,15,24,13,17,19,12,14,20,10,,,,1.0,0.4,0.8*34

1614163586000,$GNGSA,A,3,71,72,73,74,,,,,,,,,1.0,0.4,0.8*25

1614163586000,$GAGSA,A,3,101,115,119,127,,,,,,,,,1.0,0.4,0.8*26

1614163586000,$BDGSA,A,3,219,222,227,230,236,,,,,,,,1.0,0.4,0.8*17

1614163586000,$GPRMC,104626.000,A,4540.3674,N,01156.0181,E,0.0,23.0,240221,,,A*57

1614163586000,$PSAMCLK,2146,29800400,22,9748993,1113885,298004000*7C

1614163587000,$PSAMCLK,2146,29800500,22,9748944,1175766,298005000*74

1614163587000,$GPGGA,104627.000,4540.3674,N,01156.0181,E,1,22,0.4,41.7,M,47.1,M,,*66

1614163587000,$PSAMSA,104627.000,4540.3674,N,01156.0181,E,1,M,,*66

1614163587000,$GPGLL,4540.3674,N,01156.0181,E,104627.000,A,A*57

1614163587000,$GPVTG,23.0,T,,M,0.0,N,0.0,K,A*3C

1614163587000,$GPGSV,3,1,11,10,15,314,30,12,30,225,40,13,44,150,39,14,19,052,24*7A

1614163587000,$GPGSV,3,2,11,15,65,214,41,17,39,080,36,19,38,114,39,20,18,279,35*70

1614163587000,$GPGSV,3,3,11,23,23,281,35,24,60,298,40,28,27,050,26*4D

1614163587000,$GLGSV,2,1,07,65,24,327,29,71,39,201,32,72,55,282,37,73,54,037,36*6A

1614163587000,$GLGSV,2,2,07,74,56,289,38,75,08,258,31,82,19,034,28*52

1614163587000,$GAGSV,2,1,05,101,26,242,41,104,25,313,29,115,09,077,31,119,64,241,28*6B

1614163587000,$GAGSV,2,2,05,127,44,055,31*6B

1614163587000,$BDGSV,2,1,06,219,37,222,43,222,36,291,33,227,24,109,36,230,06,157,36*66

1614163587000,$BDGSV,2,2,06,236,45,273,41,237,22,075,31*6D

1614163587000,$GPGSA,A,3,15,24,13,17,19,12,14,20,,,,,1.0,0.4,0.8*35

1614163587000,$GNGSA,A,3,65,71,72,73,74,,,,,,,,1.0,0.4,0.8*26

1614163587000,$GAGSA,A,3,101,115,119,127,,,,,,,,,1.0,0.4,0.8*26

1614163587000,$BDGSA,A,3,219,222,227,230,236,,,,,,,,1.0,0.4,0.8*17

1614163587000,$GPRMC,104627.000,A,4540.3674,N,01156.0181,E,0.0,23.0,240221,,,A*56

1614163587000,$PSAMCLK,2146,29800500,22,9748944,1175766,298005000*74

1614163588000,$PSAMCLK,2146,29800600,24,9748886,1237648,298006000*75

1614163588000,$GPGGA,104628.000,4540.3674,N,01156.0181,E,1,24,0.4,41.7,M,47.1,M,,*6F

1614163588000,$PSAMSA,104628.000,4540.3674,N,01156.0181,E,1,M,,*69

1614163588000,$GPGLL,4540.3674,N,01156.0181,E,104628.000,A,A*58

1614163588000,$GPVTG,23.0,T,,M,0.0,N,0.0,K,A*3C

1614163588000,$GPGSV,3,1,11,10,15,314,30,12,30,225,40,13,44,150,39,14,19,052,24*7A

1614163588000,$GPGSV,3,2,11,15,65,214,41,17,39,080,36,19,38,114,38,20,18,279,34*70

1614163588000,$GPGSV,3,3,11,23,23,281,35,24,60,298,40,28,27,050,24*4F

1614163588000,$GLGSV,2,1,07,65,24,327,28,71,39,201,32,72,55,282,37,73,54,037,36*6B

1614163588000,$GLGSV,2,2,07,74,56,289,38,75,08,258,30,82,19,034,28*53

1614163588000,$GAGSV,2,1,05,101,26,242,40,104,25,313,28,115,09,077,30,119,64,241,28*6A

1614163588000,$GAGSV,2,2,05,127,44,055,31*6B

1614163588000,$BDGSV,2,1,06,219,37,222,43,222,36,291,33,227,24,109,36,230,06,157,36*66

1614163588000,$BDGSV,2,2,06,236,45,273,41,237,22,075,31*6D

1614163588000,$GPGSA,A,3,15,24,13,17,19,12,14,20,10,,,,1.0,0.4,0.8*34

1614163588000,$GNGSA,A,3,65,71,72,73,74,82,,,,,,,1.0,0.4,0.8*2C

1614163588000,$GAGSA,A,3,101,115,119,127,,,,,,,,,1.0,0.4,0.8*26

1614163588000,$BDGSA,A,3,219,222,227,230,236,,,,,,,,1.0,0.4,0.8*17

1614163588000,$GPRMC,104628.000,A,4540.3674,N,01156.0181,E,0.0,23.0,240221,,,A*59

1614163588000,$PSAMCLK,2146,29800600,24,9748886,1237648,298006000*75

1614163589000,$PSAMCLK,2146,29800700,22,9748840,1299528,298007000*78

1614163589000,$GPGGA,104629.000,4540.3674,N,01156.0181,E,1,22,0.4,41.7,M,47.1,M,,*68

1614163589000,$PSAMSA,104629.000,4540.3674,N,01156.0181,E,1,M,,*68

1614163589000,$GPGLL,4540.3674,N,01156.0181,E,104629.000,A,A*59

1614163589000,$GPVTG,23.0,T,,M,0.0,N,0.0,K,A*3C

1614163589000,$GPGSV,3,1,11,10,15,314,29,12,30,225,40,13,44,150,40,14,19,052,24*7C

1614163589000,$GPGSV,3,2,11,15,65,214,41,17,39,080,36,19,38,114,38,20,18,279,34*70

1614163589000,$GPGSV,3,3,11,23,23,281,35,24,60,298,39,28,27,050,23*46

1614163589000,$GLGSV,2,1,07,65,24,327,28,71,39,201,31,72,55,282,37,73,54,037,35*6B

1614163589000,$GLGSV,2,2,07,74,56,289,37,75,08,258,29,82,19,034,26*5A

1614163589000,$GAGSV,2,1,05,101,26,242,40,104,25,313,28,115,09,077,29,119,64,241,27*6D

1614163589000,$GAGSV,2,2,05,127,44,055,30*6A

1614163589000,$BDGSV,2,1,06,219,37,222,43,222,36,291,32,227,24,109,35,230,06,157,35*67

1614163589000,$BDGSV,2,2,06,236,45,273,40,237,22,075,30*6D

1614163589000,$GPGSA,A,3,15,24,13,17,19,12,14,20,10,,,,1.0,0.4,0.8*34

1614163589000,$GNGSA,A,3,71,72,73,74,,,,,,,,,1.0,0.4,0.8*25

1614163589000,$GAGSA,A,3,101,115,119,127,,,,,,,,,1.0,0.4,0.8*26

1614163589000,$BDGSA,A,3,219,222,227,230,236,,,,,,,,1.0,0.4,0.8*17

1614163589000,$GPRMC,104629.000,A,4540.3674,N,01156.0181,E,0.0,23.0,240221,,,A*58

1614163589000,$PSAMCLK,2146,29800700,22,9748840,1299528,298007000*78

1614163590000,$PSAMCLK,2146,29800800,24,9748794,1361408,298008000*7D

1614163590000,$GPGGA,104630.000,4540.3674,N,01156.0181,E,1,24,0.4,41.7,M,47.1,M,,*66

1614163590000,$PSAMSA,104630.000,4540.3674,N,01156.0181,E,1,M,,*60

1614163590000,$GPGLL,4540.3674,N,01156.0181,E,104630.000,A,A*51

1614163590000,$GPVTG,23.0,T,,M,0.0,N,0.0,K,A*3C

1614163590000,$GPGSV,3,1,11,10,15,314,28,12,30,225,40,13,44,150,40,14,19,052,24*7D

1614163590000,$GPGSV,3,2,11,15,65,214,41,17,39,080,36,19,38,114,38,20,18,279,33*77

1614163590000,$GPGSV,3,3,11,23,23,281,35,24,60,298,39,28,27,050,21*44

1614163590000,$GLGSV,2,1,07,65,24,327,27,71,39,201,31,72,55,282,36,73,54,037,34*64

1614163590000,$GLGSV,2,2,07,74,56,289,37,75,08,258,28,82,19,034,25*58

1614163590000,$GAGSV,2,1,05,101,26,242,39,104,25,313,27,115,09,077,28,119,64,241,27*6D

1614163590000,$GAGSV,2,2,05,127,44,055,30*6A

1614163590000,$BDGSV,2,1,06,219,37,222,43,222,36,291,32,227,24,109,35,230,06,157,35*67

1614163590000,$BDGSV,2,2,06,236,45,273,40,237,22,075,30*6D

1614163590000,$GPGSA,A,3,15,24,13,17,19,12,14,20,10,,,,1.0,0.4,0.8*34

1614163590000,$GNGSA,A,3,65,71,72,73,74,,,,,,,,1.0,0.4,0.8*26

1614163590000,$GAGSA,A,3,101,104,115,119,127,,,,,,,,1.0,0.4,0.8*13

1614163590000,$BDGSA,A,3,219,222,227,230,236,,,,,,,,1.0,0.4,0.8*17

1614163590000,$GPRMC,104630.000,A,4540.3674,N,01156.0181,E,0.0,23.0,240221,,,A*50

1614163590000,$PSAMCLK,2146,29800800,24,9748794,1361408,298008000*7D

1614163591000,$PSAMCLK,2146,29800900,22,9748742,1423288,298009000*7F

1614163591000,$GPGGA,104631.000,4540.3674,N,01156.0181,E,1,22,0.4,41.7,M,47.1,M,,*61

1614163591000,$PSAMSA,104631.000,4540.3674,N,01156.0181,E,1,M,,*61

1614163591000,$GPGLL,4540.3674,N,01156.0181,E,104631.000,A,A*50

1614163591000,$GPVTG,23.0,T,,M,0.0,N,0.0,K,A*3C

1614163591000,$GPGSV,3,1,11,10,15,314,28,12,30,225,39,13,44,150,40,14,19,052,24*73

1614163591000,$GPGSV,3,2,11,15,65,214,40,17,39,080,36,19,38,114,38,20,18,279,33*76

1614163591000,$GPGSV,3,3,11,23,23,281,35,24,60,298,39,28,27,050,20*45

1614163591000,$GLGSV,2,1,07,65,24,327,27,71,39,201,31,72,55,282,36,73,54,037,34*64

1614163591000,$GLGSV,2,2,07,74,56,289,36,75,08,258,28,82,19,034,23*5F

1614163591000,$GAGSV,2,1,05,101,26,242,39,104,25,313,27,115,09,077,27,119,64,241,26*63

1614163591000,$GAGSV,2,2,05,127,44,055,30*6A

1614163591000,$BDGSV,2,1,06,219,37,222,43,222,36,291,31,227,24,109,34,230,06,157,35*65

1614163591000,$BDGSV,2,2,06,236,45,273,39,237,22,075,29*6B

1614163591000,$GPGSA,A,3,15,24,13,17,19,12,14,20,10,,,,1.0,0.4,0.8*34

1614163591000,$GNGSA,A,3,71,72,73,74,,,,,,,,,1.0,0.4,0.8*25

1614163591000,$GAGSA,A,3,101,104,119,127,,,,,,,,,1.0,0.4,0.8*26

1614163591000,$BDGSA,A,3,219,222,227,230,236,,,,,,,,1.0,0.4,0.8*17

1614163591000,$GPRMC,104631.000,A,4540.3674,N,01156.0181,E,0.0,23.0,240221,,,A*51

1614163591000,$PSAMCLK,2146,29800900,22,9748742,1423288,298009000*7F

1614163592000,$PSAMCLK,2146,29801000,23,9748711,1485167,298010000*76

1614163592000,$GPGGA,104632.000,4540.3674,N,01156.0181,E,1,23,0.4,41.7,M,47.1,M,,*63

1614163592000,$PSAMSA,104632.000,4540.3674,N,01156.0181,E,1,M,,*62

1614163592000,$GPGLL,4540.3674,N,01156.0181,E,104632.000,A,A*53

1614163592000,$GPVTG,23.0,T,,M,0.0,N,0.0,K,A*3C

1614163592000,$GPGSV,3,1,11,10,15,314,27,12,30,225,39,13,44,150,40,14,19,052,24*7C

1614163592000,$GPGSV,3,2,11,15,65,214,40,17,39,080,35,19,38,114,38,20,18,279,32*74

1614163592000,$GPGSV,3,3,11,23,23,281,35,24,60,298,38,28,27,050,18*4F

1614163592000,$GLGSV,2,1,07,65,24,327,27,71,39,201,30,72,55,282,36,73,54,037,33*62

1614163592000,$GLGSV,2,2,07,74,56,289,36,75,08,258,27,82,19,034,22*51

1614163592000,$GAGSV,2,1,05,101,26,242,38,104,25,313,27,115,09,077,26,119,64,241,26*63

1614163592000,$GAGSV,2,2,05,127,44,055,30*6A

1614163592000,$BDGSV,2,1,07,219,37,222,43,222,36,291,31,227,24,109,34,228,20,054,21*6E

1614163592000,$BDGSV,2,2,07,230,06,157,35,236,45,273,39,237,22,075,29*68

1614163592000,$GPGSA,A,3,15,24,13,17,19,12,14,20,10,,,,1.0,0.4,0.8*34

1614163592000,$GNGSA,A,3,65,71,72,73,74,,,,,,,,1.0,0.4,0.8*26

1614163592000,$GAGSA,A,3,101,115,119,127,,,,,,,,,1.0,0.4,0.8*26

1614163592000,$BDGSA,A,3,219,222,227,230,236,,,,,,,,1.0,0.4,0.8*17

1614163592000,$GPRMC,104632.000,A,4540.3674,N,01156.0181,E,0.0,23.0,240221,,,A*52

1614163592000,$PSAMCLK,2146,29801000,23,9748711,1485167,298010000*76

1614163593000,$PSAMCLK,2146,29801100,24,9748672,1547047,298011000*79

1614163593000,$GPGGA,104633.000,4540.3674,N,01156.0181,E,1,24,0.4,41.7,M,47.1,M,,*65

1614163593000,$PSAMSA,104633.000,4540.3674,N,01156.0181,E,1,M,,*63

1614163593000,$GPGLL,4540.3674,N,01156.0181,E,104633.000,A,A*52

1614163593000,$GPVTG,23.0,T,,M,0.0,N,0.0,K,A*3C

1614163593000,$GPGSV,3,1,11,10,15,314,27,12,30,225,39,13,44,150,40,14,19,052,24*7C

1614163593000,$GPGSV,3,2,11,15,65,214,40,17,39,080,35,19,38,114,38,20,18,279,32*74

1614163593000,$GPGSV,3,3,11,23,23,281,35,24,60,298,38,28,27,050,17*40

1614163593000,$GLGSV,2,1,07,65,24,327,26,71,39,201,30,72,55,282,35,73,54,037,33*60

1614163593000,$GLGSV,2,2,07,74,56,289,36,75,08,258,26,82,19,034,20*52

1614163593000,$GAGSV,2,1,05,101,26,242,38,104,25,313,26,115,09,077,26,119,64,241,26*62

1614163593000,$GAGSV,2,2,05,127,44,055,30*6A

1614163593000,$BDGSV,2,1,07,219,37,222,43,222,36,291,31,227,24,109,34,228,20,054,20*6F

1614163593000,$BDGSV,2,2,07,230,06,157,35,236,45,273,39,237,22,075,29*68

1614163593000,$GPGSA,A,3,15,24,13,17,19,12,14,20,10,,,,1.0,0.4,0.8*34

1614163593000,$GNGSA,A,3,65,71,72,73,74,,,,,,,,1.0,0.4,0.8*26

1614163593000,$GAGSA,A,3,101,104,115,119,127,,,,,,,,1.0,0.4,0.8*13

1614163593000,$BDGSA,A,3,219,222,227,230,236,,,,,,,,1.0,0.4,0.8*17

1614163593000,$GPRMC,104633.000,A,4540.3674,N,01156.0181,E,0.0,23.0,240221,,,A*53

1614163593000,$PSAMCLK,2146,29801100,24,9748672,1547047,298011000*79

1614163594000,$PSAMCLK,2146,29801200,22,9748637,1608926,298012000*78

1614163594000,$GPGGA,104634.000,4540.3674,N,01156.0181,E,1,22,0.6,41.7,M,47.1,M,,*66

1614163594000,$PSAMSA,104634.000,4540.3674,N,01156.0181,E,1,M,,*64

1614163594000,$GPGLL,4540.3674,N,01156.0181,E,104634.000,A,A*55

1614163594000,$GPVTG,23.0,T,,M,0.0,N,0.0,K,A*3C

1614163594000,$GPGSV,3,1,11,10,15,314,25,12,30,225,39,13,44,150,41,14,19,052,24*7F

1614163594000,$GPGSV,3,2,11,15,65,214,40,17,39,080,35,19,38,114,37,20,18,279,32*7B

1614163594000,$GPGSV,3,3,11,23,23,281,35,24,60,298,37,28,27,050,15*4D

1614163594000,$GLGSV,2,1,07,65,24,327,26,71,39,201,30,72,55,282,35,73,54,037,32*61

1614163594000,$GLGSV,2,2,07,74,56,289,35,75,08,258,26,82,19,034,19*5B

1614163594000,$GAGSV,2,1,05,101,26,242,38,104,25,313,26,115,09,077,25,119,64,241,26*61

1614163594000,$GAGSV,2,2,05,127,44,055,30*6A

1614163594000,$BDGSV,2,1,07,219,37,222,42,222,36,291,30,227,24,109,33,228,20,054,18*63

1614163594000,$BDGSV,2,2,07,230,06,157,35,236,45,273,38,237,22,075,28*68

1614163594000,$GPGSA,A,3,15,24,13,17,19,12,14,20,,,,,1.0,0.6,0.8*37

1614163594000,$GNGSA,A,3,71,72,73,74,,,,,,,,,1.0,0.6,0.8*27

1614163594000,$GAGSA,A,3,101,104,115,119,127,,,,,,,,1.0,0.6,0.8*11

1614163594000,$BDGSA,A,3,219,222,227,230,236,,,,,,,,1.0,0.6,0.8*15

1614163594000,$GPRMC,104634.000,A,4540.3674,N,01156.0181,E,0.0,23.0,240221,,,A*54

1614163594000,$PSAMCLK,2146,29801200,22,9748637,1608926,298012000*78

1614163595000,$PSAMCLK,2146,29801300,22,9748607,1670805,298013000*74

1614163595000,$GPGGA,104635.000,4540.3674,N,01156.0181,E,1,22,0.6,41.7,M,47.1,M,,*67

1614163595000,$PSAMSA,104635.000,4540.3674,N,01156.0181,E,1,M,,*65

1614163595000,$GPGLL,4540.3674,N,01156.0181,E,104635.000,A,A*54

1614163595000,$GPVTG,23.0,T,,M,0.0,N,0.0,K,A*3C

1614163595000,$GPGSV,3,1,11,10,15,314,24,12,30,225,39,13,44,150,41,14,19,052,24*7E

1614163595000,$GPGSV,3,2,11,15,65,214,40,17,39,080,35,19,38,114,37,20,18,279,31*78

1614163595000,$GPGSV,3,3,11,23,23,281,35,24,60,298,37,28,27,050,14*4C

1614163595000,$GLGSV,2,1,07,65,24,327,26,71,39,201,29,72,55,282,35,73,54,037,32*69

1614163595000,$GLGSV,2,2,07,74,56,289,35,75,08,258,25,82,19,034,17*56

1614163595000,$GAGSV,2,1,05,101,26,242,37,104,25,313,26,115,09,077,25,119,64,241,25*6D

1614163595000,$GAGSV,2,2,05,127,44,055,30*6A

1614163595000,$BDGSV,2,1,07,219,37,222,42,222,36,291,30,227,24,109,33,228,20,054,17*6C

1614163595000,$BDGSV,2,2,07,230,06,157,35,236,45,273,38,237,22,075,28*68

1614163595000,$GPGSA,A,3,15,24,13,17,19,12,23,14,20,,,,1.0,0.6,0.8*36

1614163595000,$GNGSA,A,3,71,72,73,74,,,,,,,,,1.0,0.6,0.8*27

1614163595000,$GAGSA,A,3,101,115,119,127,,,,,,,,,1.0,0.6,0.8*24

1614163595000,$BDGSA,A,3,219,222,227,230,236,,,,,,,,1.0,0.6,0.8*15

1614163595000,$GPRMC,104635.000,A,4540.3674,N,01156.0181,E,0.0,23.0,240221,,,A*55

1614163595000,$PSAMCLK,2146,29801300,22,9748607,1670805,298013000*74

1614163596000,$PSAMCLK,2146,29801400,24,9748573,1732685,298014000*73

1614163596000,$GPGGA,104636.000,4540.3674,N,01156.0181,E,1,24,0.4,41.7,M,47.1,M,,*60

1614163596000,$PSAMSA,104636.000,4540.3674,N,01156.0181,E,1,M,,*66

1614163596000,$GPGLL,4540.3674,N,01156.0181,E,104636.000,A,A*57

1614163596000,$GPVTG,23.0,T,,M,0.0,N,0.0,K,A*3C

1614163596000,$GPGSV,3,1,11,10,15,314,22,12,30,225,39,13,44,150,41,14,19,052,25*79

1614163596000,$GPGSV,3,2,11,15,65,214,40,17,39,080,35,19,38,114,37,20,18,279,31*78

1614163596000,$GPGSV,3,3,11,23,23,281,34,24,60,298,37,28,27,050,13*4A

1614163596000,$GLGSV,2,1,07,65,24,327,26,71,39,201,29,72,55,282,35,73,54,037,32*69

1614163596000,$GLGSV,2,2,07,74,56,289,35,75,08,258,25,82,19,034,16*57

1614163596000,$GAGSV,2,1,05,101,26,242,37,104,25,313,25,115,09,077,24,119,64,241,25*6F

1614163596000,$GAGSV,2,2,05,127,44,055,30*6A

1614163596000,$BDGSV,2,1,07,219,37,222,42,222,36,291,30,227,24,109,33,228,20,054,15*6E

1614163596000,$BDGSV,2,2,07,230,06,157,35,236,45,273,38,237,22,075,28*68

1614163596000,$GPGSA,A,3,15,24,13,17,19,12,23,14,20,,,,1.0,0.4,0.8*34

1614163596000,$GNGSA,A,3,65,71,72,73,74,,,,,,,,1.0,0.4,0.8*26

1614163596000,$GAGSA,A,3,101,104,115,119,127,,,,,,,,1.0,0.4,0.8*13

1614163596000,$BDGSA,A,3,219,222,227,230,236,,,,,,,,1.0,0.4,0.8*17

1614163596000,$GPRMC,104636.000,A,4540.3674,N,01156.0181,E,0.0,23.0,240221,,,A*56

1614163596000,$PSAMCLK,2146,29801400,24,9748573,1732685,298014000*73

1614163597000,$PSAMCLK,2146,29801500,24,9748534,1794564,298015000*70

1614163597000,$GPGGA,104637.000,4540.3674,N,01156.0181,E,1,24,0.4,41.7,M,47.1,M,,*61

1614163597000,$PSAMSA,104637.000,4540.3674,N,01156.0181,E,1,M,,*67

1614163597000,$GPGLL,4540.3674,N,01156.0181,E,104637.000,A,A*56

1614163597000,$GPVTG,23.0,T,,M,0.0,N,0.0,K,A*3C

1614163597000,$GPGSV,3,1,11,10,15,314,21,12,30,225,39,13,44,150,41,14,19,052,25*7A

1614163597000,$GPGSV,3,2,11,15,65,214,40,17,39,080,35,19,38,114,37,20,18,279,30*79

1614163597000,$GPGSV,3,3,11,23,23,281,34,24,60,298,37,28,27,050,12*4B

1614163597000,$GLGSV,2,1,07,65,24,327,26,71,39,201,29,72,55,282,34,73,54,037,31*6B

1614163597000,$GLGSV,2,2,07,74,56,289,34,75,08,258,24,82,19,034,14*55

1614163597000,$GAGSV,2,1,05,101,26,242,37,104,25,313,25,115,09,077,23,119,64,241,25*68

1614163597000,$GAGSV,2,2,05,127,44,055,30*6A

1614163597000,$BDGSV,2,1,07,219,37,222,42,222,36,291,30,227,24,109,32,228,20,054,14*6E

1614163597000,$BDGSV,2,2,07,230,06,157,35,236,45,273,37,237,22,075,27*68

1614163597000,$GPGSA,A,3,15,24,13,17,19,12,23,14,20,,,,1.0,0.4,0.8*34

1614163597000,$GNGSA,A,3,65,71,72,73,74,,,,,,,,1.0,0.4,0.8*26

1614163597000,$GAGSA,A,3,101,104,115,119,127,,,,,,,,1.0,0.4,0.8*13

1614163597000,$BDGSA,A,3,219,222,227,230,236,,,,,,,,1.0,0.4,0.8*17

1614163597000,$GPRMC,104637.000,A,4540.3674,N,01156.0181,E,0.0,23.0,240221,,,A*57

1614163597000,$PSAMCLK,2146,29801500,24,9748534,1794564,298015000*70

1614163598000,$PSAMCLK,2146,29801600,22,9748491,1856443,298016000*7D

1614163598000,$GPGGA,104638.000,4540.3674,N,01156.0181,E,1,22,0.6,41.7,M,47.1,M,,*6A

1614163598000,$PSAMSA,104638.000,4540.3674,N,01156.0181,E,1,M,,*68

1614163598000,$GPGLL,4540.3674,N,01156.0181,E,104638.000,A,A*59

1614163598000,$GPVTG,23.0,T,,M,0.0,N,0.0,K,A*3C

1614163598000,$GPGSV,3,1,10,10,15,314,19,12,30,225,39,13,44,150,41,14,19,052,24*71

1614163598000,$GPGSV,3,2,10,15,65,214,39,17,39,080,35,19,38,114,37,20,18,279,30*76

1614163598000,$GPGSV,3,3,10,23,23,281,34,24,60,298,36*72

1614163598000,$GLGSV,2,1,07,65,24,327,25,71,39,201,28,72,55,282,34,73,54,037,31*69

1614163598000,$GLGSV,2,2,07,74,56,289,34,75,08,258,24,82,19,034,14*55

1614163598000,$GAGSV,2,1,05,101,26,242,36,104,25,313,25,115,09,077,23,119,64,241,25*69

1614163598000,$GAGSV,2,2,05,127,44,055,30*6A

1614163598000,$BDGSV,2,1,07,219,37,222,42,222,36,291,29,227,24,109,32,228,20,054,13*61

1614163598000,$BDGSV,2,2,07,230,06,157,34,236,45,273,37,237,22,075,27*69

1614163598000,$GPGSA,A,3,15,24,13,17,19,12,23,20,,,,,1.0,0.6,0.8*33

1614163598000,$GNGSA,A,3,65,72,73,74,,,,,,,,,1.0,0.6,0.8*22

1614163598000,$GAGSA,A,3,101,104,115,119,127,,,,,,,,1.0,0.6,0.8*11

1614163598000,$BDGSA,A,3,219,222,227,230,236,,,,,,,,1.0,0.6,0.8*15

1614163598000,$GPRMC,104638.000,A,4540.3674,N,01156.0181,E,0.0,23.0,240221,,,A*58

1614163598000,$PSAMCLK,2146,29801600,22,9748491,1856443,298016000*7D

1614163599000,$PSAMCLK,2146,29801700,21,9748458,1918322,298017000*70

1614163599000,$GPGGA,104639.000,4540.3674,N,01156.0181,E,1,21,0.6,41.7,M,47.1,M,,*68

1614163599000,$PSAMSA,104639.000,4540.3674,N,01156.0181,E,1,M,,*69

1614163599000,$GPGLL,4540.3674,N,01156.0181,E,104639.000,A,A*58

1614163599000,$GPVTG,23.0,T,,M,0.0,N,0.0,K,A*3C

1614163599000,$GPGSV,3,1,10,10,15,314,18,12,30,225,39,13,44,150,41,14,19,052,24*70

1614163599000,$GPGSV,3,2,10,15,65,214,39,17,39,080,35,19,38,114,37,20,18,279,30*76

1614163599000,$GPGSV,3,3,10,23,23,281,34,24,60,298,36*72

1614163599000,$GLGSV,2,1,07,65,24,327,25,71,39,201,28,72,55,282,34,73,54,037,31*69

1614163599000,$GLGSV,2,2,07,74,56,289,34,75,08,258,24,82,19,034,13*52

1614163599000,$GAGSV,2,1,05,101,26,242,36,104,25,313,25,115,09,077,22,119,64,241,24*69

1614163599000,$GAGSV,2,2,05,127,44,055,30*6A

1614163599000,$BDGSV,2,1,07,219,37,222,42,222,36,291,29,227,24,109,32,228,20,054,12*60

1614163599000,$BDGSV,2,2,07,230,06,157,34,236,45,273,37,237,22,075,27*69

1614163599000,$GPGSA,A,3,15,24,13,17,19,12,23,20,,,,,1.0,0.6,0.8*33

1614163599000,$GNGSA,A,3,72,73,74,,,,,,,,,,1.0,0.6,0.8*21

1614163599000,$GAGSA,A,3,101,104,115,119,127,,,,,,,,1.0,0.6,0.8*11

1614163599000,$BDGSA,A,3,219,222,227,230,236,,,,,,,,1.0,0.6,0.8*15

1614163599000,$GPRMC,104639.000,A,4540.3674,N,01156.0181,E,0.0,23.0,240221,,,A*59

1614163599000,$PSAMCLK,2146,29801700,21,9748458,1918322,298017000*70

1614163600000,$PSAMCLK,2146,29801800,22,9748416,1980200,298018000*79

1614163600000,$GPGGA,104640.000,4540.3674,N,01156.0181,E,1,22,0.6,41.7,M,47.1,M,,*65

1614163600000,$PSAMSA,104640.000,4540.3674,N,01156.0181,E,1,M,,*67

1614163600000,$GPGLL,4540.3674,N,01156.0181,E,104640.000,A,A*56

1614163600000,$GPVTG,23.0,T,,M,0.0,N,0.0,K,A*3C

1614163600000,$GPGSV,3,1,10,10,15,314,16,12,30,225,39,13,44,150,41,14,19,052,24*7E

1614163600000,$GPGSV,3,2,10,15,65,214,39,17,39,080,35,19,38,114,37,20,18,279,29*7E

1614163600000,$GPGSV,3,3,10,23,23,281,34,24,60,298,36*72

1614163600000,$GLGSV,2,1,07,65,24,327,25,71,39,201,28,72,55,282,34,73,54,037,30*68

1614163600000,$GLGSV,2,2,07,74,56,289,34,75,08,258,23,82,19,034,12*54

1614163600000,$GAGSV,2,1,05,101,26,242,36,104,25,313,24,115,09,077,22,119,64,241,24*68

1614163600000,$GAGSV,2,2,05,127,44,055,30*6A

1614163600000,$BDGSV,2,1,06,219,37,222,42,222,36,291,29,227,24,109,32,230,06,157,34*6A

1614163600000,$BDGSV,2,2,06,236,45,273,37,237,22,075,27*6B

1614163600000,$GPGSA,A,3,15,24,13,17,19,12,23,14,20,,,,1.2,0.6,1.0*3D

1614163600000,$GNGSA,A,3,71,72,73,74,,,,,,,,,1.2,0.6,1.0*2C

1614163600000,$GAGSA,A,3,101,104,119,127,,,,,,,,,1.2,0.6,1.0*2F

1614163600000,$BDGSA,A,3,219,222,227,230,236,,,,,,,,1.2,0.6,1.0*1E

1614163600000,$GPRMC,104640.000,A,4540.3674,N,01156.0181,E,0.0,23.0,240221,,,A*57

1614163600000,$PSAMCLK,2146,29801800,22,9748416,1980200,298018000*79

1614163601000,$PSAMCLK,2146,29801900,23,9748384,2042077,298019000*72

1614163601000,$GPGGA,104641.000,4540.3674,N,01156.0181,E,1,23,0.4,41.7,M,47.1,M,,*67

1614163601000,$PSAMSA,104641.000,4540.3674,N,01156.0181,E,1,M,,*66

1614163601000,$GPGLL,4540.3674,N,01156.0181,E,104641.000,A,A*57

1614163601000,$GPVTG,23.0,T,,M,0.0,N,0.0,K,A*3C

1614163601000,$GPGSV,3,1,10,10,15,314,15,12,30,225,39,13,44,150,41,14,19,052,24*7D

1614163601000,$GPGSV,3,2,10,15,65,214,38,17,39,080,35,19,38,114,37,20,18,279,29*7F

1614163601000,$GPGSV,3,3,10,23,23,281,34,24,60,298,36*72

1614163601000,$GLGSV,2,1,06,65,24,327,25,71,39,201,28,72,55,282,34,73,54,037,30*69

1614163601000,$GLGSV,2,2,06,74,56,289,34,75,08,258,23*63

1614163601000,$GAGSV,2,1,05,101,26,242,36,104,25,313,24,115,09,077,21,119,64,241,24*6B

1614163601000,$GAGSV,2,2,05,127,44,055,29*62

1614163601000,$BDGSV,2,1,06,219,37,222,42,222,36,291,29,227,24,109,31,230,06,157,34*69

1614163601000,$BDGSV,2,2,06,236,45,273,37,237,22,075,27*6B

1614163601000,$GPGSA,A,3,15,24,13,17,19,12,23,14,20,,,,1.0,0.4,0.8*34

1614163601000,$GNGSA,A,3,65,71,72,73,74,,,,,,,,1.0,0.4,0.8*26

1614163601000,$GAGSA,A,3,101,115,119,127,,,,,,,,,1.0,0.4,0.8*26

1614163601000,$BDGSA,A,3,219,222,227,230,236,,,,,,,,1.0,0.4,0.8*17

1614163601000,$GPRMC,104641.000,A,4540.3674,N,01156.0181,E,0.0,23.0,240221,,,A*56

1614163601000,$PSAMCLK,2146,29801900,23,9748384,2042077,298019000*72

1614163602000,$PSAMCLK,2146,29802000,23,9748353,2103954,298020000*74

1614163602000,$GPGGA,104642.000,4540.3674,N,01156.0181,E,1,23,0.4,41.7,M,47.1,M,,*64

1614163602000,$PSAMSA,104642.000,4540.3674,N,01156.0181,E,1,M,,*65

1614163602000,$GPGLL,4540.3674,N,01156.0181,E,104642.000,A,A*54

1614163602000,$GPVTG,23.0,T,,M,0.0,N,0.0,K,A*3C

1614163602000,$GPGSV,3,1,10,10,15,314,14,12,30,225,39,13,44,150,41,14,19,052,24*7C

1614163602000,$GPGSV,3,2,10,15,65,214,38,17,39,080,35,19,38,114,37,20,18,279,29*7F

1614163602000,$GPGSV,3,3,10,23,23,281,34,24,60,298,36*72

1614163602000,$GLGSV,2,1,06,65,24,327,24,71,39,201,27,72,55,282,34,73,54,037,30*67

1614163602000,$GLGSV,2,2,06,74,56,289,33,75,08,258,23*64

1614163602000,$GAGSV,2,1,06,101,26,242,36,104,25,313,24,115,09,077,20,119,64,241,24*69

1614163602000,$GAGSV,2,2,06,121,77,262,30,127,44,055,29*66

1614163602000,$BDGSV,2,1,06,219,37,222,42,222,36,291,29,227,24,109,31,230,06,157,34*69

1614163602000,$BDGSV,2,2,06,236,45,273,37,237,22,075,27*6B

1614163602000,$GPGSA,A,3,15,24,13,17,19,12,23,14,20,,,,1.0,0.4,1.0*3D

1614163602000,$GNGSA,A,3,65,71,72,73,74,,,,,,,,1.0,0.4,1.0*2F

1614163602000,$GAGSA,A,3,101,104,119,127,,,,,,,,,1.0,0.4,1.0*2F

1614163602000,$BDGSA,A,3,219,222,227,230,236,,,,,,,,1.0,0.4,1.0*1E

1614163602000,$GPRMC,104642.000,A,4540.3674,N,01156.0181,E,0.0,23.0,240221,,,A*55

1614163602000,$PSAMCLK,2146,29802000,23,9748353,2103954,298020000*74

1614163603000,$PSAMCLK,2146,29802100,24,9748312,2165831,298021000*74

1614163603000,$GPGGA,104643.000,4540.3674,N,01156.0181,E,1,24,0.4,41.7,M,47.1,M,,*62

1614163603000,$PSAMSA,104643.000,4540.3674,N,01156.0181,E,1,M,,*64

1614163603000,$GPGLL,4540.3674,N,01156.0181,E,104643.000,A,A*55

1614163603000,$GPVTG,23.0,T,,M,0.0,N,0.0,K,A*3C

1614163603000,$GPGSV,3,1,10,10,15,314,13,12,30,225,39,13,44,150,41,14,19,052,24*7B

1614163603000,$GPGSV,3,2,10,15,65,214,38,17,39,080,35,19,38,114,37,20,18,279,28*7E

1614163603000,$GPGSV,3,3,10,23,23,281,33,24,60,298,36*75

1614163603000,$GLGSV,2,1,06,65,24,327,24,71,39,201,27,72,55,282,33,73,54,037,30*60

1614163603000,$GLGSV,2,2,06,74,56,289,33,75,08,258,23*64

1614163603000,$GAGSV,2,1,06,101,26,242,36,104,25,313,24,115,09,077,18,119,64,240,24*63

1614163603000,$GAGSV,2,2,06,121,77,262,32,127,44,055,29*64

1614163603000,$BDGSV,2,1,06,219,37,222,42,222,36,291,29,227,24,109,31,230,06,157,34*69

1614163603000,$BDGSV,2,2,06,236,45,273,36,237,22,075,26*6B

1614163603000,$GPGSA,A,3,15,24,13,17,19,12,23,14,20,,,,1.0,0.4,0.8*34

1614163603000,$GNGSA,A,3,65,71,72,73,74,,,,,,,,1.0,0.4,0.8*26

1614163603000,$GAGSA,A,3,101,104,119,121,127,,,,,,,,1.0,0.4,0.8*14

1614163603000,$BDGSA,A,3,219,222,227,230,236,,,,,,,,1.0,0.4,0.8*17

1614163603000,$GPRMC,104643.000,A,4540.3674,N,01156.0181,E,0.0,23.0,240221,,,A*54

1614163603000,$PSAMCLK,2146,29802100,24,9748312,2165831,298021000*74

1614163604000,$PSAMCLK,2146,29802200,24,9748289,2227708,298022000*77

1614163604000,$GPGGA,104644.000,4540.3674,N,01156.0181,E,1,24,0.4,41.7,M,47.1,M,,*65

1614163604000,$PSAMSA,104644.000,4540.3674,N,01156.0181,E,1,M,,*63

1614163604000,$GPGLL,4540.3674,N,01156.0181,E,104644.000,A,A*52

1614163604000,$GPVTG,23.0,T,,M,0.0,N,0.0,K,A*3C

1614163604000,$GPGSV,3,1,10,10,15,314,13,12,30,225,39,13,44,150,41,14,19,052,25*7A

1614163604000,$GPGSV,3,2,10,15,64,213,38,17,39,080,35,19,38,114,37,20,18,279,28*78

1614163604000,$GPGSV,3,3,10,23,23,281,33,24,60,298,36*75

1614163604000,$GLGSV,2,1,06,65,24,327,24,71,39,201,27,72,55,282,33,73,54,037,29*68

1614163604000,$GLGSV,2,2,06,74,56,289,33,75,08,258,22*65

1614163604000,$GAGSV,2,1,06,101,26,242,35,104,25,313,24,115,09,077,17,119,64,240,24*6F

1614163604000,$GAGSV,2,2,06,121,77,263,33,127,44,055,29*64

1614163604000,$BDGSV,2,1,06,219,36,222,42,222,36,291,28,227,24,109,31,230,06,157,34*69

1614163604000,$BDGSV,2,2,06,236,45,273,36,237,22,075,26*6B

1614163604000,$GPGSA,A,3,15,24,13,17,19,12,23,14,20,,,,1.0,0.4,0.8*34

1614163604000,$GNGSA,A,3,65,71,72,73,74,,,,,,,,1.0,0.4,0.8*26

1614163604000,$GAGSA,A,3,101,104,119,121,127,,,,,,,,1.0,0.4,0.8*14

1614163604000,$BDGSA,A,3,219,222,227,230,236,,,,,,,,1.0,0.4,0.8*17

1614163604000,$GPRMC,104644.000,A,4540.3674,N,01156.0181,E,0.0,23.0,240221,,,A*53

1614163604000,$PSAMCLK,2146,29802200,24,9748289,2227708,298022000*77

1614163605000,$PSAMCLK,2146,29802300,24,9748259,2289584,298023000*78

1614163605000,$GPGGA,104645.000,4540.3674,N,01156.0181,E,1,24,0.4,41.7,M,47.1,M,,*64

1614163605000,$PSAMSA,104645.000,4540.3674,N,01156.0181,E,1,M,,*62

1614163605000,$GPGLL,4540.3674,N,01156.0181,E,104645.000,A,A*53

1614163605000,$GPVTG,23.0,T,,M,0.0,N,0.0,K,A*3C

1614163605000,$GPGSV,3,1,10,10,15,314,12,12,30,225,39,13,44,150,41,14,19,052,25*7B

1614163605000,$GPGSV,3,2,10,15,64,213,38,17,39,080,35,19,38,114,37,20,18,279,28*78

1614163605000,$GPGSV,3,3,10,23,23,281,33,24,60,298,35*76

1614163605000,$GLGSV,2,1,06,65,24,327,24,71,39,201,27,72,55,282,33,73,54,037,29*68

1614163605000,$GLGSV,2,2,06,74,56,289,33,75,08,258,22*65

1614163605000,$GAGSV,2,1,06,101,26,242,35,104,25,313,24,115,09,077,15,119,64,240,24*6D

1614163605000,$GAGSV,2,2,06,121,77,263,33,127,44,055,29*64

1614163605000,$BDGSV,2,1,06,219,36,222,42,222,36,290,28,227,24,109,31,230,06,157,34*68

1614163605000,$BDGSV,2,2,06,236,45,273,36,237,22,075,26*6B

1614163605000,$GPGSA,A,3,15,24,13,17,19,12,23,14,20,,,,1.0,0.4,0.8*34

1614163605000,$GNGSA,A,3,65,71,72,73,74,,,,,,,,1.0,0.4,0.8*26

1614163605000,$GAGSA,A,3,101,104,119,121,127,,,,,,,,1.0,0.4,0.8*14

1614163605000,$BDGSA,A,3,219,222,227,230,236,,,,,,,,1.0,0.4,0.8*17

1614163605000,$GPRMC,104645.000,A,4540.3674,N,01156.0181,E,0.0,23.0,240221,,,A*52

1614163605000,$PSAMCLK,2146,29802300,24,9748259,2289584,298023000*78

1614163606000,$PSAMCLK,2146,29802400,24,9748218,2351461,298024000*73

1614163606000,$GPGGA,104646.000,4540.3674,N,01156.0181,E,1,24,0.4,41.7,M,47.1,M,,*67

1614163606000,$PSAMSA,104646.000,4540.3674,N,01156.0181,E,1,M,,*61

1614163606000,$GPGLL,4540.3674,N,01156.0181,E,104646.000,A,A*50

1614163606000,$GPVTG,23.0,T,,M,0.0,N,0.0,K,A*3C

1614163606000,$GPGSV,3,1,09,12,30,225,39,13,44,150,41,14,19,052,25,15,64,213,38*7E

1614163606000,$GPGSV,3,2,09,17,39,080,35,19,38,114,36,20,18,279,28,23,23,281,33*77

1614163606000,$GPGSV,3,3,09,24,60,298,35*45

1614163606000,$GLGSV,2,1,07,65,24,327,24,71,39,200,27,72,55,281,33,73,54,037,29*6B

1614163606000,$GLGSV,2,2,07,74,56,289,33,75,08,259,22,83,22,083,18*5C

1614163606000,$GAGSV,2,1,06,101,26,242,35,104,25,313,23,115,09,077,14,119,64,240,24*6B

1614163606000,$GAGSV,2,2,06,121,77,263,34,127,44,055,29*63

1614163606000,$BDGSV,2,1,06,219,36,222,42,222,36,290,28,227,24,109,31,230,06,157,34*68

1614163606000,$BDGSV,2,2,06,236,45,273,36,237,22,075,26*6B

1614163606000,$GPGSA,A,3,15,24,13,17,19,12,23,14,20,,,,1.0,0.4,0.8*34

1614163606000,$GNGSA,A,3,65,71,72,73,74,,,,,,,,1.0,0.4,0.8*26

1614163606000,$GAGSA,A,3,101,104,119,121,127,,,,,,,,1.0,0.4,0.8*14

1614163606000,$BDGSA,A,3,219,222,227,230,236,,,,,,,,1.0,0.4,0.8*17

1614163606000,$GPRMC,104646.000,A,4540.3674,N,01156.0181,E,0.0,23.0,240221,,,A*51

1614163606000,$PSAMCLK,2146,29802400,24,9748218,2351461,298024000*73

1614163607000,$PSAMCLK,2146,29802500,23,9748182,2413338,298025000*7E

1614163607000,$GPGGA,104647.000,4540.3674,N,01156.0181,E,1,23,0.6,41.7,M,47.1,M,,*63

1614163607000,$PSAMSA,104647.000,4540.3674,N,01156.0181,E,1,M,,*60

1614163607000,$GPGLL,4540.3674,N,01156.0181,E,104647.000,A,A*51

1614163607000,$GPVTG,23.0,T,,M,0.0,N,0.0,K,A*3C

1614163607000,$GPGSV,3,1,09,12,30,225,39,13,44,150,41,14,19,052,25,15,64,213,39*7F

1614163607000,$GPGSV,3,2,09,17,39,080,35,19,38,114,36,20,18,278,27,23,23,281,33*79

1614163607000,$GPGSV,3,3,09,24,60,298,35*45

1614163607000,$GLGSV,2,1,08,65,24,327,23,71,39,200,27,72,55,281,33,73,54,037,29*63

1614163607000,$GLGSV,2,2,08,74,56,289,33,75,08,259,22,82,19,034,24,83,22,083,20*6B

1614163607000,$GAGSV,2,1,06,101,26,242,35,104,25,313,23,115,09,077,13,119,64,240,23*6B

1614163607000,$GAGSV,2,2,06,121,77,263,34,127,44,055,29*63

1614163607000,$BDGSV,2,1,06,219,36,222,41,222,36,290,28,227,25,109,30,230,06,157,34*6B

1614163607000,$BDGSV,2,2,06,236,45,273,36,237,22,075,26*6B

1614163607000,$GPGSA,A,3,15,24,13,17,19,12,20,,,,,,1.0,0.6,0.8*32

1614163607000,$GNGSA,A,3,65,71,72,73,74,83,,,,,,,1.0,0.6,0.8*2F

1614163607000,$GAGSA,A,3,101,104,119,121,127,,,,,,,,1.0,0.6,0.8*16

1614163607000,$BDGSA,A,3,219,222,227,230,236,,,,,,,,1.0,0.6,0.8*15

1614163607000,$GPRMC,104647.000,A,4540.3674,N,01156.0181,E,0.0,23.0,240221,,,A*50

1614163607000,$PSAMCLK,2146,29802500,23,9748182,2413338,298025000*7E

1614163608000,$PSAMCLK,2146,29802600,22,9748149,2475214,298026000*77

1614163608000,$GPGGA,104648.000,4540.3674,N,01156.0181,E,1,22,0.4,41.7,M,47.1,M,,*6F

1614163608000,$PSAMSA,104648.000,4540.3674,N,01156.0181,E,1,M,,*6F

1614163608000,$GPGLL,4540.3674,N,01156.0181,E,104648.000,A,A*5E

1614163608000,$GPVTG,23.0,T,,M,0.0,N,0.0,K,A*3C

1614163608000,$GPGSV,3,1,10,10,15,314,20,12,30,225,38,13,44,150,41,14,19,052,25*7B

1614163608000,$GPGSV,3,2,10,15,64,213,39,17,39,080,35,19,38,114,36,20,18,278,27*76

1614163608000,$GPGSV,3,3,10,23,23,281,33,24,60,298,35*76

1614163608000,$GLGSV,2,1,08,65,24,327,22,71,39,200,27,72,55,281,33,73,54,037,29*62

1614163608000,$GLGSV,2,2,08,74,56,289,33,75,08,259,21,82,19,034,24,83,22,083,21*69

1614163608000,$GAGSV,2,1,06,101,26,242,35,104,25,313,23,115,09,077,13,119,64,240,23*6B

1614163608000,$GAGSV,2,2,06,121,77,263,34,127,44,055,29*63

1614163608000,$BDGSV,2,1,06,219,36,222,41,222,36,290,28,227,25,109,30,230,06,157,34*6B

1614163608000,$BDGSV,2,2,06,236,45,273,36,237,22,075,26*6B

1614163608000,$GPGSA,A,3,15,24,13,17,19,12,14,20,,,,,1.0,0.4,0.8*35

1614163608000,$GNGSA,A,3,71,72,73,74,82,,,,,,,,1.0,0.4,0.8*2F

1614163608000,$GAGSA,A,3,101,104,119,121,127,,,,,,,,1.0,0.4,0.8*14

1614163608000,$BDGSA,A,3,219,222,227,230,,,,,,,,,1.0,0.4,0.8*20

1614163608000,$GPRMC,104648.000,A,4540.3674,N,01156.0181,E,0.0,23.0,240221,,,A*5F

1614163608000,$PSAMCLK,2146,29802600,22,9748149,2475214,298026000*77

1614163609000,$PSAMCLK,2146,29802700,22,9748104,2537091,298027000*76

1614163609000,$GPGGA,104649.000,4540.3674,N,01156.0181,E,1,22,0.6,41.7,M,47.1,M,,*6C

1614163609000,$PSAMSA,104649.000,4540.3674,N,01156.0181,E,1,M,,*6E

1614163609000,$GPGLL,4540.3674,N,01156.0181,E,104649.000,A,A*5F

1614163609000,$GPVTG,23.0,T,,M,0.0,N,0.0,K,A*3C

1614163609000,$GPGSV,3,1,10,10,15,314,20,12,30,225,38,13,44,150,41,14,19,052,25*7B

1614163609000,$GPGSV,3,2,10,15,64,213,39,17,39,080,35,19,38,114,36,20,18,278,27*76

1614163609000,$GPGSV,3,3,10,23,23,281,33,24,60,298,35*76

1614163609000,$GLGSV,2,1,08,65,24,327,20,71,39,200,27,72,55,281,33,73,54,037,29*60

1614163609000,$GLGSV,2,2,08,74,56,289,33,75,08,259,21,82,19,034,24,83,22,083,21*69

1614163609000,$GAGSV,2,1,05,101,26,242,35,104,25,313,23,119,64,240,23,121,77,263,34*64

1614163609000,$GAGSV,2,2,05,127,44,055,29*62

1614163609000,$BDGSV,2,1,06,219,36,222,41,222,36,290,28,227,25,109,30,230,06,157,35*6A

1614163609000,$BDGSV,2,2,06,236,45,273,36,237,22,075,26*6B

1614163609000,$GPGSA,A,3,15,24,13,17,19,12,14,,,,,,1.2,0.6,1.0*3E

1614163609000,$GNGSA,A,3,71,72,73,74,83,,,,,,,,1.2,0.6,1.0*27

1614163609000,$GAGSA,A,3,101,104,119,121,127,,,,,,,,1.2,0.6,1.0*1D

1614163609000,$BDGSA,A,3,219,222,227,230,236,,,,,,,,1.2,0.6,1.0*1E

1614163609000,$GPRMC,104649.000,A,4540.3674,N,01156.0181,E,0.0,23.0,240221,,,A*5E

1614163609000,$PSAMCLK,2146,29802700,22,9748104,2537091,298027000*76

1614163610000,$PSAMCLK,2146,29802800,24,9748072,2598966,298028000*74

1614163610000,$GPGGA,104650.000,4540.3674,N,01156.0181,E,1,24,0.4,41.7,M,47.1,M,,*60

1614163610000,$PSAMSA,104650.000,4540.3674,N,01156.0181,E,1,M,,*66

1614163610000,$GPGLL,4540.3674,N,01156.0181,E,104650.000,A,A*57

1614163610000,$GPVTG,23.0,T,,M,0.0,N,0.0,K,A*3C

1614163610000,$GPGSV,3,1,10,10,15,314,20,12,30,225,38,13,44,150,41,14,19,052,25*7B

1614163610000,$GPGSV,3,2,10,15,64,213,39,17,39,080,35,19,38,114,36,20,18,278,26*77

1614163610000,$GPGSV,3,3,10,23,23,281,32,24,60,298,35*77

1614163610000,$GLGSV,2,1,08,65,24,327,19,71,39,200,27,72,55,281,33,73,54,037,28*6B

1614163610000,$GLGSV,2,2,08,74,56,289,33,75,08,259,21,82,19,034,24,83,22,083,21*69

1614163610000,$GAGSV,2,1,05,101,26,242,35,104,25,313,23,119,64,240,23,121,77,263,34*64

1614163610000,$GAGSV,2,2,05,127,44,055,29*62

1614163610000,$BDGSV,2,1,06,219,36,222,41,222,36,290,28,227,25,109,30,230,06,157,35*6A

1614163610000,$BDGSV,2,2,06,236,45,273,36,237,22,075,26*6B

1614163610000,$GPGSA,A,3,15,24,13,17,19,12,14,20,,,,,1.0,0.4,0.8*35

1614163610000,$GNGSA,A,3,71,72,73,74,82,83,,,,,,,1.0,0.4,0.8*24

1614163610000,$GAGSA,A,3,101,104,119,121,127,,,,,,,,1.0,0.4,0.8*14

1614163610000,$BDGSA,A,3,219,222,227,230,236,,,,,,,,1.0,0.4,0.8*17

1614163610000,$GPRMC,104650.000,A,4540.3674,N,01156.0181,E,0.0,23.0,240221,,,A*56

1614163610000,$PSAMCLK,2146,29802800,24,9748072,2598966,298028000*74

1614163611000,$PSAMCLK,2146,29802900,23,9748042,2660837,298029000*71

1614163611000,$GPGGA,104651.000,4540.3674,N,01156.0181,E,1,23,0.4,41.7,M,47.1,M,,*66

1614163611000,$PSAMSA,104651.000,4540.3674,N,01156.0181,E,0,M,,*66

1614163611000,$GPGLL,4540.3674,N,01156.0181,E,104651.000,A,A*56

1614163611000,$GPVTG,23.0,T,,M,0.0,N,0.0,K,A*3C

1614163611000,$GPGSV,3,1,10,10,15,314,20,12,30,225,38,13,44,150,41,14,19,052,25*7B

1614163611000,$GPGSV,3,2,10,15,64,213,38,17,39,080,35,19,38,114,36,20,18,278,26*76

1614163611000,$GPGSV,3,3,10,23,23,281,32,24,60,298,35*77

1614163611000,$GLGSV,2,1,08,65,24,327,17,71,39,200,27,72,55,281,33,73,54,037,28*65

1614163611000,$GLGSV,2,2,08,74,56,289,33,75,08,259,21,82,19,034,24,83,22,083,21*69

1614163611000,$GAGSV,2,1,05,101,26,242,34,104,25,313,23,119,64,240,23,121,77,263,34*65

1614163611000,$GAGSV,2,2,05,127,44,055,29*62

1614163611000,$BDGSV,2,1,06,219,36,222,41,222,36,290,27,227,25,109,30,230,06,157,35*65

1614163611000,$BDGSV,2,2,06,236,45,273,36,237,22,075,26*6B

1614163611000,$GPGSA,A,3,15,24,13,17,19,12,20,10,,,,,1.0,0.4,0.8*31

1614163611000,$GNGSA,A,3,71,72,73,74,82,83,,,,,,,1.0,0.4,0.8*24

1614163611000,$GAGSA,A,3,101,119,121,127,,,,,,,,,1.0,0.4,0.8*21

1614163611000,$BDGSA,A,3,219,222,227,230,236,,,,,,,,1.0,0.4,0.8*17

1614163611000,$GPRMC,104651.000,A,4540.3674,N,01156.0181,E,0.0,23.0,240221,,,A*57

1614163611000,$PSAMCLK,2146,29802900,23,9748042,2660837,298029000*71

1614163612000,$PSAMCLK,2146,29803000,23,9747968,2722709,298030000*7A

1614163612000,$GPGGA,104652.000,4540.3680,N,01156.0185,E,1,23,0.4,42.3,M,47.1,M,,*6D

1614163612000,$PSAMSA,104652.000,4540.3680,N,01156.0185,E,0,M,,*6A

1614163612000,$GPGLL,4540.3680,N,01156.0185,E,104652.000,A,A*5A

1614163612000,$GPVTG,23.0,T,,M,0.1,N,0.1,K,A*3C

1614163612000,$GPGSV,3,1,10,10,15,314,21,12,30,225,38,13,44,150,41,14,19,052,25*7A

1614163612000,$GPGSV,3,2,10,15,64,213,38,17,39,080,35,19,38,114,36,20,18,278,26*76

1614163612000,$GPGSV,3,3,10,23,23,281,32,24,60,298,35*77

1614163612000,$GLGSV,2,1,08,65,24,327,16,71,39,200,26,72,55,281,32,73,54,037,28*64

1614163612000,$GLGSV,2,2,08,74,56,289,33,75,08,259,21,82,19,034,23,83,22,083,21*6E

1614163612000,$GAGSV,2,1,05,101,26,242,34,104,25,313,23,119,64,240,23,121,77,263,34*65

1614163612000,$GAGSV,2,2,05,127,44,055,29*62

1614163612000,$BDGSV,2,1,06,219,36,222,41,222,36,290,27,227,25,109,30,230,06,157,35*65

1614163612000,$BDGSV,2,2,06,236,45,273,36,237,22,075,26*6B

1614163612000,$GPGSA,A,3,15,24,13,17,19,12,20,10,,,,,1.0,0.4,0.8*31

1614163612000,$GNGSA,A,3,71,72,73,74,82,83,,,,,,,1.0,0.4,0.8*24

1614163612000,$GAGSA,A,3,101,119,121,127,,,,,,,,,1.0,0.4,0.8*21

1614163612000,$BDGSA,A,3,219,222,227,230,236,,,,,,,,1.0,0.4,0.8*17

1614163612000,$GPRMC,104652.000,A,4540.3680,N,01156.0185,E,0.1,23.0,240221,,,A*5A

1614163612000,$PSAMCLK,2146,29803000,23,9747968,2722709,298030000*7A

1614163613000,$PSAMCLK,2146,29803100,24,9747915,2784585,298031000*7D

1614163613000,$GPGGA,104653.000,4540.3680,N,01156.0185,E,1,24,0.4,42.3,M,47.1,M,,*6B

1614163613000,$PSAMSA,104653.000,4540.3680,N,01156.0185,E,1,M,,*6A

1614163613000,$GPGLL,4540.3680,N,01156.0185,E,104653.000,A,A*5B

1614163613000,$GPVTG,23.0,T,,M,0.0,N,0.0,K,A*3C

1614163613000,$GPGSV,3,1,10,10,15,314,22,12,30,225,38,13,44,150,41,14,19,052,24*78

1614163613000,$GPGSV,3,2,10,15,64,213,37,17,39,080,35,19,38,114,36,20,18,278,25*7A

1614163613000,$GPGSV,3,3,10,23,23,281,32,24,60,298,35*77

1614163613000,$GLGSV,2,1,08,65,24,327,14,71,39,200,26,72,55,281,32,73,54,037,28*66

1614163613000,$GLGSV,2,2,08,74,56,289,33,75,08,259,21,82,19,034,23,83,22,083,21*6E

1614163613000,$GAGSV,2,1,05,101,26,242,34,104,25,313,23,119,64,240,24,121,77,263,34*62

1614163613000,$GAGSV,2,2,05,127,44,055,29*62

1614163613000,$BDGSV,2,1,06,219,36,222,41,222,36,290,27,227,25,109,30,230,06,157,35*65

1614163613000,$BDGSV,2,2,06,236,45,273,35,237,22,075,25*6B

1614163613000,$GPGSA,A,3,15,24,13,17,19,12,14,20,10,,,,1.0,0.4,0.8*34

1614163613000,$GNGSA,A,3,71,72,73,74,82,83,,,,,,,1.0,0.4,0.8*24

1614163613000,$GAGSA,A,3,101,119,121,127,,,,,,,,,1.0,0.4,0.8*21

1614163613000,$BDGSA,A,3,219,222,227,230,236,,,,,,,,1.0,0.4,0.8*17

1614163613000,$GPRMC,104653.000,A,4540.3680,N,01156.0185,E,0.0,23.0,240221,,,A*5A

1614163613000,$PSAMCLK,2146,29803100,24,9747915,2784585,298031000*7D

1614163614000,$PSAMCLK,2146,29803200,23,9747858,2846460,298032000*79

1614163614000,$GPGGA,104654.000,4540.3680,N,01156.0185,E,1,23,0.4,42.3,M,47.1,M,,*6B

1614163614000,$PSAMSA,104654.000,4540.3680,N,01156.0185,E,1,M,,*6D

1614163614000,$GPGLL,4540.3680,N,01156.0185,E,104654.000,A,A*5C

1614163614000,$GPVTG,23.0,T,,M,0.0,N,0.0,K,A*3C

1614163614000,$GPGSV,3,1,10,10,15,314,23,12,30,225,38,13,44,150,41,14,19,052,24*79

1614163614000,$GPGSV,3,2,10,15,64,213,37,17,39,080,35,19,38,114,36,20,18,278,25*7A

1614163614000,$GPGSV,3,3,10,23,23,281,32,24,60,298,34*76

1614163614000,$GLGSV,2,1,08,65,24,327,14,71,39,200,26,72,55,281,32,73,54,037,28*66

1614163614000,$GLGSV,2,2,08,74,56,289,33,75,08,259,21,82,19,034,23,83,22,083,21*6E

1614163614000,$GAGSV,2,1,05,101,26,242,34,104,25,313,24,119,64,240,24,121,77,263,34*65

1614163614000,$GAGSV,2,2,05,127,44,055,29*62

1614163614000,$BDGSV,2,1,06,219,36,222,41,222,36,290,27,227,25,109,30,230,06,157,35*65

1614163614000,$BDGSV,2,2,06,236,45,273,35,237,22,075,25*6B

1614163614000,$GPGSA,A,3,15,24,13,17,19,12,20,10,,,,,1.0,0.4,0.8*31

1614163614000,$GNGSA,A,3,71,72,73,74,82,83,,,,,,,1.0,0.4,0.8*24

1614163614000,$GAGSA,A,3,101,119,121,127,,,,,,,,,1.0,0.4,0.8*21

1614163614000,$BDGSA,A,3,219,222,227,230,236,,,,,,,,1.0,0.4,0.8*17

1614163614000,$GPRMC,104654.000,A,4540.3680,N,01156.0185,E,0.0,23.0,240221,,,A*5D

1614163614000,$PSAMCLK,2146,29803200,23,9747858,2846460,298032000*79

1614163615000,$PSAMCLK,2146,29803300,24,9747807,2908334,298033000*79

1614163615000,$GPGGA,104655.000,4540.3680,N,01156.0186,E,1,24,0.4,42.3,M,47.1,M,,*6E

1614163615000,$PSAMSA,104655.000,4540.3680,N,01156.0186,E,1,M,,*6F

1614163615000,$GPGLL,4540.3680,N,01156.0186,E,104655.000,A,A*5E

1614163615000,$GPVTG,23.0,T,,M,0.0,N,0.0,K,A*3C

1614163615000,$GPGSV,3,1,10,10,15,314,23,12,30,225,38,13,44,150,40,14,19,052,24*78

1614163615000,$GPGSV,3,2,10,15,64,213,37,17,39,080,35,19,38,114,36,20,18,278,25*7A

1614163615000,$GPGSV,3,3,10,23,23,281,32,24,60,298,34*76

1614163615000,$GLGSV,2,1,08,65,24,327,13,71,39,200,27,72,55,281,32,73,54,037,28*60

1614163615000,$GLGSV,2,2,08,74,56,289,33,75,08,259,21,82,19,034,23,83,22,083,21*6E

1614163615000,$GAGSV,2,1,05,101,26,242,34,104,25,313,24,119,64,240,24,121,77,263,34*65

1614163615000,$GAGSV,2,2,05,127,44,055,29*62

1614163615000,$BDGSV,2,1,06,219,36,222,42,222,36,290,27,227,25,109,29,230,06,157,35*6E

1614163615000,$BDGSV,2,2,06,236,45,273,35,237,22,075,25*6B

1614163615000,$GPGSA,A,3,15,24,13,17,19,12,14,20,10,,,,1.0,0.4,0.8*34

1614163615000,$GNGSA,A,3,71,72,73,74,82,83,,,,,,,1.0,0.4,0.8*24

1614163615000,$GAGSA,A,3,101,119,121,127,,,,,,,,,1.0,0.4,0.8*21

1614163615000,$BDGSA,A,3,219,222,227,230,236,,,,,,,,1.0,0.4,0.8*17

1614163615000,$GPRMC,104655.000,A,4540.3680,N,01156.0186,E,0.0,23.0,240221,,,A*5F

1614163615000,$PSAMCLK,2146,29803300,24,9747807,2908334,298033000*79

1614163616000,$PSAMCLK,2146,29803400,24,9747762,2970209,298034000*75

1614163616000,$GPGGA,104656.000,4540.3680,N,01156.0186,E,1,24,0.4,42.3,M,47.1,M,,*6D

1614163616000,$PSAMSA,104656.000,4540.3680,N,01156.0186,E,1,M,,*6C

1614163616000,$GPGLL,4540.3680,N,01156.0186,E,104656.000,A,A*5D

1614163616000,$GPVTG,23.0,T,,M,0.0,N,0.0,K,A*3C

1614163616000,$GPGSV,3,1,10,10,15,314,23,12,30,225,38,13,44,150,40,14,19,052,24*78

1614163616000,$GPGSV,3,2,10,15,64,213,37,17,39,080,35,19,38,114,36,20,18,278,25*7A

1614163616000,$GPGSV,3,3,10,23,23,281,31,24,60,298,34*75

1614163616000,$GLGSV,2,1,08,65,24,327,12,71,39,200,27,72,55,281,32,73,54,037,28*61

1614163616000,$GLGSV,2,2,08,74,56,289,33,75,08,259,21,82,19,034,23,83,22,083,21*6E

1614163616000,$GAGSV,2,1,05,101,26,242,34,104,25,313,25,119,64,240,23,121,77,263,34*63

1614163616000,$GAGSV,2,2,05,127,44,055,29*62

1614163616000,$BDGSV,2,1,06,219,36,222,42,222,36,290,27,227,25,109,28,230,06,157,35*6F

1614163616000,$BDGSV,2,2,06,236,45,273,35,237,22,075,25*6B

1614163616000,$GPGSA,A,3,15,24,13,17,19,12,14,20,10,,,,1.0,0.4,0.8*34

1614163616000,$GNGSA,A,3,71,72,73,74,82,83,,,,,,,1.0,0.4,0.8*24

1614163616000,$GAGSA,A,3,101,119,121,127,,,,,,,,,1.0,0.4,0.8*21

1614163616000,$BDGSA,A,3,219,222,227,230,236,,,,,,,,1.0,0.4,0.8*17

1614163616000,$GPRMC,104656.000,A,4540.3680,N,01156.0186,E,0.0,23.0,240221,,,A*5C

1614163616000,$PSAMCLK,2146,29803400,24,9747762,2970209,298034000*75

1614163617000,$PSAMCLK,2146,29803500,23,9747725,3032083,298035000*7F

1614163617000,$GPGGA,104657.000,4540.3680,N,01156.0186,E,1,23,0.4,42.3,M,47.1,M,,*6B

1614163617000,$PSAMSA,104657.000,4540.3680,N,01156.0186,E,1,M,,*6D

1614163617000,$GPGLL,4540.3680,N,01156.0186,E,104657.000,A,A*5C

1614163617000,$GPVTG,23.0,T,,M,0.0,N,0.0,K,A*3C

1614163617000,$GPGSV,3,1,10,10,15,314,23,12,30,225,38,13,44,150,40,14,19,052,24*78

1614163617000,$GPGSV,3,2,10,15,64,213,37,17,39,080,34,19,38,114,36,20,18,278,24*7A

1614163617000,$GPGSV,3,3,10,23,23,281,31,24,60,298,34*75

1614163617000,$GLGSV,2,1,07,71,39,200,28,72,55,281,32,73,54,037,28,74,56,289,33*62

1614163617000,$GLGSV,2,2,07,75,08,259,21,82,19,034,23,83,22,083,22*51

1614163617000,$GAGSV,2,1,05,101,26,242,34,104,25,313,26,119,64,240,23,121,77,263,34*60

1614163617000,$GAGSV,2,2,05,127,44,055,28*63

1614163617000,$BDGSV,2,1,06,219,36,222,42,222,36,290,27,227,25,109,28,230,06,157,35*6F

1614163617000,$BDGSV,2,2,06,236,45,273,35,237,22,075,25*6B

1614163617000,$GPGSA,A,3,15,24,13,17,19,12,14,20,10,,,,1.0,0.4,0.8*34

1614163617000,$GNGSA,A,3,71,72,73,74,83,,,,,,,,1.0,0.4,0.8*2E

1614163617000,$GAGSA,A,3,101,119,121,127,,,,,,,,,1.0,0.4,0.8*21

1614163617000,$BDGSA,A,3,219,222,227,230,236,,,,,,,,1.0,0.4,0.8*17

1614163617000,$GPRMC,104657.000,A,4540.3680,N,01156.0186,E,0.0,23.0,240221,,,A*5D

1614163617000,$PSAMCLK,2146,29803500,23,9747725,3032083,298035000*7F

1614163618000,$PSAMCLK,2146,29803600,22,9747669,3093956,298036000*7D

1614163618000,$GPGGA,104658.000,4540.3680,N,01156.0186,E,1,22,0.6,42.3,M,47.1,M,,*67

1614163618000,$PSAMSA,104658.000,4540.3680,N,01156.0186,E,1,M,,*62

1614163618000,$GPGLL,4540.3680,N,01156.0186,E,104658.000,A,A*53

1614163618000,$GPVTG,23.0,T,,M,0.0,N,0.0,K,A*3C

1614163618000,$GPGSV,3,1,10,10,15,314,24,12,30,225,38,13,44,150,39,14,19,052,24*71

1614163618000,$GPGSV,3,2,10,15,64,213,37,17,39,080,34,19,38,114,36,20,18,278,24*7A

1614163618000,$GPGSV,3,3,10,23,23,281,31,24,60,298,34*75

1614163618000,$GLGSV,2,1,07,71,39,200,28,72,55,281,32,73,54,037,27,74,56,289,33*6D

1614163618000,$GLGSV,2,2,07,75,08,259,20,82,19,034,23,83,22,083,22*50

1614163618000,$GAGSV,2,1,05,101,26,242,34,104,25,313,26,119,64,240,23,121,77,263,34*60

1614163618000,$GAGSV,2,2,05,127,44,055,28*63

1614163618000,$BDGSV,2,1,06,219,36,222,42,222,36,290,26,227,25,109,27,230,06,157,35*61

1614163618000,$BDGSV,2,2,06,236,45,273,35,237,22,075,25*6B

1614163618000,$GPGSA,A,3,15,24,13,17,19,12,20,10,,,,,1.0,0.6,0.8*33

1614163618000,$GNGSA,A,3,71,72,74,82,83,,,,,,,,1.0,0.6,0.8*22

1614163618000,$GAGSA,A,3,101,119,121,127,,,,,,,,,1.0,0.6,0.8*23

1614163618000,$BDGSA,A,3,219,222,227,230,236,,,,,,,,1.0,0.6,0.8*15

1614163618000,$GPRMC,104658.000,A,4540.3680,N,01156.0186,E,0.0,23.0,240221,,,A*52

1614163618000,$PSAMCLK,2146,29803600,22,9747669,3093956,298036000*7D

1614163619000,$PSAMCLK,2146,29803700,24,9747608,3155829,298037000*7E

1614163619000,$GPGGA,104659.000,4540.3680,N,01156.0186,E,1,24,0.4,42.3,M,47.1,M,,*62

1614163619000,$PSAMSA,104659.000,4540.3680,N,01156.0186,E,1,M,,*63

1614163619000,$GPGLL,4540.3680,N,01156.0186,E,104659.000,A,A*52

1614163619000,$GPVTG,23.0,T,,M,0.0,N,0.0,K,A*3C

1614163619000,$GPGSV,3,1,10,10,15,314,24,12,30,225,38,13,44,150,39,14,19,052,24*71

1614163619000,$GPGSV,3,2,10,15,64,213,37,17,39,080,34,19,38,114,36,20,18,278,24*7A

1614163619000,$GPGSV,3,3,10,23,23,281,31,24,60,298,34*75

1614163619000,$GLGSV,2,1,07,71,39,200,29,72,55,281,32,73,54,037,27,74,56,289,33*6C

1614163619000,$GLGSV,2,2,07,75,08,259,20,82,19,034,23,83,22,083,22*50

1614163619000,$GAGSV,2,1,05,101,26,242,34,104,25,313,26,119,64,240,23,121,77,263,34*60

1614163619000,$GAGSV,2,2,05,127,44,055,28*63

1614163619000,$BDGSV,2,1,06,219,36,222,42,222,36,290,26,227,25,109,27,230,06,157,34*60

1614163619000,$BDGSV,2,2,06,236,45,273,35,237,22,075,25*6B

1614163619000,$GPGSA,A,3,15,24,13,17,19,12,14,20,10,,,,1.0,0.4,0.8*34

1614163619000,$GNGSA,A,3,71,72,73,74,82,83,,,,,,,1.0,0.4,0.8*24

1614163619000,$GAGSA,A,3,101,119,121,127,,,,,,,,,1.0,0.4,0.8*21

1614163619000,$BDGSA,A,3,219,222,227,230,236,,,,,,,,1.0,0.4,0.8*17

1614163619000,$GPRMC,104659.000,A,4540.3680,N,01156.0186,E,0.0,23.0,240221,,,A*53

1614163619000,$PSAMCLK,2146,29803700,24,9747608,3155829,298037000*7E

1614163620000,$PSAMCLK,2146,29803800,23,9747555,3217702,298038000*71

1614163620000,$GPGGA,104700.000,4540.3680,N,01156.0186,E,1,23,0.4,42.3,M,47.1,M,,*68

1614163620000,$PSAMSA,104700.000,4540.3680,N,01156.0186,E,1,M,,*6E

1614163620000,$GPGLL,4540.3680,N,01156.0186,E,104700.000,A,A*5F

1614163620000,$GPVTG,23.0,T,,M,0.0,N,0.0,K,A*3C

1614163620000,$GPGSV,3,1,10,10,15,314,24,12,30,225,38,13,44,150,39,14,19,052,24*71

1614163620000,$GPGSV,3,2,10,15,64,213,37,17,39,080,34,19,38,114,36,20,18,278,23*7D

1614163620000,$GPGSV,3,3,10,23,23,281,31,24,60,298,34*75

1614163620000,$GLGSV,2,1,07,71,39,200,29,72,55,281,32,73,54,037,26,74,56,289,33*6D

1614163620000,$GLGSV,2,2,07,75,08,259,20,82,19,034,22,83,22,083,22*51

1614163620000,$GAGSV,2,1,05,101,26,242,34,104,25,313,27,119,64,240,23,121,77,263,34*61

1614163620000,$GAGSV,2,2,05,127,44,055,28*63

1614163620000,$BDGSV,2,1,06,219,36,222,42,222,36,290,26,227,25,109,26,230,06,157,34*61

1614163620000,$BDGSV,2,2,06,236,45,273,35,237,22,075,25*6B

1614163620000,$GPGSA,A,3,15,24,13,17,19,12,14,20,10,,,,1.0,0.4,0.8*34

1614163620000,$GNGSA,A,3,71,72,73,74,83,,,,,,,,1.0,0.4,0.8*2E

1614163620000,$GAGSA,A,3,101,119,121,127,,,,,,,,,1.0,0.4,0.8*21

1614163620000,$BDGSA,A,3,219,222,227,230,236,,,,,,,,1.0,0.4,0.8*17

1614163620000,$GPRMC,104700.000,A,4540.3680,N,01156.0186,E,0.0,23.0,240221,,,A*5E

1614163620000,$PSAMCLK,2146,29803800,23,9747555,3217702,298038000*71

1614163621000,$PSAMCLK,2146,29803900,22,9747502,3279575,298039000*78

1614163621000,$GPGGA,104701.000,4540.3680,N,01156.0186,E,1,22,0.4,42.3,M,47.1,M,,*68

1614163621000,$PSAMSA,104701.000,4540.3680,N,01156.0186,E,1,M,,*6F

1614163621000,$GPGLL,4540.3680,N,01156.0186,E,104701.000,A,A*5E

1614163621000,$GPVTG,23.0,T,,M,0.0,N,0.0,K,A*3C

1614163621000,$GPGSV,3,1,10,10,15,314,24,12,31,226,38,13,44,150,38,14,19,052,24*72

1614163621000,$GPGSV,3,2,10,15,64,213,37,17,39,080,34,19,38,114,36,20,18,278,23*7D

1614163621000,$GPGSV,3,3,10,23,23,281,31,24,60,298,34*75

1614163621000,$GLGSV,2,1,07,71,39,200,29,72,55,281,32,73,54,037,26,74,56,289,33*6D

1614163621000,$GLGSV,2,2,07,75,08,259,20,82,19,034,22,83,22,083,22*51

1614163621000,$GAGSV,2,1,05,101,26,242,34,104,25,313,27,119,64,240,22,121,77,263,34*60

1614163621000,$GAGSV,2,2,05,127,44,055,28*63

1614163621000,$BDGSV,2,1,06,219,36,222,42,222,36,290,26,227,25,109,26,230,06,157,34*61

1614163621000,$BDGSV,2,2,06,236,45,273,35,237,22,075,25*6B

1614163621000,$GPGSA,A,3,15,24,13,17,19,12,14,20,10,,,,1.0,0.4,0.8*34

1614163621000,$GNGSA,A,3,71,72,74,82,83,,,,,,,,1.0,0.4,0.8*20

1614163621000,$GAGSA,A,3,101,121,127,,,,,,,,,,1.0,0.4,0.8*18

