# 2021 02 03 12:07:43
#
# Version: 10 Manufacturer: Xiaomi Make: Redmi Note 8T
#
1612350463551,$GPGSV,3,1,11,05,15,199,25,12,02,213,20,13,75,130,41,14,45,054,38,1*6B

1612350463551,$GPGSV,3,2,11,15,61,291,39,17,25,113,46,19,14,136,25,20,19,307,28,1*6C

1612350463551,$GPGSV,3,3,11,23,21,310,29,24,33,275,34,28,52,059,32,1*5E

1612350463551,$GLGSV,2,1,07,66,71,236,42,77,30,247,29,76,74,320,33,65,18,165,33,1*79

1612350463551,$GLGSV,2,2,07,84,10,016,14,85,11,073,27,67,33,322,37,1*4A

1612350463551,$GBGSV,2,1,06,37,00,000,27,28,00,000,26,20,31,184,38,19,00,000,45,1*73

1612350463551,$GBGSV,2,2,06,10,26,050,35,05,18,123,34,1*7D

1612350463577,$GNGSA,A,3,05,13,14,15,17,19,20,23,24,28,30,,1.0,0.7,0.7,1*34

1612350463577,$GNGSA,A,3,65,67,76,77,85,,,,,,,,1.0,0.7,0.7,2*3D

1612350463577,$GNGSA,A,3,05,10,,,,,,,,,,,1.0,0.7,0.7,4*31

1612350463577,$GNVTG,,T,,M,0.0,N,0.0,K,A*3D

1612350463577,$GNDTM,P90,,0000.000026,S,00000.000000,E,0.978,W84*5C

1612350463577,$GNRMC,110743.00,A,4540.363805,N,01156.020341,E,0.0,,030221,0.6,E,A,V*72

1612350463577,$GNGNS,110743.00,4540.363805,N,01156.020341,E,AANANN,18,0.7,41.4,46.3,,,V*1A

1612350463577,$GNGGA,110743.00,4540.363805,N,01156.020341,E,1,12,0.7,41.4,M,46.3,M,,*4F

1612350464551,$GPGSV,3,1,12,05,15,199,25,12,02,213,21,13,75,130,42,14,45,054,39,1*6B

1612350464551,$GPGSV,3,2,12,15,61,291,42,17,25,113,41,19,14,136,34,20,19,307,30,1*6D

1612350464551,$GPGSV,3,3,12,23,21,310,32,24,33,275,40,28,52,059,35,30,20,078,29,1*66

1612350464551,$GLGSV,2,1,07,66,71,236,44,77,30,247,31,76,74,320,31,65,18,165,34,1*73

1612350464551,$GLGSV,2,2,07,84,10,016,14,85,11,073,22,67,33,322,39,1*41

1612350464551,$GBGSV,2,1,06,37,00,000,35,28,00,000,34,20,31,184,39,19,00,000,46,1*71

1612350464551,$GBGSV,2,2,06,10,26,050,33,05,18,123,27,1*79

1612350464581,$GNGSA,A,3,05,13,14,15,17,19,20,23,24,28,30,,1.0,0.7,0.7,1*34

1612350464581,$GNGSA,A,3,67,76,77,85,,,,,,,,,1.0,0.7,0.7,2*3E

1612350464581,$GNGSA,A,3,05,10,,,,,,,,,,,1.0,0.7,0.7,4*31

1612350464581,$GNVTG,,T,,M,0.0,N,0.0,K,A*3D

1612350464581,$GNDTM,P90,,0000.000026,S,00000.000000,E,0.978,W84*5C

1612350464581,$GNRMC,110744.00,A,4540.363804,N,01156.020343,E,0.0,,030221,0.6,E,A,V*76

1612350464581,$GNGNS,110744.00,4540.363804,N,01156.020343,E,AANANN,17,0.7,41.4,46.3,,,V*11

1612350464581,$GNGGA,110744.00,4540.363804,N,01156.020343,E,1,12,0.7,41.4,M,46.3,M,,*4B

1612350465558,$GPGSV,3,1,11,12,02,213,21,13,75,130,39,14,45,054,41,15,61,291,45,1*64

1612350465558,$GPGSV,3,2,11,17,25,113,38,19,14,136,35,20,19,307,27,23,21,310,35,1*6E

1612350465558,$GPGSV,3,3,11,24,33,275,39,28,52,059,40,30,20,078,33,1*53

1612350465558,$GLGSV,2,1,07,66,71,236,42,77,30,247,32,76,74,320,35,65,18,165,35,1*73

1612350465558,$GLGSV,2,2,07,84,10,016,14,85,11,073,29,67,33,322,39,1*4A

1612350465558,$GBGSV,2,1,06,37,00,000,39,28,00,000,35,20,31,184,40,19,00,000,47,1*73

1612350465558,$GBGSV,2,2,06,10,26,050,34,05,18,123,27,1*7E

1612350465580,$GNGSA,A,3,05,13,14,15,17,19,20,23,24,28,30,,0.9,0.6,0.7,1*3D

1612350465580,$GNGSA,A,3,67,76,77,85,,,,,,,,,0.9,0.6,0.7,2*37

1612350465580,$GNGSA,A,3,05,10,19,20,,,,,,,,,0.9,0.6,0.7,4*32

1612350465580,$GNVTG,,T,,M,0.0,N,0.0,K,A*3D

1612350465580,$GNDTM,P90,,0000.000026,S,00000.000000,E,0.978,W84*5C

1612350465580,$GNRMC,110745.00,A,4540.363803,N,01156.020343,E,0.0,,030221,0.6,E,A,V*70

1612350465580,$GNGNS,110745.00,4540.363803,N,01156.020343,E,AANANN,19,0.6,41.4,46.3,,,V*18

1612350465580,$GNGGA,110745.00,4540.363803,N,01156.020343,E,1,12,0.6,41.4,M,46.3,M,,*4C

1612350466559,$GPGSV,3,1,12,05,15,199,23,12,02,213,21,13,75,130,38,14,45,054,40,1*6E

1612350466559,$GPGSV,3,2,12,15,61,291,46,17,25,113,36,19,14,136,32,20,19,307,30,1*6F

1612350466559,$GPGSV,3,3,12,23,21,310,33,24,33,275,39,28,52,059,39,30,20,078,32,1*6F

1612350466559,$GLGSV,2,1,07,66,71,236,43,77,30,247,32,76,74,320,35,65,18,165,35,1*72

1612350466559,$GLGSV,2,2,07,84,10,016,14,85,11,073,35,67,33,322,38,1*46

1612350466559,$GBGSV,2,1,06,37,00,000,30,28,00,000,40,20,31,184,41,19,00,000,48,1*76

1612350466559,$GBGSV,2,2,06,10,26,050,26,05,18,123,27,1*7D

1612350466584,$GNGSA,A,3,13,14,15,17,19,20,23,24,28,30,,,1.0,0.7,0.7,1*31

1612350466584,$GNGSA,A,3,67,76,77,85,,,,,,,,,1.0,0.7,0.7,2*3E

1612350466584,$GNGSA,A,3,05,10,19,20,,,,,,,,,1.0,0.7,0.7,4*3B

1612350466584,$GNVTG,,T,,M,0.0,N,0.0,K,A*3D

1612350466584,$GNDTM,P90,,0000.000026,S,00000.000000,E,0.978,W84*5C

1612350466584,$GNRMC,110746.00,A,4540.363799,N,01156.020340,E,0.0,,030221,0.6,E,A,V*7C

1612350466584,$GNGNS,110746.00,4540.363799,N,01156.020340,E,AANANN,18,0.7,41.4,46.3,,,V*14

1612350466584,$GNGGA,110746.00,4540.363799,N,01156.020340,E,1,12,0.7,41.4,M,46.3,M,,*41

1612350467553,$GPGSV,3,1,11,05,15,199,23,12,02,213,21,13,75,130,39,14,45,054,38,1*63

1612350467553,$GPGSV,3,2,11,15,61,291,46,17,25,113,34,19,14,136,33,20,19,307,34,1*6B

1612350467553,$GPGSV,3,3,11,23,21,310,34,24,33,275,40,28,52,059,37,1*54

1612350467553,$GLGSV,2,1,07,66,71,236,42,77,30,247,31,76,74,320,38,65,18,165,38,1*70

1612350467553,$GLGSV,2,2,07,84,10,016,14,85,11,073,31,67,33,322,35,1*4F

1612350467553,$GBGSV,2,1,06,37,00,000,36,28,00,000,34,20,31,184,38,19,00,000,47,1*72

1612350467553,$GBGSV,2,2,06,10,26,050,31,05,18,123,29,1*75

1612350467568,$GNGSA,A,3,13,14,15,17,19,20,23,24,28,30,,,1.0,0.7,0.7,1*31

1612350467568,$GNGSA,A,3,67,76,77,85,,,,,,,,,1.0,0.7,0.7,2*3E

1612350467568,$GNGSA,A,3,05,10,19,20,,,,,,,,,1.0,0.7,0.7,4*3B

1612350467568,$GNVTG,,T,,M,0.0,N,0.0,K,A*3D

1612350467568,$GNDTM,P90,,0000.000026,S,00000.000000,E,0.978,W84*5C

1612350467568,$GNRMC,110747.00,A,4540.363795,N,01156.020336,E,0.0,,030221,0.6,E,A,V*70

1612350467568,$GNGNS,110747.00,4540.363795,N,01156.020336,E,AANANN,18,0.7,41.4,46.3,,,V*18

1612350467568,$GNGGA,110747.00,4540.363795,N,01156.020336,E,1,12,0.7,41.4,M,46.3,M,,*4D

1612350468560,$GPGSV,3,1,12,05,15,199,22,12,02,213,21,13,75,130,40,14,45,054,37,1*60

1612350468560,$GPGSV,3,2,12,15,61,291,44,17,25,113,34,19,14,136,36,20,19,307,36,1*6D

1612350468560,$GPGSV,3,3,12,23,21,310,31,24,33,275,40,28,52,059,36,30,20,078,33,1*6D

1612350468560,$GLGSV,2,1,07,66,71,236,44,77,30,247,32,76,74,320,40,65,18,165,38,1*7A

1612350468560,$GLGSV,2,2,07,84,10,016,14,85,11,073,24,67,33,322,33,1*4D

1612350468560,$GBGSV,2,1,06,37,00,000,38,28,00,000,31,20,31,184,39,19,00,000,48,1*77

1612350468560,$GBGSV,2,2,06,10,26,050,30,05,18,123,37,1*7B

1612350468586,$GNGSA,A,3,13,14,15,17,19,20,23,24,28,30,,,1.0,0.7,0.7,1*31

1612350468586,$GNGSA,A,3,67,76,77,85,,,,,,,,,1.0,0.7,0.7,2*3E

1612350468586,$GNGSA,A,3,05,10,19,20,,,,,,,,,1.0,0.7,0.7,4*3B

1612350468586,$GNVTG,,T,,M,0.0,N,0.0,K,A*3D

1612350468586,$GNDTM,P90,,0000.000026,S,00000.000000,E,0.978,W84*5C

1612350468586,$GNRMC,110748.00,A,4540.363796,N,01156.020334,E,0.0,,030221,0.6,E,A,V*7E

1612350468586,$GNGNS,110748.00,4540.363796,N,01156.020334,E,AANANN,18,0.7,41.4,46.3,,,V*16

1612350468586,$GNGGA,110748.00,4540.363796,N,01156.020334,E,1,12,0.7,41.4,M,46.3,M,,*43

1612350469555,$GPGSV,3,1,12,05,15,199,26,12,02,213,21,13,75,130,39,14,45,054,38,1*65

1612350469555,$GPGSV,3,2,12,15,61,291,43,17,25,113,34,19,14,136,37,20,19,307,36,1*6B

1612350469555,$GPGSV,3,3,12,23,21,310,28,24,33,275,40,28,52,059,37,30,20,078,32,1*65

1612350469555,$GLGSV,2,1,07,66,71,236,44,77,30,247,31,76,74,320,40,65,18,165,34,1*75

1612350469555,$GLGSV,2,2,07,84,10,016,14,85,11,073,27,67,33,322,32,1*4F

1612350469555,$GBGSV,2,1,06,37,00,000,35,28,00,000,33,20,31,184,42,19,00,000,48,1*74

1612350469555,$GBGSV,2,2,06,10,26,050,32,05,18,123,36,1*78

1612350469573,$GNGSA,A,3,05,13,14,15,17,19,20,23,24,28,30,,0.9,0.6,0.7,1*3D

1612350469573,$GNGSA,A,3,67,76,77,85,,,,,,,,,0.9,0.6,0.7,2*37

1612350469573,$GNGSA,A,3,05,10,19,20,,,,,,,,,0.9,0.6,0.7,4*32

1612350469573,$GNVTG,,T,,M,0.0,N,0.0,K,A*3D

1612350469573,$GNDTM,P90,,0000.000026,S,00000.000000,E,0.978,W84*5C

1612350469573,$GNRMC,110749.00,A,4540.363797,N,01156.020334,E,0.0,,030221,0.6,E,A,V*7E

1612350469573,$GNGNS,110749.00,4540.363797,N,01156.020334,E,AANANN,19,0.6,41.4,46.3,,,V*16

1612350469573,$GNGGA,110749.00,4540.363797,N,01156.020334,E,1,12,0.6,41.4,M,46.3,M,,*42

1612350470559,$GPGSV,3,1,11,05,15,199,27,13,75,130,39,14,45,054,37,15,61,291,43,1*64

1612350470559,$GPGSV,3,2,11,17,25,113,33,19,14,136,35,20,19,307,36,23,21,310,32,1*62

1612350470559,$GPGSV,3,3,11,24,33,275,42,28,52,059,38,30,20,078,31,1*52

1612350470559,$GLGSV,2,1,07,66,71,236,43,77,30,247,30,76,74,320,39,65,18,165,37,1*7E

1612350470559,$GLGSV,2,2,07,84,10,016,14,85,11,073,28,67,33,322,32,1*40

1612350470559,$GBGSV,2,1,06,37,00,000,38,28,00,000,34,20,31,184,42,19,00,000,47,1*71

1612350470559,$GBGSV,2,2,06,10,26,050,34,05,18,123,32,1*7A

1612350470581,$GNGSA,A,3,05,13,14,15,17,19,20,23,24,28,30,,0.9,0.6,0.7,1*3D

1612350470581,$GNGSA,A,3,67,76,77,85,,,,,,,,,0.9,0.6,0.7,2*37

1612350470581,$GNGSA,A,3,05,10,19,20,,,,,,,,,0.9,0.6,0.7,4*32

1612350470581,$GNVTG,,T,,M,0.0,N,0.0,K,A*3D

1612350470581,$GNDTM,P90,,0000.000026,S,00000.000000,E,0.978,W84*5C

1612350470581,$GNRMC,110750.00,A,4540.363798,N,01156.020333,E,0.0,,030221,0.6,E,A,V*7E

1612350470581,$GNGNS,110750.00,4540.363798,N,01156.020333,E,AANANN,19,0.6,41.4,46.3,,,V*16

1612350470581,$GNGGA,110750.00,4540.363798,N,01156.020333,E,1,12,0.6,41.4,M,46.3,M,,*42

1612350471552,$GPGSV,3,1,10,05,15,199,23,13,75,130,39,14,45,054,39,15,61,291,41,1*6D

1612350471552,$GPGSV,3,2,10,17,25,113,34,19,14,136,35,23,21,310,26,24,33,275,41,1*69

1612350471552,$GPGSV,3,3,10,28,52,059,37,30,20,078,30,1*6D

1612350471552,$GLGSV,2,1,07,66,71,236,44,77,30,247,31,76,74,320,39,65,18,165,35,1*7A

1612350471552,$GLGSV,2,2,07,84,10,016,14,85,11,073,36,67,33,322,39,1*44

1612350471552,$GBGSV,2,1,06,37,00,000,31,28,00,000,33,20,31,184,42,19,00,000,47,1*7F

1612350471552,$GBGSV,2,2,06,10,26,050,27,05,18,123,35,1*7F

1612350471579,$GNGSA,A,3,05,13,14,15,17,19,20,23,24,28,30,,0.9,0.6,0.7,1*3D

1612350471579,$GNGSA,A,3,67,76,77,85,,,,,,,,,0.9,0.6,0.7,2*37

1612350471579,$GNGSA,A,3,05,10,19,20,,,,,,,,,0.9,0.6,0.7,4*32

1612350471579,$GNVTG,,T,,M,0.0,N,0.0,K,A*3D

1612350471579,$GNDTM,P90,,0000.000026,S,00000.000000,E,0.978,W84*5C

1612350471579,$GNRMC,110751.00,A,4540.363798,N,01156.020331,E,0.0,,030221,0.6,E,A,V*7D

1612350471579,$GNGNS,110751.00,4540.363798,N,01156.020331,E,AANANN,19,0.6,41.4,46.3,,,V*15

1612350471579,$GNGGA,110751.00,4540.363798,N,01156.020331,E,1,12,0.6,41.4,M,46.3,M,,*41

1612350472560,$GPGSV,3,1,10,05,15,199,25,13,75,130,41,14,45,054,38,15,61,291,30,1*63

1612350472560,$GPGSV,3,2,10,17,25,113,36,19,14,136,30,23,21,310,25,24,33,275,40,1*6C

1612350472560,$GPGSV,3,3,10,28,52,059,39,30,20,078,31,1*62

1612350472560,$GLGSV,2,1,07,66,71,236,44,77,30,247,26,76,74,320,39,65,18,165,32,1*7B

1612350472560,$GLGSV,2,2,07,84,10,016,14,85,11,073,35,67,33,322,36,1*48

1612350472560,$GBGSV,2,1,06,37,00,000,31,28,00,000,37,20,31,184,43,19,00,000,47,1*7A

1612350472560,$GBGSV,2,2,06,10,26,050,26,05,18,123,37,1*7C

1612350472575,$GNGSA,A,3,05,13,14,15,17,19,20,23,24,28,30,,0.9,0.6,0.7,1*3D

1612350472575,$GNGSA,A,3,67,76,77,85,,,,,,,,,0.9,0.6,0.7,2*37

1612350472575,$GNGSA,A,3,05,10,19,20,,,,,,,,,0.9,0.6,0.7,4*32

1612350472575,$GNVTG,,T,,M,0.0,N,0.0,K,A*3D

1612350472575,$GNDTM,P90,,0000.000026,S,00000.000000,E,0.978,W84*5C

1612350472575,$GNRMC,110752.00,A,4540.363799,N,01156.020327,E,0.0,,030221,0.6,E,A,V*78

1612350472575,$GNGNS,110752.00,4540.363799,N,01156.020327,E,AANANN,19,0.6,41.4,46.3,,,V*10

1612350472575,$GNGGA,110752.00,4540.363799,N,01156.020327,E,1,12,0.6,41.4,M,46.3,M,,*44

1612350473559,$GPGSV,3,1,11,05,15,199,22,13,75,130,42,14,45,054,41,15,61,291,34,1*6C

1612350473559,$GPGSV,3,2,11,17,25,113,34,19,14,136,32,20,19,307,26,23,21,310,28,1*68

1612350473559,$GPGSV,3,3,11,24,33,275,39,28,52,059,38,30,20,078,35,1*5A

1612350473559,$GLGSV,2,1,07,66,71,236,44,77,30,247,28,76,74,320,39,65,18,165,28,1*7E

1612350473559,$GLGSV,2,2,07,84,10,016,14,85,11,073,38,67,33,322,38,1*4B

1612350473559,$GBGSV,2,1,06,37,00,000,25,28,00,000,31,20,31,184,43,19,00,000,47,1*79

1612350473559,$GBGSV,2,2,06,10,26,050,24,05,18,123,34,1*7D

1612350473582,$GNGSA,A,3,05,13,14,15,17,19,20,23,24,28,30,,0.9,0.6,0.7,1*3D

1612350473582,$GNGSA,A,3,67,76,77,85,,,,,,,,,0.9,0.6,0.7,2*37

1612350473582,$GNGSA,A,3,05,10,19,20,,,,,,,,,0.9,0.6,0.7,4*32

1612350473582,$GNVTG,,T,,M,0.0,N,0.0,K,A*3D

1612350473582,$GNDTM,P90,,0000.000026,S,00000.000000,E,0.978,W84*5C

1612350473582,$GNRMC,110753.00,A,4540.363800,N,01156.020321,E,0.0,,030221,0.6,E,A,V*70

1612350473582,$GNGNS,110753.00,4540.363800,N,01156.020321,E,AANANN,19,0.6,41.4,46.3,,,V*18

1612350473582,$GNGGA,110753.00,4540.363800,N,01156.020321,E,1,12,0.6,41.4,M,46.3,M,,*4C

1612350474558,$GPGSV,3,1,12,05,15,199,22,12,02,213,19,13,75,130,40,14,45,054,39,1*65

1612350474558,$GPGSV,3,2,12,15,61,291,36,17,25,113,32,19,14,136,33,20,19,307,27,1*6B

1612350474558,$GPGSV,3,3,12,23,21,310,29,24,33,275,37,28,52,059,38,30,20,078,30,1*69

1612350474558,$GLGSV,2,1,07,66,71,236,43,77,30,247,27,76,74,320,41,65,18,165,30,1*70

1612350474558,$GLGSV,2,2,07,84,10,016,14,85,11,073,39,67,33,322,37,1*45

1612350474558,$GBGSV,2,1,06,37,00,000,23,28,00,000,37,20,31,184,43,19,00,000,47,1*79

1612350474558,$GBGSV,2,2,06,10,26,050,26,05,18,123,34,1*7F

1612350474579,$GNGSA,A,3,05,13,14,15,17,19,20,23,24,28,30,,0.9,0.6,0.7,1*3D

1612350474579,$GNGSA,A,3,67,76,77,85,,,,,,,,,0.9,0.6,0.7,2*37

1612350474579,$GNGSA,A,3,05,10,19,20,,,,,,,,,0.9,0.6,0.7,4*32

1612350474579,$GNVTG,,T,,M,0.0,N,0.0,K,A*3D

1612350474579,$GNDTM,P90,,0000.000026,S,00000.000000,E,0.978,W84*5C

1612350474579,$GNRMC,110754.00,A,4540.363799,N,01156.020318,E,0.0,,030221,0.6,E,A,V*72

1612350474579,$GNGNS,110754.00,4540.363799,N,01156.020318,E,AANANN,19,0.6,41.4,46.3,,,V*1A

1612350474579,$GNGGA,110754.00,4540.363799,N,01156.020318,E,1,12,0.6,41.4,M,46.3,M,,*4E

1612350475551,$GPGSV,3,1,12,05,15,199,22,12,02,213,19,13,75,130,39,14,45,054,39,1*6B

1612350475551,$GPGSV,3,2,12,15,61,291,38,17,25,113,33,19,14,136,32,20,19,307,25,1*67

1612350475551,$GPGSV,3,3,12,23,21,310,28,24,33,275,38,28,52,059,37,30,20,078,25,1*6C

1612350475551,$GLGSV,2,1,07,66,71,236,44,77,30,247,27,76,74,320,37,65,18,165,32,1*74

1612350475551,$GLGSV,2,2,07,84,10,016,14,85,11,073,39,67,33,322,35,1*47

1612350475551,$GBGSV,2,1,06,37,00,000,31,28,00,000,36,20,31,184,44,19,00,000,47,1*7C

1612350475551,$GBGSV,2,2,06,10,26,050,27,05,18,123,34,1*7E

1612350475580,$GNGSA,A,3,05,13,14,15,17,19,20,23,24,28,30,,0.9,0.6,0.7,1*3D

1612350475580,$GNGSA,A,3,67,76,77,85,,,,,,,,,0.9,0.6,0.7,2*37

1612350475580,$GNGSA,A,3,05,10,19,20,,,,,,,,,0.9,0.6,0.7,4*32

1612350475580,$GNVTG,,T,,M,0.0,N,0.0,K,A*3D

1612350475580,$GNDTM,P90,,0000.000026,S,00000.000000,E,0.978,W84*5C

1612350475580,$GNRMC,110755.00,A,4540.363798,N,01156.020316,E,0.0,,030221,0.6,E,A,V*7C

1612350475580,$GNGNS,110755.00,4540.363798,N,01156.020316,E,AANANN,19,0.6,41.4,46.3,,,V*14

1612350475580,$GNGGA,110755.00,4540.363798,N,01156.020316,E,1,12,0.6,41.4,M,46.3,M,,*40

1612350476554,$GPGSV,3,1,11,05,15,199,25,12,02,213,19,13,75,130,38,14,45,054,40,1*60

1612350476554,$GPGSV,3,2,11,15,61,291,46,17,25,113,33,19,14,136,34,20,19,307,27,1*69

1612350476554,$GPGSV,3,3,11,23,21,310,29,24,33,275,36,28,52,059,36,1*58

1612350476554,$GLGSV,2,1,07,66,71,236,45,77,30,247,28,76,74,320,35,65,18,165,36,1*7C

1612350476554,$GLGSV,2,2,07,84,10,016,14,85,11,073,39,67,33,322,33,1*41

1612350476554,$GBGSV,2,1,06,37,00,000,35,28,00,000,35,20,31,184,44,19,00,000,48,1*74

1612350476554,$GBGSV,2,2,06,10,26,050,25,05,18,123,33,1*7B

1612350476582,$GNGSA,A,3,05,13,14,15,17,19,20,23,24,28,30,,0.9,0.6,0.7,1*3D

1612350476582,$GNGSA,A,3,67,76,77,85,,,,,,,,,0.9,0.6,0.7,2*37

1612350476582,$GNGSA,A,3,05,10,19,20,,,,,,,,,0.9,0.6,0.7,4*32

1612350476582,$GNVTG,,T,,M,0.0,N,0.0,K,A*3D

1612350476582,$GNDTM,P90,,0000.000026,S,00000.000000,E,0.978,W84*5C

1612350476582,$GNRMC,110756.00,A,4540.363794,N,01156.020313,E,0.0,,030221,0.6,E,A,V*76

1612350476582,$GNGNS,110756.00,4540.363794,N,01156.020313,E,AANANN,19,0.6,41.4,46.3,,,V*1E

1612350476582,$GNGGA,110756.00,4540.363794,N,01156.020313,E,1,12,0.6,41.4,M,46.3,M,,*4A

1612350477556,$GPGSV,3,1,11,05,15,199,24,12,02,213,19,13,75,130,38,14,45,054,41,1*60

1612350477556,$GPGSV,3,2,11,15,61,291,45,17,25,113,30,19,14,136,35,20,19,307,29,1*66

1612350477556,$GPGSV,3,3,11,23,21,310,32,24,33,275,34,28,52,059,36,1*50

1612350477556,$GLGSV,2,1,07,66,71,236,44,77,30,247,27,76,74,320,34,65,18,165,35,1*70

1612350477556,$GLGSV,2,2,07,84,10,016,14,85,11,073,39,67,33,322,32,1*40

1612350477556,$GBGSV,2,1,06,37,00,000,37,28,00,000,36,20,31,184,44,19,00,000,48,1*75

1612350477556,$GBGSV,2,2,06,10,26,050,27,05,18,123,33,1*79

1612350477583,$GNGSA,A,3,05,13,14,15,17,19,20,23,24,28,30,,0.9,0.6,0.7,1*3D

1612350477583,$GNGSA,A,3,67,76,77,85,,,,,,,,,0.9,0.6,0.7,2*37

1612350477583,$GNGSA,A,3,05,10,19,20,,,,,,,,,0.9,0.6,0.7,4*32

1612350477583,$GNVTG,,T,,M,0.0,N,0.0,K,A*3D

1612350477583,$GNDTM,P90,,0000.000026,S,00000.000000,E,0.978,W84*5C

1612350477583,$GNRMC,110757.00,A,4540.363791,N,01156.020310,E,0.0,,030221,0.6,E,A,V*71

1612350477583,$GNGNS,110757.00,4540.363791,N,01156.020310,E,AANANN,19,0.6,41.4,46.3,,,V*19

1612350477583,$GNGGA,110757.00,4540.363791,N,01156.020310,E,1,12,0.6,41.4,M,46.3,M,,*4D

1612350478552,$GPGSV,3,1,10,05,15,199,24,12,02,213,19,13,75,130,37,14,45,054,38,1*60

1612350478552,$GPGSV,3,2,10,15,61,291,45,17,25,113,34,19,14,136,35,23,21,310,31,1*64

1612350478552,$GPGSV,3,3,10,24,33,275,38,28,52,059,36,1*6C

1612350478552,$GLGSV,2,1,07,66,71,236,45,77,30,247,27,76,74,320,34,65,18,165,35,1*71

1612350478552,$GLGSV,2,2,07,84,10,016,14,85,11,073,34,67,33,322,33,1*4C

1612350478552,$GBGSV,2,1,06,37,00,000,36,28,00,000,39,20,31,184,43,19,00,000,49,1*7D

1612350478552,$GBGSV,2,2,06,10,26,050,30,05,18,123,31,1*7D

1612350478567,$GNGSA,A,3,05,13,14,15,17,19,20,23,24,28,30,,0.9,0.6,0.7,1*3D

1612350478567,$GNGSA,A,3,67,76,77,85,,,,,,,,,0.9,0.6,0.7,2*37

1612350478567,$GNGSA,A,3,05,10,19,20,,,,,,,,,0.9,0.6,0.7,4*32

1612350478567,$GNVTG,,T,,M,0.0,N,0.0,K,A*3D

1612350478567,$GNDTM,P90,,0000.000026,S,00000.000000,E,0.978,W84*5C

1612350478567,$GNRMC,110758.00,A,4540.363788,N,01156.020309,E,0.0,,030221,0.6,E,A,V*7E

1612350478567,$GNGNS,110758.00,4540.363788,N,01156.020309,E,AANANN,19,0.6,41.4,46.3,,,V*16

1612350478567,$GNGGA,110758.00,4540.363788,N,01156.020309,E,1,12,0.6,41.4,M,46.3,M,,*42

1612350479551,$GPGSV,3,1,10,05,15,199,24,13,75,130,38,14,45,054,38,15,61,291,45,1*6E

1612350479551,$GPGSV,3,2,10,17,25,113,27,19,14,136,33,23,21,310,29,24,33,275,40,1*63

1612350479551,$GPGSV,3,3,10,28,52,059,37,30,20,078,30,1*6D

1612350479551,$GLGSV,2,1,07,66,71,236,44,77,30,247,25,76,74,320,35,65,18,165,35,1*73

1612350479551,$GLGSV,2,2,07,84,10,016,14,85,11,073,32,67,33,322,34,1*4D

1612350479551,$GBGSV,2,1,06,37,00,000,36,28,00,000,40,20,31,184,43,19,00,000,48,1*72

1612350479551,$GBGSV,2,2,06,10,26,050,30,05,18,123,32,1*7E

1612350479577,$GNGSA,A,3,05,13,14,15,17,19,20,23,24,28,30,,0.9,0.6,0.7,1*3D

1612350479577,$GNGSA,A,3,67,76,77,85,,,,,,,,,0.9,0.6,0.7,2*37

1612350479577,$GNGSA,A,3,05,10,19,20,,,,,,,,,0.9,0.6,0.7,4*32

1612350479577,$GNVTG,,T,,M,0.0,N,0.0,K,A*3D

1612350479577,$GNDTM,P90,,0000.000026,S,00000.000000,E,0.978,W84*5C

1612350479577,$GNRMC,110759.00,A,4540.363788,N,01156.020308,E,0.0,,030221,0.6,E,A,V*7E

1612350479577,$GNGNS,110759.00,4540.363788,N,01156.020308,E,AANANN,19,0.6,41.4,46.3,,,V*16

1612350479577,$GNGGA,110759.00,4540.363788,N,01156.020308,E,1,12,0.6,41.4,M,46.3,M,,*42

1612350480559,$GPGSV,3,1,11,05,15,199,24,13,75,130,37,14,45,054,38,15,61,291,44,1*61

1612350480559,$GPGSV,3,2,11,17,25,113,31,19,14,136,36,20,19,307,26,23,21,310,30,1*60

1612350480559,$GPGSV,3,3,11,24,33,275,37,28,52,059,36,30,20,078,30,1*5F

1612350480559,$GLGSV,2,1,07,66,71,236,43,77,30,247,25,76,74,320,36,65,18,165,35,1*77

1612350480559,$GLGSV,2,2,07,84,10,016,14,85,11,073,31,67,33,322,35,1*4F

1612350480559,$GBGSV,2,1,06,37,00,000,36,28,00,000,39,20,31,184,44,19,00,000,48,1*7B

1612350480559,$GBGSV,2,2,06,10,26,050,31,05,18,123,34,1*79

1612350480581,$GNGSA,A,3,05,13,14,15,17,19,20,23,24,28,30,,0.9,0.6,0.7,1*3D

1612350480581,$GNGSA,A,3,67,76,77,85,,,,,,,,,0.9,0.6,0.7,2*37

1612350480581,$GNGSA,A,3,05,10,19,20,,,,,,,,,0.9,0.6,0.7,4*32

1612350480581,$GNVTG,,T,,M,0.0,N,0.0,K,A*3D

1612350480581,$GNDTM,P90,,0000.000026,S,00000.000000,E,0.978,W84*5C

1612350480581,$GNRMC,110800.00,A,4540.363788,N,01156.020307,E,0.0,,030221,0.6,E,A,V*72

1612350480581,$GNGNS,110800.00,4540.363788,N,01156.020307,E,AANANN,19,0.6,41.4,46.3,,,V*1A

1612350480581,$GNGGA,110800.00,4540.363788,N,01156.020307,E,1,12,0.6,41.4,M,46.3,M,,*4E

1612350481562,$GPGSV,3,1,11,05,15,199,24,12,02,213,23,13,75,130,40,14,45,054,39,1*69

1612350481562,$GPGSV,3,2,11,15,61,291,42,17,25,113,30,19,14,136,38,20,19,307,33,1*67

1612350481562,$GPGSV,3,3,11,23,21,310,31,24,33,275,34,28,52,059,29,1*5D

1612350481562,$GLGSV,2,1,07,66,71,236,41,77,30,247,28,76,74,320,34,65,18,165,33,1*7C

1612350481562,$GLGSV,2,2,07,84,10,016,14,85,11,073,37,67,33,322,31,1*4D

1612350481562,$GBGSV,2,1,06,37,00,000,31,28,00,000,43,20,31,184,44,19,00,000,47,1*7E

1612350481562,$GBGSV,2,2,06,10,26,050,25,05,18,123,36,1*7E

1612350481580,$GNGSA,A,3,05,13,14,15,17,19,20,23,24,28,30,,0.9,0.6,0.7,1*3D

1612350481580,$GNGSA,A,3,67,76,77,85,,,,,,,,,0.9,0.6,0.7,2*37

1612350481580,$GNGSA,A,3,05,10,19,20,,,,,,,,,0.9,0.6,0.7,4*32

1612350481580,$GNVTG,,T,,M,0.0,N,0.0,K,A*3D

1612350481580,$GNDTM,P90,,0000.000026,S,00000.000000,E,0.978,W84*5C

1612350481580,$GNRMC,110801.00,A,4540.363787,N,01156.020306,E,0.0,,030221,0.6,E,A,V*7D

1612350481580,$GNGNS,110801.00,4540.363787,N,01156.020306,E,AANANN,19,0.6,41.4,46.3,,,V*15

1612350481580,$GNGGA,110801.00,4540.363787,N,01156.020306,E,1,12,0.6,41.4,M,46.3,M,,*41

1612350482558,$GPGSV,3,1,12,05,15,199,24,12,02,213,23,13,75,130,39,14,45,054,37,1*6A

1612350482558,$GPGSV,3,2,12,15,61,291,44,17,25,113,32,19,14,136,36,20,19,307,33,1*6E

1612350482558,$GPGSV,3,3,12,23,21,310,31,24,33,275,32,28,52,059,30,30,20,078,36,1*6B

1612350482558,$GLGSV,2,1,06,66,71,236,41,77,30,247,25,76,74,320,34,65,18,165,36,1*75

1612350482558,$GLGSV,2,2,06,85,11,073,37,67,33,322,31,1*73

1612350482558,$GBGSV,2,1,06,37,00,000,29,28,00,000,42,20,31,184,45,19,00,000,47,1*77

1612350482558,$GBGSV,2,2,06,10,26,050,27,05,18,123,36,1*7C

1612350482580,$GNGSA,A,3,05,13,14,15,17,19,20,23,24,28,30,,0.9,0.6,0.7,1*3D

1612350482580,$GNGSA,A,3,67,76,77,85,,,,,,,,,0.9,0.6,0.7,2*37

1612350482580,$GNGSA,A,3,05,10,19,20,,,,,,,,,0.9,0.6,0.7,4*32

1612350482580,$GNVTG,,T,,M,0.0,N,0.0,K,A*3D

1612350482580,$GNDTM,P90,,0000.000026,S,00000.000000,E,0.978,W84*5C

1612350482580,$GNRMC,110802.00,A,4540.363597,N,01156.020169,E,0.0,,030221,0.6,E,A,V*76

1612350482580,$GNGNS,110802.00,4540.363597,N,01156.020169,E,AANANN,19,0.6,41.8,46.3,,,V*12

1612350482580,$GNGGA,110802.00,4540.363597,N,01156.020169,E,1,12,0.6,41.8,M,46.3,M,,*46

1612350483553,$GPGSV,3,1,10,13,75,130,40,14,45,054,37,15,61,291,44,17,25,113,35,1*6D

1612350483553,$GPGSV,3,2,10,19,14,136,38,20,19,307,32,23,21,310,29,24,33,275,32,1*65

1612350483553,$GPGSV,3,3,10,28,52,059,31,30,20,078,35,1*6E

1612350483553,$GLGSV,2,1,06,66,71,236,41,77,30,247,27,76,74,320,33,65,18,165,35,1*73

1612350483553,$GLGSV,2,2,06,85,11,073,35,67,33,322,31,1*71

1612350483553,$GBGSV,2,1,06,37,00,000,29,28,00,000,41,20,31,184,47,19,00,000,48,1*79

1612350483553,$GBGSV,2,2,06,10,26,050,29,05,18,123,36,1*72

1612350483566,$GNGSA,A,3,13,14,15,17,19,20,23,24,28,30,,,1.0,0.7,0.7,1*31

1612350483566,$GNGSA,A,3,67,76,77,85,,,,,,,,,1.0,0.7,0.7,2*3E

1612350483566,$GNGSA,A,3,05,10,19,20,,,,,,,,,1.0,0.7,0.7,4*3B

1612350483566,$GNVTG,,T,,M,0.0,N,0.0,K,A*3D

1612350483566,$GNDTM,P90,,0000.000026,S,00000.000000,E,0.978,W84*5C

1612350483566,$GNRMC,110803.00,A,4540.363521,N,01156.020150,E,0.0,,030221,0.6,E,A,V*70

1612350483566,$GNGNS,110803.00,4540.363521,N,01156.020150,E,AANANN,18,0.7,41.8,46.3,,,V*14

1612350483566,$GNGGA,110803.00,4540.363521,N,01156.020150,E,1,12,0.7,41.8,M,46.3,M,,*41

1612350484551,$GPGSV,3,1,12,05,15,199,22,12,02,213,24,13,75,130,40,14,45,054,37,1*65

1612350484551,$GPGSV,3,2,12,15,61,291,44,17,25,113,33,19,14,136,37,20,19,307,32,1*6F

1612350484551,$GPGSV,3,3,12,23,21,310,31,24,33,275,33,28,52,059,29,30,20,078,32,1*66

1612350484551,$GLGSV,2,1,06,66,71,236,41,77,30,247,26,76,74,320,34,65,18,165,35,1*75

1612350484551,$GLGSV,2,2,06,85,11,073,34,67,33,322,32,1*73

1612350484551,$GBGSV,2,1,05,28,00,000,42,20,31,184,46,19,00,000,48,10,26,050,30,1*74

1612350484551,$GBGSV,2,2,05,05,18,123,36,1*4A

1612350484566,$GNGSA,A,3,13,14,15,17,19,20,23,24,28,30,,,1.0,0.7,0.7,1*31

1612350484566,$GNGSA,A,3,66,67,76,77,85,,,,,,,,1.0,0.7,0.7,2*3E

1612350484566,$GNGSA,A,3,05,10,19,20,,,,,,,,,1.0,0.7,0.7,4*3B

1612350484566,$GNVTG,,T,,M,0.0,N,0.0,K,A*3D

1612350484566,$GNDTM,P90,,0000.000026,S,00000.000000,E,0.978,W84*5C

1612350484566,$GNRMC,110804.00,A,4540.363500,N,01156.020145,E,0.0,,030221,0.6,E,A,V*70

1612350484566,$GNGNS,110804.00,4540.363500,N,01156.020145,E,AANANN,19,0.7,41.8,46.3,,,V*15

1612350484566,$GNGGA,110804.00,4540.363500,N,01156.020145,E,1,12,0.7,41.8,M,46.3,M,,*41

1612350485560,$GPGSV,3,1,12,05,15,199,23,12,02,213,24,13,75,130,41,14,45,054,35,1*67

1612350485560,$GPGSV,3,2,12,15,61,291,45,17,25,113,34,19,14,136,36,20,19,307,32,1*68

1612350485560,$GPGSV,3,3,12,23,21,310,30,24,33,275,36,28,52,059,32,30,20,078,30,1*6A

1612350485560,$GLGSV,2,1,06,66,71,234,41,77,30,247,28,76,74,320,33,65,18,165,35,1*7E

1612350485560,$GLGSV,2,2,06,85,11,071,34,67,33,322,32,1*71

1612350485560,$GBGSV,2,1,05,28,00,000,41,20,31,184,46,19,00,000,48,10,26,050,32,1*75

1612350485560,$GBGSV,2,2,05,05,18,123,35,1*49

1612350485581,$GNGSA,A,3,13,14,15,17,19,20,23,24,28,30,,,1.0,0.7,0.7,1*31

1612350485581,$GNGSA,A,3,66,67,76,77,85,,,,,,,,1.0,0.7,0.7,2*3E

1612350485581,$GNGSA,A,3,05,10,19,20,,,,,,,,,1.0,0.7,0.7,4*3B

1612350485581,$GNVTG,,T,,M,0.0,N,0.0,K,A*3D

1612350485581,$GNDTM,P90,,0000.000026,S,00000.000000,E,0.978,W84*5C

1612350485581,$GNRMC,110805.00,A,4540.363493,N,01156.020146,E,0.0,,030221,0.6,E,A,V*79

1612350485581,$GNGNS,110805.00,4540.363493,N,01156.020146,E,AANANN,19,0.7,41.8,46.3,,,V*1C

1612350485581,$GNGGA,110805.00,4540.363493,N,01156.020146,E,1,12,0.7,41.8,M,46.3,M,,*48

1612350486553,$GPGSV,3,1,12,05,15,199,22,12,02,213,22,13,75,130,40,14,45,054,34,1*60

1612350486553,$GPGSV,3,2,12,15,61,291,43,17,25,113,31,19,14,136,35,20,19,307,31,1*6B

1612350486553,$GPGSV,3,3,12,23,21,310,29,24,33,275,35,28,52,059,32,30,20,078,33,1*62

1612350486553,$GLGSV,2,1,06,66,71,234,41,77,30,247,26,76,74,320,30,65,18,165,33,1*75

1612350486553,$GLGSV,2,2,06,85,11,071,33,67,33,322,31,1*75

1612350486553,$GBGSV,2,1,05,28,00,000,42,20,31,184,47,19,00,000,47,10,26,050,29,1*72

1612350486553,$GBGSV,2,2,05,05,18,123,37,1*4B

1612350486570,$GNGSA,A,3,13,14,15,17,19,20,23,24,28,30,,,1.0,0.7,0.7,1*31

1612350486570,$GNGSA,A,3,66,67,76,77,85,,,,,,,,1.0,0.7,0.7,2*3E

1612350486570,$GNGSA,A,3,05,10,19,20,,,,,,,,,1.0,0.7,0.7,4*3B

1612350486570,$GNVTG,,T,,M,0.0,N,0.0,K,A*3D

1612350486570,$GNDTM,P90,,0000.000026,S,00000.000000,E,0.978,W84*5C

1612350486570,$GNRMC,110806.00,A,4540.363492,N,01156.020146,E,0.0,,030221,0.6,E,A,V*7B

1612350486570,$GNGNS,110806.00,4540.363492,N,01156.020146,E,AANANN,19,0.7,41.8,46.3,,,V*1E

1612350486570,$GNGGA,110806.00,4540.363492,N,01156.020146,E,1,12,0.7,41.8,M,46.3,M,,*4A

1612350487557,$GPGSV,3,1,12,05,15,199,22,12,02,213,22,13,75,130,41,14,45,054,35,1*60

1612350487557,$GPGSV,3,2,12,15,61,291,44,17,25,113,31,19,14,136,36,20,19,307,31,1*6F

1612350487557,$GPGSV,3,3,12,23,21,310,29,24,33,275,33,28,52,059,34,30,20,078,33,1*62

1612350487557,$GLGSV,2,1,06,66,71,234,42,77,30,247,28,76,74,320,33,65,18,165,35,1*7D

1612350487557,$GLGSV,2,2,06,85,11,071,33,67,33,322,33,1*77

1612350487557,$GBGSV,2,1,05,28,00,000,41,20,31,184,46,19,00,000,47,10,26,050,29,1*70

1612350487557,$GBGSV,2,2,05,05,18,123,34,1*48

1612350487577,$GNGSA,A,3,13,14,15,17,19,20,23,24,28,30,,,1.0,0.7,0.7,1*31

1612350487577,$GNGSA,A,3,66,67,76,77,85,,,,,,,,1.0,0.7,0.7,2*3E

1612350487577,$GNGSA,A,3,05,10,19,20,,,,,,,,,1.0,0.7,0.7,4*3B

1612350487577,$GNVTG,,T,,M,0.0,N,0.0,K,A*3D

1612350487577,$GNDTM,P90,,0000.000026,S,00000.000000,E,0.978,W84*5C

1612350487577,$GNRMC,110807.00,A,4540.363490,N,01156.020145,E,0.0,,030221,0.6,E,A,V*7B

1612350487577,$GNGNS,110807.00,4540.363490,N,01156.020145,E,AANANN,19,0.7,41.8,46.3,,,V*1E

1612350487577,$GNGGA,110807.00,4540.363490,N,01156.020145,E,1,12,0.7,41.8,M,46.3,M,,*4A

1612350488563,$GPGSV,3,1,10,05,15,199,23,13,75,130,43,14,45,054,35,15,61,291,45,1*68

1612350488563,$GPGSV,3,2,10,17,25,113,35,19,14,136,33,20,19,307,30,23,21,310,29,1*6F

1612350488563,$GPGSV,3,3,10,24,33,275,35,28,52,059,33,1*64

1612350488563,$GLGSV,2,1,06,66,71,234,43,77,30,247,30,76,74,320,35,65,18,165,34,1*72

1612350488563,$GLGSV,2,2,06,85,11,071,33,67,33,322,34,1*70

1612350488563,$GBGSV,2,1,05,28,00,000,37,20,31,184,45,19,00,000,48,10,26,050,30,1*75

1612350488563,$GBGSV,2,2,05,05,18,123,34,1*48

1612350488583,$GNGSA,A,3,13,14,15,17,19,20,23,24,28,30,,,1.0,0.7,0.7,1*31

1612350488583,$GNGSA,A,3,66,67,76,77,85,,,,,,,,1.0,0.7,0.7,2*3E

1612350488583,$GNGSA,A,3,05,10,19,20,,,,,,,,,1.0,0.7,0.7,4*3B

1612350488583,$GNVTG,,T,,M,0.0,N,0.0,K,A*3D

1612350488583,$GNDTM,P90,,0000.000026,S,00000.000000,E,0.978,W84*5C

1612350488583,$GNRMC,110808.00,A,4540.363581,N,01156.020315,E,0.0,,030221,0.6,E,A,V*72

1612350488583,$GNGNS,110808.00,4540.363581,N,01156.020315,E,AANANN,19,0.7,41.6,46.3,,,V*19

1612350488583,$GNGGA,110808.00,4540.363581,N,01156.020315,E,1,12,0.7,41.6,M,46.3,M,,*4D

1612350489554,$GPGSV,3,1,11,05,15,199,30,13,75,130,40,14,45,054,39,15,61,291,44,1*65

1612350489554,$GPGSV,3,2,11,17,25,113,35,19,14,136,37,20,19,307,27,23,21,310,30,1*64

1612350489554,$GPGSV,3,3,11,24,33,275,35,28,52,059,34,30,20,078,34,1*5B

1612350489554,$GLGSV,2,1,06,66,71,234,44,77,30,247,29,76,74,320,32,65,18,165,34,1*7A

1612350489554,$GLGSV,2,2,06,85,11,071,37,67,33,322,33,1*73

1612350489554,$GBGSV,2,1,05,28,00,000,32,20,31,184,43,19,00,000,49,10,26,050,31,1*76

1612350489554,$GBGSV,2,2,05,05,18,123,34,1*48

1612350489580,$GNGSA,A,3,05,13,14,15,17,19,20,23,24,28,30,,0.9,0.6,0.7,1*3D

1612350489580,$GNGSA,A,3,66,67,76,77,85,,,,,,,,0.9,0.6,0.7,2*37

1612350489580,$GNGSA,A,3,05,10,19,20,,,,,,,,,0.9,0.6,0.7,4*32

1612350489580,$GNVTG,,T,,M,0.0,N,0.0,K,A*3D

1612350489580,$GNDTM,P90,,0000.000026,S,00000.000000,E,0.978,W84*5C

1612350489580,$GNRMC,110809.00,A,4540.363634,N,01156.020400,E,0.0,,030221,0.6,E,A,V*7D

1612350489580,$GNGNS,110809.00,4540.363634,N,01156.020400,E,AANANN,20,0.6,41.6,46.3,,,V*1D

1612350489580,$GNGGA,110809.00,4540.363634,N,01156.020400,E,1,12,0.6,41.6,M,46.3,M,,*43

1612350490562,$GPGSV,3,1,09,05,15,199,30,13,75,130,37,14,45,054,40,15,61,291,38,1*69

1612350490562,$GPGSV,3,2,09,17,25,113,30,19,14,136,34,23,21,310,27,24,33,275,32,1*61

1612350490562,$GPGSV,3,3,09,28,52,059,35,1*5A

1612350490562,$GLGSV,2,1,06,66,71,234,43,77,30,247,26,76,74,320,30,65,18,165,31,1*75

1612350490562,$GLGSV,2,2,06,85,11,071,29,67,33,322,33,1*7C

1612350490562,$GBGSV,2,1,05,28,00,000,37,20,31,184,46,19,00,000,47,10,26,050,25,1*7D

1612350490562,$GBGSV,2,2,05,05,18,123,30,1*4C

1612350490581,$GNGSA,A,3,05,13,14,15,17,19,20,23,24,28,30,,0.9,0.6,0.7,1*3D

1612350490581,$GNGSA,A,3,67,76,77,85,,,,,,,,,0.9,0.6,0.7,2*37

1612350490581,$GNGSA,A,3,05,10,19,20,,,,,,,,,0.9,0.6,0.7,4*32

1612350490581,$GNVTG,,T,,M,0.0,N,0.0,K,A*3D

1612350490581,$GNDTM,P90,,0000.000026,S,00000.000000,E,0.978,W84*5C

1612350490581,$GNRMC,110810.00,A,4540.363645,N,01156.020418,E,0.0,,030221,0.6,E,A,V*7A

1612350490581,$GNGNS,110810.00,4540.363645,N,01156.020418,E,AANANN,19,0.6,41.7,46.3,,,V*11

1612350490581,$GNGGA,110810.00,4540.363645,N,01156.020418,E,1,12,0.6,41.7,M,46.3,M,,*45

1612350491557,$GPGSV,3,1,11,05,15,199,30,13,75,130,40,14,45,054,38,15,61,291,40,1*60

1612350491557,$GPGSV,3,2,11,17,25,113,34,19,14,136,34,20,19,307,27,23,21,310,25,1*62

1612350491557,$GPGSV,3,3,11,24,33,275,32,28,52,059,34,30,20,078,31,1*59

1612350491557,$GLGSV,2,1,06,66,71,234,43,77,30,247,26,76,74,320,31,65,18,165,31,1*74

1612350491557,$GLGSV,2,2,06,85,11,071,30,67,33,322,30,1*77

1612350491557,$GBGSV,2,1,05,28,00,000,34,20,31,184,47,19,00,000,45,10,26,050,27,1*7F

1612350491557,$GBGSV,2,2,05,05,18,123,37,1*4B

1612350491570,$GNGSA,A,3,05,13,14,15,17,19,20,23,24,28,30,,0.9,0.6,0.7,1*3D

1612350491570,$GNGSA,A,3,67,76,77,85,,,,,,,,,0.9,0.6,0.7,2*37

1612350491570,$GNGSA,A,3,05,10,19,20,,,,,,,,,0.9,0.6,0.7,4*32

1612350491570,$GNVTG,,T,,M,0.0,N,0.0,K,A*3D

1612350491570,$GNDTM,P90,,0000.000026,S,00000.000000,E,0.978,W84*5C

1612350491570,$GNRMC,110811.00,A,4540.363649,N,01156.020424,E,0.0,,030221,0.6,E,A,V*78

1612350491570,$GNGNS,110811.00,4540.363649,N,01156.020424,E,AANANN,19,0.6,41.7,46.3,,,V*13

1612350491570,$GNGGA,110811.00,4540.363649,N,01156.020424,E,1,12,0.6,41.7,M,46.3,M,,*47

1612350492558,$GPGSV,3,1,10,13,75,130,43,14,45,054,36,15,61,291,42,17,25,113,36,1*6A

1612350492558,$GPGSV,3,2,10,19,14,136,36,20,19,307,28,23,21,310,32,24,33,275,40,1*6F

1612350492558,$GPGSV,3,3,10,28,52,059,34,30,20,078,31,1*6F

1612350492558,$GLGSV,2,1,06,66,71,234,44,77,30,247,27,76,74,320,36,65,18,165,33,1*77

1612350492558,$GLGSV,2,2,06,85,11,071,33,67,33,322,32,1*76

1612350492558,$GBGSV,2,1,05,28,00,000,35,20,31,184,46,19,00,000,48,10,26,050,29,1*7C

1612350492558,$GBGSV,2,2,05,05,18,123,36,1*4A

1612350492582,$GNGSA,A,3,05,13,14,15,17,19,20,23,24,28,30,,0.9,0.6,0.7,1*3D

1612350492582,$GNGSA,A,3,67,76,77,85,,,,,,,,,0.9,0.6,0.7,2*37

1612350492582,$GNGSA,A,3,05,10,19,20,,,,,,,,,0.9,0.6,0.7,4*32

1612350492582,$GNVTG,,T,,M,0.0,N,0.0,K,A*3D

1612350492582,$GNDTM,P90,,0000.000026,S,00000.000000,E,0.978,W84*5C

1612350492582,$GNRMC,110812.00,A,4540.363651,N,01156.020426,E,0.0,,030221,0.6,E,A,V*70

1612350492582,$GNGNS,110812.00,4540.363651,N,01156.020426,E,AANANN,19,0.6,41.7,46.3,,,V*1B

1612350492582,$GNGGA,110812.00,4540.363651,N,01156.020426,E,1,12,0.6,41.7,M,46.3,M,,*4F

1612350493561,$GPGSV,3,1,10,13,75,130,43,14,45,054,36,15,61,291,43,17,25,113,36,1*6B

1612350493561,$GPGSV,3,2,10,19,14,136,36,20,19,307,32,23,21,310,32,24,33,275,41,1*65

1612350493561,$GPGSV,3,3,10,28,52,059,33,30,20,078,35,1*6C

1612350493561,$GLGSV,2,1,06,66,71,234,43,77,30,247,28,76,74,320,36,65,18,165,34,1*78

1612350493561,$GLGSV,2,2,06,85,11,071,35,67,33,322,33,1*71

1612350493561,$GBGSV,2,1,05,28,00,000,38,20,31,184,45,19,00,000,48,10,26,050,31,1*7B

1612350493561,$GBGSV,2,2,05,05,18,123,36,1*4A

1612350493583,$GNGSA,A,3,05,13,14,15,17,19,20,23,24,28,30,,0.9,0.6,0.7,1*3D

1612350493583,$GNGSA,A,3,67,76,77,85,,,,,,,,,0.9,0.6,0.7,2*37

1612350493583,$GNGSA,A,3,05,10,19,20,,,,,,,,,0.9,0.6,0.7,4*32

1612350493583,$GNVTG,,T,,M,0.0,N,0.0,K,A*3D

1612350493583,$GNDTM,P90,,0000.000026,S,00000.000000,E,0.978,W84*5C

1612350493583,$GNRMC,110813.00,A,4540.363650,N,01156.020426,E,0.0,,030221,0.6,E,A,V*70

1612350493583,$GNGNS,110813.00,4540.363650,N,01156.020426,E,AANANN,19,0.6,41.7,46.3,,,V*1B

1612350493583,$GNGGA,110813.00,4540.363650,N,01156.020426,E,1,12,0.6,41.7,M,46.3,M,,*4F

1612350494550,$GPGSV,3,1,10,13,75,130,43,14,45,054,36,15,61,291,45,17,25,113,38,1*63

1612350494550,$GPGSV,3,2,10,19,14,136,35,20,19,307,31,23,21,310,32,24,33,275,40,1*64

1612350494550,$GPGSV,3,3,10,28,52,059,33,30,20,078,31,1*68

1612350494550,$GLGSV,2,1,06,66,71,234,43,77,30,247,29,76,74,320,37,65,18,165,35,1*79

1612350494550,$GLGSV,2,2,06,85,11,071,34,67,33,322,35,1*76

1612350494550,$GBGSV,2,1,05,28,00,000,37,20,31,184,45,19,00,000,48,10,26,050,31,1*74

1612350494550,$GBGSV,2,2,05,05,18,123,36,1*4A

1612350494576,$GNGSA,A,3,05,13,14,15,17,19,20,23,24,28,30,,0.9,0.6,0.7,1*3D

1612350494576,$GNGSA,A,3,67,76,77,85,,,,,,,,,0.9,0.6,0.7,2*37

1612350494576,$GNGSA,A,3,05,10,19,20,,,,,,,,,0.9,0.6,0.7,4*32

1612350494576,$GNVTG,,T,,M,0.0,N,0.0,K,A*3D

1612350494576,$GNDTM,P90,,0000.000026,S,00000.000000,E,0.978,W84*5C

1612350494576,$GNRMC,110814.00,A,4540.363649,N,01156.020427,E,0.0,,030221,0.6,E,A,V*7E

1612350494576,$GNGNS,110814.00,4540.363649,N,01156.020427,E,AANANN,19,0.6,41.7,46.3,,,V*15

1612350494576,$GNGGA,110814.00,4540.363649,N,01156.020427,E,1,12,0.6,41.7,M,46.3,M,,*41

1612350495556,$GPGSV,3,1,10,13,75,130,43,14,45,054,36,15,61,291,45,17,25,113,39,1*62

1612350495556,$GPGSV,3,2,10,19,14,136,35,20,19,307,31,23,21,310,32,24,33,275,40,1*64

1612350495556,$GPGSV,3,3,10,28,52,059,31,30,20,078,31,1*6A

1612350495556,$GLGSV,2,1,06,66,71,234,43,77,30,247,29,76,74,320,37,65,18,165,34,1*78

1612350495556,$GLGSV,2,2,06,85,11,071,34,67,33,322,35,1*76

1612350495556,$GBGSV,2,1,05,28,00,000,37,20,31,184,45,19,00,000,48,10,26,050,31,1*74

1612350495556,$GBGSV,2,2,05,05,18,123,37,1*4B

1612350495581,$GNGSA,A,3,13,14,15,17,19,20,23,24,28,30,,,1.0,0.7,0.7,1*31

1612350495581,$GNGSA,A,3,67,76,77,85,,,,,,,,,1.0,0.7,0.7,2*3E

1612350495581,$GNGSA,A,3,05,10,19,20,,,,,,,,,1.0,0.7,0.7,4*3B

1612350495581,$GNVTG,,T,,M,0.0,N,0.0,K,A*3D

1612350495581,$GNDTM,P90,,0000.000026,S,00000.000000,E,0.978,W84*5C

1612350495581,$GNRMC,110815.00,A,4540.363647,N,01156.020429,E,0.0,,030221,0.6,E,A,V*7F

1612350495581,$GNGNS,110815.00,4540.363647,N,01156.020429,E,AANANN,18,0.7,41.7,46.3,,,V*14

1612350495581,$GNGGA,110815.00,4540.363647,N,01156.020429,E,1,12,0.7,41.7,M,46.3,M,,*41

1612350496555,$GPGSV,3,1,10,13,75,130,43,14,45,054,36,15,61,291,45,17,25,113,38,1*63

1612350496555,$GPGSV,3,2,10,19,14,136,35,20,19,307,32,23,21,310,33,24,33,275,41,1*67

1612350496555,$GPGSV,3,3,10,28,52,059,33,30,20,078,32,1*6B

1612350496555,$GLGSV,2,1,06,66,71,234,43,77,30,247,29,76,74,320,35,65,18,165,34,1*7A

1612350496555,$GLGSV,2,2,06,85,11,071,34,67,33,322,34,1*77

1612350496555,$GBGSV,2,1,05,28,00,000,37,20,31,184,45,19,00,000,48,10,26,050,31,1*74

1612350496555,$GBGSV,2,2,05,05,18,123,37,1*4B

1612350496580,$GNGSA,A,3,13,14,15,17,19,20,23,24,28,30,,,1.0,0.7,0.7,1*31

1612350496580,$GNGSA,A,3,67,76,77,85,,,,,,,,,1.0,0.7,0.7,2*3E

1612350496580,$GNGSA,A,3,05,10,19,20,,,,,,,,,1.0,0.7,0.7,4*3B

1612350496580,$GNVTG,,T,,M,0.0,N,0.0,K,A*3D

1612350496580,$GNDTM,P90,,0000.000026,S,00000.000000,E,0.978,W84*5C

1612350496580,$GNRMC,110816.00,A,4540.363645,N,01156.020429,E,0.0,,030221,0.6,E,A,V*7E

1612350496580,$GNGNS,110816.00,4540.363645,N,01156.020429,E,AANANN,18,0.7,41.7,46.3,,,V*15

1612350496580,$GNGGA,110816.00,4540.363645,N,01156.020429,E,1,12,0.7,41.7,M,46.3,M,,*40

1612350497557,$GPGSV,3,1,10,13,75,130,43,14,45,054,35,15,61,291,45,17,25,113,38,1*60

1612350497557,$GPGSV,3,2,10,19,14,136,36,20,19,307,32,23,21,310,32,24,33,275,42,1*66

1612350497557,$GPGSV,3,3,10,28,52,059,33,30,20,078,32,1*6B

1612350497557,$GLGSV,2,1,06,66,71,234,43,77,30,247,30,76,74,320,36,65,18,165,34,1*71

1612350497557,$GLGSV,2,2,06,85,11,071,35,67,33,322,35,1*77

1612350497557,$GBGSV,2,1,05,28,00,000,37,20,31,184,45,19,00,000,48,10,26,050,30,1*75

1612350497557,$GBGSV,2,2,05,05,18,123,37,1*4B

1612350497578,$GNGSA,A,3,13,14,15,17,19,20,23,24,28,30,,,1.0,0.7,0.7,1*31

1612350497578,$GNGSA,A,3,67,76,77,85,,,,,,,,,1.0,0.7,0.7,2*3E

1612350497578,$GNGSA,A,3,05,10,19,20,,,,,,,,,1.0,0.7,0.7,4*3B

1612350497578,$GNVTG,,T,,M,0.0,N,0.0,K,A*3D

1612350497578,$GNDTM,P90,,0000.000026,S,00000.000000,E,0.978,W84*5C

1612350497578,$GNRMC,110817.00,A,4540.363643,N,01156.020429,E,0.0,,030221,0.6,E,A,V*79

1612350497578,$GNGNS,110817.00,4540.363643,N,01156.020429,E,AANANN,18,0.7,41.7,46.3,,,V*12

1612350497578,$GNGGA,110817.00,4540.363643,N,01156.020429,E,1,12,0.7,41.7,M,46.3,M,,*47

1612350498560,$GPGSV,3,1,10,13,75,130,43,14,45,054,35,15,61,291,44,17,25,113,38,1*61

1612350498560,$GPGSV,3,2,10,19,14,136,36,20,19,307,32,23,21,310,32,24,33,275,42,1*66

1612350498560,$GPGSV,3,3,10,28,52,059,31,30,20,078,31,1*6A

1612350498560,$GLGSV,2,1,06,66,71,234,43,77,30,247,30,76,74,320,36,65,18,165,34,1*71

1612350498560,$GLGSV,2,2,06,85,11,071,35,67,33,322,35,1*77

1612350498560,$GBGSV,2,1,05,28,00,000,37,20,31,184,45,19,00,000,48,10,26,050,27,1*73

1612350498560,$GBGSV,2,2,05,05,18,123,36,1*4A

1612350498596,$GNGSA,A,3,13,14,15,17,19,20,23,24,28,30,,,1.0,0.7,0.7,1*31

1612350498596,$GNGSA,A,3,67,76,77,85,,,,,,,,,1.0,0.7,0.7,2*3E

1612350498596,$GNGSA,A,3,05,10,19,20,,,,,,,,,1.0,0.7,0.7,4*3B

1612350498596,$GNVTG,,T,,M,0.0,N,0.0,K,A*3D

1612350498596,$GNDTM,P90,,0000.000026,S,00000.000000,E,0.978,W84*5C

1612350498596,$GNRMC,110818.00,A,4540.363642,N,01156.020429,E,0.0,,030221,0.6,E,A,V*77

1612350498596,$GNGNS,110818.00,4540.363642,N,01156.020429,E,AANANN,18,0.7,41.7,46.3,,,V*1C

1612350498596,$GNGGA,110818.00,4540.363642,N,01156.020429,E,1,12,0.7,41.7,M,46.3,M,,*49

1612350499557,$GPGSV,3,1,10,13,75,130,43,14,45,054,35,15,61,291,45,17,25,113,38,1*60

1612350499557,$GPGSV,3,2,10,19,14,136,37,20,19,307,33,23,21,310,31,24,33,275,42,1*65

1612350499557,$GPGSV,3,3,10,28,52,059,32,30,20,078,31,1*69

1612350499557,$GLGSV,2,1,06,66,71,234,43,77,30,247,29,76,74,320,36,65,18,165,34,1*79

1612350499557,$GLGSV,2,2,06,85,11,071,36,67,33,322,35,1*74

1612350499557,$GBGSV,2,1,05,28,00,000,37,20,31,184,45,19,00,000,48,10,26,050,30,1*75

1612350499557,$GBGSV,2,2,05,05,18,123,35,1*49

1612350499588,$GNGSA,A,3,13,14,15,17,19,20,23,24,28,30,,,1.0,0.7,0.7,1*31

1612350499588,$GNGSA,A,3,67,76,77,85,,,,,,,,,1.0,0.7,0.7,2*3E

1612350499588,$GNGSA,A,3,05,10,19,20,,,,,,,,,1.0,0.7,0.7,4*3B

1612350499588,$GNVTG,,T,,M,0.0,N,0.0,K,A*3D

1612350499588,$GNDTM,P90,,0000.000026,S,00000.000000,E,0.978,W84*5C

1612350499588,$GNRMC,110819.00,A,4540.363639,N,01156.020429,E,0.0,,030221,0.6,E,A,V*7A

1612350499588,$GNGNS,110819.00,4540.363639,N,01156.020429,E,AANANN,18,0.7,41.7,46.3,,,V*11

1612350499588,$GNGGA,110819.00,4540.363639,N,01156.020429,E,1,12,0.7,41.7,M,46.3,M,,*44

1612350500553,$GPGSV,3,1,09,13,75,130,43,14,45,054,35,15,61,291,44,17,25,113,39,1*68

1612350500553,$GPGSV,3,2,09,19,14,136,37,20,19,307,34,23,21,310,31,24,33,275,41,1*69

1612350500553,$GPGSV,3,3,09,30,20,078,31,1*51

1612350500553,$GLGSV,2,1,06,66,71,234,43,77,30,247,29,76,74,320,36,65,18,165,36,1*7B

1612350500553,$GLGSV,2,2,06,85,11,071,36,67,33,322,35,1*74

1612350500553,$GBGSV,2,1,05,28,00,000,37,20,31,184,45,19,00,000,48,10,26,050,30,1*75

1612350500553,$GBGSV,2,2,05,05,18,123,36,1*4A

1612350500563,$GNGSA,A,3,13,14,15,17,19,20,23,24,28,30,,,1.0,0.7,0.7,1*31

1612350500563,$GNGSA,A,3,67,76,77,85,,,,,,,,,1.0,0.7,0.7,2*3E

1612350500563,$GNGSA,A,3,05,10,19,20,,,,,,,,,1.0,0.7,0.7,4*3B

1612350500563,$GNVTG,,T,,M,0.0,N,0.0,K,A*3D

1612350500563,$GNDTM,P90,,0000.000026,S,00000.000000,E,0.978,W84*5C

1612350500563,$GNRMC,110820.00,A,4540.363637,N,01156.020430,E,0.0,,030221,0.6,E,A,V*76

1612350500563,$GNGNS,110820.00,4540.363637,N,01156.020430,E,AANANN,18,0.7,41.7,46.3,,,V*1D

1612350500563,$GNGGA,110820.00,4540.363637,N,01156.020430,E,1,12,0.7,41.7,M,46.3,M,,*48

1612350501560,$GPGSV,3,1,09,13,75,130,43,14,45,054,36,15,61,291,44,17,25,113,40,1*65

1612350501560,$GPGSV,3,2,09,19,14,136,38,20,19,307,34,23,21,310,31,24,33,275,41,1*66

1612350501560,$GPGSV,3,3,09,30,20,078,30,1*50

1612350501560,$GLGSV,2,1,06,66,71,234,43,77,30,247,29,76,74,320,37,65,18,165,36,1*7A

1612350501560,$GLGSV,2,2,06,85,11,071,36,67,33,322,35,1*74

1612350501560,$GBGSV,2,1,05,28,00,000,37,20,31,184,45,19,00,000,49,10,26,050,30,1*74

1612350501560,$GBGSV,2,2,05,05,18,123,36,1*4A

1612350501584,$GNGSA,A,3,13,14,15,17,19,20,23,24,28,30,,,1.0,0.7,0.7,1*31

1612350501584,$GNGSA,A,3,67,76,77,85,,,,,,,,,1.0,0.7,0.7,2*3E

1612350501584,$GNGSA,A,3,05,10,19,20,,,,,,,,,1.0,0.7,0.7,4*3B

1612350501584,$GNVTG,,T,,M,0.0,N,0.0,K,A*3D

1612350501584,$GNDTM,P90,,0000.000026,S,00000.000000,E,0.978,W84*5C

1612350501584,$GNRMC,110821.00,A,4540.363633,N,01156.020429,E,0.0,,030221,0.6,E,A,V*7B

1612350501584,$GNGNS,110821.00,4540.363633,N,01156.020429,E,AANANN,18,0.7,41.7,46.3,,,V*10

1612350501584,$GNGGA,110821.00,4540.363633,N,01156.020429,E,1,12,0.7,41.7,M,46.3,M,,*45

1612350502561,$GPGSV,3,1,10,05,15,199,22,13,75,130,42,14,45,054,35,15,61,291,44,1*69

1612350502561,$GPGSV,3,2,10,17,25,113,40,19,14,136,37,20,19,307,34,23,21,310,29,1*6D

1612350502561,$GPGSV,3,3,10,24,33,275,41,30,20,078,30,1*6B

1612350502561,$GLGSV,2,1,06,66,71,234,43,77,30,247,29,76,74,320,36,65,18,165,35,1*78

1612350502561,$GLGSV,2,2,06,85,11,071,36,67,33,322,35,1*74

1612350502561,$GBGSV,2,1,05,28,00,000,36,20,31,184,44,19,00,000,48,10,26,050,30,1*75

1612350502561,$GBGSV,2,2,05,05,18,123,37,1*4B

1612350502581,$GNGSA,A,3,13,14,15,17,19,20,23,24,28,30,,,1.0,0.7,0.7,1*31

1612350502581,$GNGSA,A,3,67,76,77,85,,,,,,,,,1.0,0.7,0.7,2*3E

1612350502581,$GNGSA,A,3,05,10,19,20,,,,,,,,,1.0,0.7,0.7,4*3B

1612350502581,$GNVTG,,T,,M,0.0,N,0.0,K,A*3D

1612350502581,$GNDTM,P90,,0000.000026,S,00000.000000,E,0.978,W84*5C

1612350502581,$GNRMC,110822.00,A,4540.363630,N,01156.020430,E,0.0,,030221,0.6,E,A,V*73

1612350502581,$GNGNS,110822.00,4540.363630,N,01156.020430,E,AANANN,18,0.7,41.7,46.3,,,V*18

1612350502581,$GNGGA,110822.00,4540.363630,N,01156.020430,E,1,12,0.7,41.7,M,46.3,M,,*4D

1612350503559,$GPGSV,3,1,09,13,75,130,43,14,45,054,35,15,61,291,45,17,25,113,39,1*69

1612350503559,$GPGSV,3,2,09,19,14,136,38,20,19,307,34,23,21,310,29,24,33,275,41,1*6F

1612350503559,$GPGSV,3,3,09,30,20,078,30,1*50

1612350503559,$GLGSV,2,1,06,66,71,234,44,77,30,247,29,76,74,320,35,65,18,165,36,1*7F

1612350503559,$GLGSV,2,2,06,85,11,071,35,67,33,322,35,1*77

1612350503559,$GBGSV,2,1,05,28,00,000,36,20,31,184,44,19,00,000,48,10,26,050,30,1*75

1612350503559,$GBGSV,2,2,05,05,18,123,36,1*4A

1612350503585,$GNGSA,A,3,13,14,15,17,19,20,23,24,28,30,,,1.0,0.7,0.7,1*31

1612350503585,$GNGSA,A,3,67,76,77,85,,,,,,,,,1.0,0.7,0.7,2*3E

1612350503585,$GNGSA,A,3,05,10,19,20,,,,,,,,,1.0,0.7,0.7,4*3B

1612350503585,$GNVTG,,T,,M,0.0,N,0.0,K,A*3D

1612350503585,$GNDTM,P90,,0000.000026,S,00000.000000,E,0.978,W84*5C

1612350503585,$GNRMC,110823.00,A,4540.363627,N,01156.020431,E,0.0,,030221,0.6,E,A,V*75

1612350503585,$GNGNS,110823.00,4540.363627,N,01156.020431,E,AANANN,18,0.7,41.7,46.3,,,V*1E

1612350503585,$GNGGA,110823.00,4540.363627,N,01156.020431,E,1,12,0.7,41.7,M,46.3,M,,*4B

1612350504555,$GPGSV,2,1,08,13,75,130,43,14,45,054,35,15,61,291,45,17,25,113,39,1*69

1612350504555,$GPGSV,2,2,08,19,14,136,38,20,19,307,34,23,21,310,28,24,33,275,41,1*6E

1612350504555,$GLGSV,2,1,06,66,71,234,43,77,30,247,28,76,74,320,36,65,18,165,36,1*7A

1612350504555,$GLGSV,2,2,06,85,11,071,36,67,33,322,34,1*75

1612350504555,$GBGSV,2,1,05,28,00,000,37,20,31,184,44,19,00,000,48,10,26,050,30,1*74

1612350504555,$GBGSV,2,2,05,05,18,123,36,1*4A

1612350504580,$GNGSA,A,3,13,14,15,17,19,20,23,24,28,30,,,1.0,0.7,0.7,1*31

1612350504580,$GNGSA,A,3,67,76,77,85,,,,,,,,,1.0,0.7,0.7,2*3E

1612350504580,$GNGSA,A,3,05,10,19,20,,,,,,,,,1.0,0.7,0.7,4*3B

1612350504580,$GNVTG,,T,,M,0.0,N,0.0,K,A*3D

1612350504580,$GNDTM,P90,,0000.000026,S,00000.000000,E,0.978,W84*5C

1612350504580,$GNRMC,110824.00,A,4540.363625,N,01156.020433,E,0.0,,030221,0.6,E,A,V*72

1612350504580,$GNGNS,110824.00,4540.363625,N,01156.020433,E,AANANN,18,0.7,41.7,46.3,,,V*19

1612350504580,$GNGGA,110824.00,4540.363625,N,01156.020433,E,1,12,0.7,41.7,M,46.3,M,,*4C

1612350505553,$GPGSV,2,1,08,13,75,130,44,14,45,054,36,15,61,291,45,17,25,113,40,1*63

1612350505553,$GPGSV,2,2,08,19,14,136,38,20,19,307,34,23,21,310,28,24,33,275,42,1*6D

1612350505553,$GLGSV,2,1,06,66,71,234,44,77,30,247,28,76,74,320,36,65,18,165,36,1*7D

1612350505553,$GLGSV,2,2,06,85,11,071,36,67,33,322,33,1*72

1612350505553,$GBGSV,2,1,05,28,00,000,36,20,31,184,44,19,00,000,48,10,26,050,31,1*74

1612350505553,$GBGSV,2,2,05,05,18,123,36,1*4A

1612350505569,$GNGSA,A,3,13,14,15,17,19,20,23,24,30,,,,1.0,0.7,0.7,1*3B

1612350505569,$GNGSA,A,3,67,76,77,85,,,,,,,,,1.0,0.7,0.7,2*3E

1612350505569,$GNGSA,A,3,05,10,19,20,,,,,,,,,1.0,0.7,0.7,4*3B

1612350505569,$GNVTG,,T,,M,0.0,N,0.0,K,A*3D

1612350505569,$GNDTM,P90,,0000.000026,S,00000.000000,E,0.978,W84*5C

1612350505569,$GNRMC,110825.00,A,4540.363624,N,01156.020434,E,0.0,,030221,0.6,E,A,V*75

1612350505569,$GNGNS,110825.00,4540.363624,N,01156.020434,E,AANANN,17,0.7,41.7,46.3,,,V*11

1612350505569,$GNGGA,110825.00,4540.363624,N,01156.020434,E,1,12,0.7,41.7,M,46.3,M,,*4B

1612350506557,$GPGSV,2,1,08,13,75,130,44,14,45,054,35,15,61,291,45,17,25,113,40,1*60

1612350506557,$GPGSV,2,2,08,19,14,136,38,20,19,307,34,23,21,310,27,24,33,275,41,1*61

1612350506557,$GLGSV,2,1,06,66,71,234,44,77,30,247,27,76,74,320,36,65,18,165,36,1*72

1612350506557,$GLGSV,2,2,06,85,11,071,36,67,33,322,32,1*73

1612350506557,$GBGSV,2,1,05,28,00,000,36,20,31,184,44,19,00,000,48,10,26,050,31,1*74

1612350506557,$GBGSV,2,2,05,05,18,123,36,1*4A

1612350506581,$GNGSA,A,3,13,14,15,17,19,20,23,24,30,,,,1.0,0.7,0.7,1*3B

1612350506581,$GNGSA,A,3,67,76,77,85,,,,,,,,,1.0,0.7,0.7,2*3E

1612350506581,$GNGSA,A,3,05,10,19,20,,,,,,,,,1.0,0.7,0.7,4*3B

1612350506581,$GNVTG,,T,,M,0.0,N,0.0,K,A*3D

1612350506581,$GNDTM,P90,,0000.000026,S,00000.000000,E,0.978,W84*5C

1612350506581,$GNRMC,110826.00,A,4540.363625,N,01156.020433,E,0.0,,030221,0.6,E,A,V*70

1612350506581,$GNGNS,110826.00,4540.363625,N,01156.020433,E,AANANN,17,0.7,41.7,46.3,,,V*14

1612350506581,$GNGGA,110826.00,4540.363625,N,01156.020433,E,1,12,0.7,41.7,M,46.3,M,,*4E

1612350507558,$GPGSV,2,1,08,13,75,130,43,14,45,054,35,15,61,291,45,17,25,113,40,1*67

1612350507558,$GPGSV,2,2,08,19,14,136,39,20,19,307,35,23,21,310,26,24,33,275,41,1*60

1612350507558,$GLGSV,2,1,06,66,71,234,44,77,30,247,27,76,74,320,37,65,18,165,36,1*73

1612350507558,$GLGSV,2,2,06,85,11,071,36,67,33,322,32,1*73

1612350507558,$GBGSV,2,1,05,28,00,000,36,20,31,184,44,19,00,000,48,10,26,050,30,1*75

1612350507558,$GBGSV,2,2,05,05,18,123,36,1*4A

1612350507589,$GNGSA,A,3,13,14,15,17,19,20,23,24,30,,,,1.0,0.7,0.7,1*3B

1612350507589,$GNGSA,A,3,67,76,77,85,,,,,,,,,1.0,0.7,0.7,2*3E

1612350507589,$GNGSA,A,3,05,10,19,20,,,,,,,,,1.0,0.7,0.7,4*3B

1612350507589,$GNVTG,,T,,M,0.0,N,0.0,K,A*3D

1612350507589,$GNDTM,P90,,0000.000026,S,00000.000000,E,0.978,W84*5C

1612350507589,$GNRMC,110827.00,A,4540.363627,N,01156.020433,E,0.0,,030221,0.6,E,A,V*73

1612350507589,$GNGNS,110827.00,4540.363627,N,01156.020433,E,AANANN,17,0.7,41.6,46.3,,,V*16

1612350507589,$GNGGA,110827.00,4540.363627,N,01156.020433,E,1,12,0.7,41.6,M,46.3,M,,*4C

1612350508559,$GPGSV,2,1,08,13,75,130,43,14,45,054,34,15,61,291,45,17,25,113,39,1*68

1612350508559,$GPGSV,2,2,08,19,14,136,38,20,19,307,34,23,21,310,25,24,33,275,41,1*63

1612350508559,$GLGSV,2,1,06,66,71,234,44,77,30,247,27,76,74,320,37,65,18,165,35,1*70

1612350508559,$GLGSV,2,2,06,85,11,071,35,67,33,322,31,1*73

1612350508559,$GBGSV,2,1,05,28,00,000,37,20,31,184,44,19,00,000,47,10,26,050,30,1*7B

1612350508559,$GBGSV,2,2,05,05,18,123,36,1*4A

1612350508590,$GNGSA,A,3,13,14,15,17,19,20,23,24,30,,,,1.0,0.7,0.7,1*3B

1612350508590,$GNGSA,A,3,67,76,77,85,,,,,,,,,1.0,0.7,0.7,2*3E

1612350508590,$GNGSA,A,3,05,10,19,20,,,,,,,,,1.0,0.7,0.7,4*3B

1612350508590,$GNVTG,,T,,M,0.0,N,0.0,K,A*3D

1612350508590,$GNDTM,P90,,0000.000026,S,00000.000000,E,0.978,W84*5C

1612350508590,$GNRMC,110828.00,A,4540.363627,N,01156.020432,E,0.0,,030221,0.6,E,A,V*7D

1612350508590,$GNGNS,110828.00,4540.363627,N,01156.020432,E,AANANN,17,0.7,41.6,46.3,,,V*18

1612350508590,$GNGGA,110828.00,4540.363627,N,01156.020432,E,1,12,0.7,41.6,M,46.3,M,,*42

1612350509551,$GPGSV,2,1,08,13,75,130,44,14,45,054,34,15,61,291,45,17,25,113,39,1*6F

1612350509551,$GPGSV,2,2,08,19,14,136,38,20,19,307,34,23,21,310,22,24,33,275,41,1*64

1612350509551,$GLGSV,2,1,06,66,71,234,44,77,30,247,25,76,74,320,36,65,18,165,36,1*70

1612350509551,$GLGSV,2,2,06,85,11,071,34,67,33,322,28,1*7A

1612350509551,$GBGSV,2,1,05,28,00,000,38,20,31,184,45,19,00,000,47,10,26,050,30,1*75

1612350509551,$GBGSV,2,2,05,05,18,123,37,1*4B

1612350509577,$GNGSA,A,3,13,14,15,17,19,20,23,24,,,,,1.0,0.7,0.7,1*38

1612350509577,$GNGSA,A,3,67,76,77,85,,,,,,,,,1.0,0.7,0.7,2*3E

1612350509577,$GNGSA,A,3,05,10,19,20,,,,,,,,,1.0,0.7,0.7,4*3B

1612350509577,$GNVTG,,T,,M,0.0,N,0.0,K,A*3D

1612350509577,$GNDTM,P90,,0000.000026,S,00000.000000,E,0.978,W84*5C

1612350509577,$GNRMC,110829.00,A,4540.363627,N,01156.020435,E,0.0,,030221,0.6,E,A,V*7B

1612350509577,$GNGNS,110829.00,4540.363627,N,01156.020435,E,AANANN,16,0.7,41.6,46.3,,,V*1F

1612350509577,$GNGGA,110829.00,4540.363627,N,01156.020435,E,1,12,0.7,41.6,M,46.3,M,,*44

1612350510552,$GPGSV,2,1,08,13,75,130,44,14,45,054,33,15,61,291,45,17,25,113,36,1*67

1612350510552,$GPGSV,2,2,08,19,14,136,38,20,19,307,35,23,21,310,22,24,33,275,40,1*64

1612350510552,$GLGSV,2,1,06,66,71,234,44,77,30,247,27,76,74,320,36,65,18,165,36,1*72

1612350510552,$GLGSV,2,2,06,85,11,071,34,67,33,322,29,1*7B

1612350510552,$GBGSV,2,1,05,28,00,000,38,20,31,184,45,19,00,000,47,10,26,050,31,1*74

1612350510552,$GBGSV,2,2,05,05,18,123,36,1*4A

1612350510563,$GNGSA,A,3,13,14,15,17,19,20,23,24,,,,,1.0,0.7,0.7,1*38

1612350510563,$GNGSA,A,3,67,76,77,85,,,,,,,,,1.0,0.7,0.7,2*3E

1612350510563,$GNGSA,A,3,05,10,19,20,,,,,,,,,1.0,0.7,0.7,4*3B

1612350510563,$GNVTG,,T,,M,0.0,N,0.0,K,A*3D

1612350510563,$GNDTM,P90,,0000.000026,S,00000.000000,E,0.978,W84*5C

1612350510563,$GNRMC,110830.00,A,4540.363628,N,01156.020434,E,0.0,,030221,0.6,E,A,V*7D

1612350510563,$GNGNS,110830.00,4540.363628,N,01156.020434,E,AANANN,16,0.7,41.6,46.3,,,V*19

1612350510563,$GNGGA,110830.00,4540.363628,N,01156.020434,E,1,12,0.7,41.6,M,46.3,M,,*42

1612350511559,$GPGSV,3,1,09,13,75,130,44,14,45,054,36,15,61,291,45,17,25,113,37,1*63

1612350511559,$GPGSV,3,2,09,19,14,136,38,20,19,307,34,23,21,310,21,24,33,275,40,1*66

1612350511559,$GPGSV,3,3,09,28,52,059,30,1*5F

1612350511559,$GLGSV,2,1,06,66,71,234,44,77,30,247,26,76,74,320,36,65,18,165,37,1*72

1612350511559,$GLGSV,2,2,06,85,11,071,33,67,33,322,27,1*72

1612350511559,$GBGSV,2,1,05,28,00,000,38,20,31,184,45,19,00,000,47,10,26,050,31,1*74

1612350511559,$GBGSV,2,2,05,05,18,123,37,1*4B

1612350511581,$GNGSA,A,3,13,14,15,17,19,20,23,24,28,,,,1.0,0.7,0.7,1*32

1612350511581,$GNGSA,A,3,67,76,77,85,,,,,,,,,1.0,0.7,0.7,2*3E

1612350511581,$GNGSA,A,3,05,10,19,20,,,,,,,,,1.0,0.7,0.7,4*3B

1612350511581,$GNVTG,,T,,M,0.0,N,0.0,K,A*3D

1612350511581,$GNDTM,P90,,0000.000026,S,00000.000000,E,0.978,W84*5C

1612350511581,$GNRMC,110831.00,A,4540.363629,N,01156.020433,E,0.0,,030221,0.6,E,A,V*7A

1612350511581,$GNGNS,110831.00,4540.363629,N,01156.020433,E,AANANN,17,0.7,41.6,46.3,,,V*1F

1612350511581,$GNGGA,110831.00,4540.363629,N,01156.020433,E,1,12,0.7,41.6,M,46.3,M,,*45

1612350512555,$GPGSV,3,1,09,13,75,130,44,14,45,054,36,15,61,291,45,17,25,113,37,1*63

1612350512555,$GPGSV,3,2,09,19,14,136,38,20,19,307,34,23,21,310,21,24,33,275,41,1*67

1612350512555,$GPGSV,3,3,09,28,52,059,30,1*5F

1612350512555,$GLGSV,2,1,06,66,71,234,44,77,30,247,27,76,74,320,36,65,18,165,37,1*73

1612350512555,$GLGSV,2,2,06,85,11,071,34,67,33,322,26,1*74

1612350512555,$GBGSV,2,1,05,28,00,000,39,20,31,184,45,19,00,000,47,10,26,050,29,1*7C

1612350512555,$GBGSV,2,2,05,05,18,123,36,1*4A

1612350512569,$GNGSA,A,3,13,14,15,17,19,20,23,24,28,,,,1.0,0.7,0.7,1*32

1612350512569,$GNGSA,A,3,67,76,77,85,,,,,,,,,1.0,0.7,0.7,2*3E

1612350512569,$GNGSA,A,3,05,10,19,20,,,,,,,,,1.0,0.7,0.7,4*3B

1612350512569,$GNVTG,,T,,M,0.0,N,0.0,K,A*3D

1612350512569,$GNDTM,P90,,0000.000026,S,00000.000000,E,0.978,W84*5C

1612350512569,$GNRMC,110832.00,A,4540.363630,N,01156.020432,E,0.0,,030221,0.6,E,A,V*70

1612350512569,$GNGNS,110832.00,4540.363630,N,01156.020432,E,AANANN,17,0.7,41.6,46.3,,,V*15

1612350512569,$GNGGA,110832.00,4540.363630,N,01156.020432,E,1,12,0.7,41.6,M,46.3,M,,*4F

1612350513561,$GPGSV,2,1,08,13,75,130,43,14,45,054,37,15,61,291,45,17,25,113,38,1*6A

1612350513561,$GPGSV,2,2,08,19,14,136,38,20,19,307,33,23,21,310,19,24,33,275,41,1*6B

1612350513561,$GLGSV,2,1,06,66,71,234,45,77,30,247,26,76,74,320,36,65,18,165,37,1*73

1612350513561,$GLGSV,2,2,06,85,11,071,33,67,33,322,25,1*70

1612350513561,$GBGSV,2,1,05,28,00,000,38,20,31,184,45,19,00,000,46,10,26,050,31,1*75

1612350513561,$GBGSV,2,2,05,05,18,123,36,1*4A

1612350513584,$GNGSA,A,3,13,14,15,17,19,20,23,24,28,,,,1.0,0.7,0.7,1*32

1612350513584,$GNGSA,A,3,67,76,77,85,,,,,,,,,1.0,0.7,0.7,2*3E

1612350513584,$GNGSA,A,3,05,10,19,20,,,,,,,,,1.0,0.7,0.7,4*3B

1612350513584,$GNVTG,,T,,M,0.0,N,0.0,K,A*3D

1612350513584,$GNDTM,P90,,0000.000026,S,00000.000000,E,0.978,W84*5C

1612350513584,$GNRMC,110833.00,A,4540.363631,N,01156.020433,E,0.0,,030221,0.6,E,A,V*71

1612350513584,$GNGNS,110833.00,4540.363631,N,01156.020433,E,AANANN,17,0.7,41.6,46.3,,,V*14

1612350513584,$GNGGA,110833.00,4540.363631,N,01156.020433,E,1,12,0.7,41.6,M,46.3,M,,*4E

1612350514551,$GPGSV,3,1,09,13,75,130,43,14,45,054,29,15,61,291,44,17,25,113,37,1*6B

1612350514551,$GPGSV,3,2,09,19,14,136,38,20,19,307,34,23,21,310,22,24,33,275,41,1*64

1612350514551,$GPGSV,3,3,09,30,20,078,30,1*50

1612350514551,$GLGSV,2,1,06,66,71,234,44,77,30,247,24,76,74,320,36,65,18,165,37,1*70

1612350514551,$GLGSV,2,2,06,85,11,071,33,67,33,322,24,1*71

1612350514551,$GBGSV,2,1,05,28,00,000,38,20,31,184,46,19,00,000,47,10,26,050,27,1*70

1612350514551,$GBGSV,2,2,05,05,18,123,36,1*4A

1612350514582,$GNGSA,A,3,13,14,15,17,19,20,24,28,30,,,,1.0,0.7,0.7,1*30

1612350514582,$GNGSA,A,3,67,76,77,85,,,,,,,,,1.0,0.7,0.7,2*3E

1612350514582,$GNGSA,A,3,05,10,19,20,,,,,,,,,1.0,0.7,0.7,4*3B

1612350514582,$GNVTG,,T,,M,0.0,N,0.0,K,A*3D

1612350514582,$GNDTM,P90,,0000.000026,S,00000.000000,E,0.978,W84*5C

1612350514582,$GNRMC,110834.00,A,4540.363631,N,01156.020433,E,0.0,,030221,0.6,E,A,V*76

1612350514582,$GNGNS,110834.00,4540.363631,N,01156.020433,E,AANANN,17,0.7,41.6,46.3,,,V*13

1612350514582,$GNGGA,110834.00,4540.363631,N,01156.020433,E,1,12,0.7,41.6,M,46.3,M,,*49

1612350515552,$GPGSV,3,1,09,13,75,130,43,14,45,054,33,15,61,291,45,17,25,113,37,1*61

1612350515552,$GPGSV,3,2,09,19,14,136,38,20,19,307,34,23,21,310,22,24,33,275,41,1*64

1612350515552,$GPGSV,3,3,09,30,20,078,31,1*51

1612350515552,$GLGSV,2,1,06,66,71,234,44,77,30,247,26,76,73,324,36,65,18,165,36,1*70

1612350515552,$GLGSV,2,2,06,85,11,071,29,67,33,322,22,1*7C

1612350515552,$GBGSV,2,1,05,28,00,000,38,20,31,184,46,19,00,000,46,10,26,050,29,1*7F

1612350515552,$GBGSV,2,2,05,05,18,123,37,1*4B

1612350515579,$GNGSA,A,3,13,14,15,17,19,20,24,28,30,,,,1.0,0.7,0.7,1*30

1612350515579,$GNGSA,A,3,67,76,77,85,,,,,,,,,1.0,0.7,0.7,2*3E

1612350515579,$GNGSA,A,3,05,10,19,20,,,,,,,,,1.0,0.7,0.7,4*3B

1612350515579,$GNVTG,,T,,M,0.0,N,0.0,K,A*3D

1612350515579,$GNDTM,P90,,0000.000026,S,00000.000000,E,0.978,W84*5C

1612350515579,$GNRMC,110835.00,A,4540.363633,N,01156.020433,E,0.0,,030221,0.6,E,A,V*75

1612350515579,$GNGNS,110835.00,4540.363633,N,01156.020433,E,AANANN,17,0.7,41.6,46.3,,,V*10

1612350515579,$GNGGA,110835.00,4540.363633,N,01156.020433,E,1,12,0.7,41.6,M,46.3,M,,*4A

1612350516553,$GPGSV,3,1,09,13,75,130,43,14,45,054,34,15,61,291,45,17,25,113,36,1*67

1612350516553,$GPGSV,3,2,09,19,14,136,38,20,19,307,33,23,21,310,22,24,33,275,40,1*62

1612350516553,$GPGSV,3,3,09,30,20,078,32,1*52

1612350516553,$GLGSV,2,1,06,66,71,234,44,77,30,247,25,76,73,324,36,65,18,165,37,1*72

1612350516553,$GLGSV,2,2,06,85,11,071,28,67,33,322,22,1*7D

1612350516553,$GBGSV,2,1,05,28,00,000,38,20,31,184,46,19,00,000,47,10,26,050,28,1*7F

1612350516553,$GBGSV,2,2,05,05,18,123,37,1*4B

1612350516580,$GNGSA,A,3,13,14,15,17,19,20,24,28,30,,,,1.0,0.7,0.7,1*30

1612350516580,$GNGSA,A,3,66,67,76,77,85,,,,,,,,1.0,0.7,0.7,2*3E

1612350516580,$GNGSA,A,3,05,10,19,20,,,,,,,,,1.0,0.7,0.7,4*3B

1612350516580,$GNVTG,,T,,M,0.0,N,0.0,K,A*3D

1612350516580,$GNDTM,P90,,0000.000026,S,00000.000000,E,0.978,W84*5C

1612350516580,$GNRMC,110836.00,A,4540.363634,N,01156.020433,E,0.0,,030221,0.6,E,A,V*71

1612350516580,$GNGNS,110836.00,4540.363634,N,01156.020433,E,AANANN,18,0.7,41.6,46.3,,,V*1B

1612350516580,$GNGGA,110836.00,4540.363634,N,01156.020433,E,1,12,0.7,41.6,M,46.3,M,,*4E

1612350517552,$GPGSV,3,1,09,13,75,130,43,14,45,054,33,15,61,291,45,17,25,113,37,1*61

1612350517552,$GPGSV,3,2,09,19,14,136,38,20,19,307,33,23,21,310,22,24,33,275,40,1*62

1612350517552,$GPGSV,3,3,09,30,20,078,31,1*51

1612350517552,$GLGSV,2,1,06,66,71,234,44,77,30,247,26,76,73,324,36,65,18,165,36,1*70

1612350517552,$GLGSV,2,2,06,85,11,071,31,67,33,322,22,1*75

