# 2021 01 29 14:05:25
#
# Version: 10 Manufacturer: samsung Make: SM-A515F
#
1611925526000,$GPGGA,130526.000,4540.3709,N,01156.0185,E,1,16,0.6,43.6,M,47.1,M,,*6A

1611925526000,$PSAMSA,130526.000,4540.3709,N,01156.0185,E,0,M,,*6D

1611925526000,$GPGLL,4540.3709,N,01156.0185,E,130526.000,A,A*5D

1611925526000,$GPVTG,303.4,T,,M,0.0,N,0.0,K,A*09

1611925526000,$GPGSV,3,1,10,10,16,300,37,12,44,235,47,13,29,155,35,14,06,055,20*70

1611925526000,$GPGSV,3,2,10,15,52,199,37,17,38,063,36,19,45,096,40,20,11,265,39*79

1611925526000,$GPGSV,3,3,10,23,17,267,41,24,73,312,41*7E

1611925526000,$GLGSV,2,1,08,69,17,193,29,70,49,259,36,71,27,323,34,79,40,054,41*6E

1611925526000,$GLGSV,2,2,08,80,61,313,28,81,31,075,37,82,17,127,39,88,14,023,27*67

1611925526000,$GAGSV,1,1,04,107,47,198,37,108,06,164,25,127,55,259,40,130,63,050,41*6F

1611925526000,$BDGSV,3,1,10,205,19,124,40,210,15,056,26,211,33,082,34,212,12,033,27*6F

1611925526000,$BDGSV,3,2,10,220,31,292,32,223,75,038,41,225,27,082,33,228,09,161,24*66

1611925526000,$BDGSV,3,3,10,232,30,228,47,237,42,280,42*6E

1611925526000,$GPGSA,A,3,24,19,12,17,13,20,,,,,,,1.2,0.6,1.0*3D

1611925526000,$GNGSA,A,3,81,82,88,,,,,,,,,,1.2,0.6,1.0*2B

1611925526000,$GAGSA,A,3,127,130,,,,,,,,,,,1.2,0.6,1.0*21

1611925526000,$BDGSA,A,3,211,220,223,225,232,,,,,,,,1.2,0.6,1.0*10

1611925526000,$GPRMC,130526.000,A,4540.3709,N,01156.0185,E,0.0,303.4,290121,,,A*67

1611925526000,$PSAMCLK,2142,47914400,16,9732484,123551,479144000*4F

1611925526000,$PSAMCLK,2142,47914400,16,9732484,123551,479144000*4F

1611925527000,$GPGGA,130527.000,4540.3709,N,01156.0185,E,1,17,0.6,43.6,M,47.1,M,,*6A

1611925527000,$PSAMSA,130527.000,4540.3709,N,01156.0185,E,0,M,,*6C

1611925527000,$GPGLL,4540.3709,N,01156.0185,E,130527.000,A,A*5C

1611925527000,$GPVTG,303.5,T,,M,0.0,N,0.0,K,A*08

1611925527000,$GPGSV,3,1,10,10,16,300,36,12,44,235,46,13,29,155,35,14,06,055,18*7B

1611925527000,$GPGSV,3,2,10,15,52,199,35,17,38,063,36,19,45,096,39,20,11,265,38*74

1611925527000,$GPGSV,3,3,10,23,17,267,41,24,73,312,40*7F

1611925527000,$GLGSV,2,1,08,69,17,193,28,70,49,259,35,71,27,323,33,79,40,054,40*6A

1611925527000,$GLGSV,2,2,08,80,61,313,28,81,31,075,37,82,17,127,39,88,14,023,27*67

1611925527000,$GAGSV,1,1,04,107,47,198,35,108,06,164,25,127,55,259,39,130,63,050,40*62

1611925527000,$BDGSV,3,1,10,205,19,124,40,210,15,056,25,211,33,082,34,212,12,033,26*6D

1611925527000,$BDGSV,3,2,10,220,31,292,32,223,75,038,40,225,27,082,33,228,09,161,28*6B

1611925527000,$BDGSV,3,3,10,232,30,228,47,237,42,280,42*6E

1611925527000,$GPGSA,A,3,24,19,12,17,13,20,,,,,,,1.2,0.6,1.0*3D

1611925527000,$GNGSA,A,3,71,81,82,,,,,,,,,,1.2,0.6,1.0*2D

1611925527000,$GAGSA,A,3,108,127,130,,,,,,,,,,1.2,0.6,1.0*18

1611925527000,$BDGSA,A,3,211,220,223,225,232,,,,,,,,1.2,0.6,1.0*10

1611925527000,$GPRMC,130527.000,A,4540.3709,N,01156.0185,E,0.0,303.5,290121,,,A*67

1611925527000,$PSAMCLK,2142,47914500,17,9732675,185327,479145000*49

1611925527000,$PSAMCLK,2142,47914500,17,9732675,185327,479145000*49

1611925528000,$GPGGA,130528.000,4540.3709,N,01156.0185,E,1,19,0.6,43.6,M,47.1,M,,*6B

1611925528000,$PSAMSA,130528.000,4540.3709,N,01156.0185,E,0,M,,*63

1611925528000,$GPGLL,4540.3709,N,01156.0185,E,130528.000,A,A*53

1611925528000,$GPVTG,303.5,T,,M,0.0,N,0.0,K,A*08

1611925528000,$GPGSV,3,1,10,10,16,300,35,12,44,235,46,13,29,155,35,14,06,055,17*77

1611925528000,$GPGSV,3,2,10,15,52,199,34,17,38,063,35,19,45,096,38,20,11,265,37*78

1611925528000,$GPGSV,3,3,10,23,17,267,40,24,73,312,40*7E

1611925528000,$GLGSV,2,1,08,69,17,193,27,70,49,259,34,71,27,323,33,79,40,054,39*6A

1611925528000,$GLGSV,2,2,08,80,61,313,27,81,31,075,36,82,17,127,38,88,14,023,26*69

1611925528000,$GAGSV,1,1,04,107,47,198,34,108,06,164,26,127,55,259,38,130,63,050,39*6F

1611925528000,$BDGSV,3,1,10,205,19,124,39,210,15,056,25,211,33,082,33,212,12,033,26*64

1611925528000,$BDGSV,3,2,10,220,31,292,32,223,75,038,40,225,27,082,33,228,09,161,32*60

1611925528000,$BDGSV,3,3,10,232,30,228,46,237,42,280,41*6C

1611925528000,$GPGSA,A,3,24,19,12,17,13,23,20,,,,,,1.2,0.6,1.0*3C

1611925528000,$GNGSA,A,3,79,80,81,82,,,,,,,,,1.2,0.6,1.0*2D

1611925528000,$GAGSA,A,3,108,127,130,,,,,,,,,,1.2,0.6,1.0*18

1611925528000,$BDGSA,A,3,211,220,223,225,232,,,,,,,,1.2,0.6,1.0*10

1611925528000,$GPRMC,130528.000,A,4540.3709,N,01156.0185,E,0.0,303.5,290121,,,A*68

1611925528000,$PSAMCLK,2142,47914600,19,9732780,247106,479146000*40

1611925528000,$PSAMCLK,2142,47914600,19,9732780,247106,479146000*40

1611925529000,$GPGGA,130529.000,4540.3695,N,01156.0193,E,1,21,0.6,43.6,M,47.1,M,,*62

1611925529000,$PSAMSA,130529.000,4540.3695,N,01156.0193,E,0,M,,*61

1611925529000,$GPGLL,4540.3695,N,01156.0193,E,130529.000,A,A*51

1611925529000,$GPVTG,303.5,T,,M,0.0,N,0.0,K,A*08

1611925529000,$GPGSV,3,1,10,10,16,300,35,12,44,235,45,13,29,155,35,14,06,055,15*76

1611925529000,$GPGSV,3,2,10,15,52,199,33,17,38,063,34,19,45,096,37,20,11,265,36*70

1611925529000,$GPGSV,3,3,10,23,17,267,39,24,73,312,39*7E

1611925529000,$GLGSV,2,1,08,69,17,193,25,70,49,259,33,71,27,323,32,79,40,054,38*6F

1611925529000,$GLGSV,2,2,08,80,61,313,26,81,31,075,36,82,17,127,37,88,14,023,24*65

1611925529000,$GAGSV,1,1,04,107,47,198,32,108,06,164,27,127,55,259,38,130,63,050,39*68

1611925529000,$BDGSV,3,1,10,205,19,124,39,210,15,056,25,211,33,082,33,212,12,033,26*64

1611925529000,$BDGSV,3,2,10,220,31,292,32,223,75,038,39,225,27,082,32,228,09,161,33*6E

1611925529000,$BDGSV,3,3,10,232,30,228,45,237,42,280,41*6F

1611925529000,$GPGSA,A,3,24,19,12,17,13,10,20,,,,,,1.0,0.6,0.8*37

1611925529000,$GNGSA,A,3,70,71,79,81,82,,,,,,,,1.0,0.6,0.8*2F

1611925529000,$GAGSA,A,3,108,127,130,,,,,,,,,,1.0,0.6,0.8*13

1611925529000,$BDGSA,A,3,210,211,220,223,225,232,,,,,,,1.0,0.6,0.8*28

1611925529000,$GPRMC,130529.000,A,4540.3695,N,01156.0193,E,0.0,303.5,290121,,,A*6A

1611925529000,$PSAMCLK,2142,47914700,21,9732911,308886,479147000*46

1611925529000,$PSAMCLK,2142,47914700,21,9732911,308886,479147000*46

1611925530000,$GPGGA,130530.000,4540.3694,N,01156.0193,E,1,23,0.4,43.5,M,47.1,M,,*68

1611925530000,$PSAMSA,130530.000,4540.3694,N,01156.0193,E,0,M,,*68

1611925530000,$GPGLL,4540.3694,N,01156.0193,E,130530.000,A,A*58

1611925530000,$GPVTG,303.5,T,,M,0.1,N,0.1,K,A*08

1611925530000,$GPGSV,3,1,10,10,16,300,34,12,44,235,44,13,29,155,36,14,06,055,14*74

1611925530000,$GPGSV,3,2,10,15,52,199,41,17,38,063,34,19,45,096,37,20,11,265,35*76

1611925530000,$GPGSV,3,3,10,23,17,267,38,24,73,312,38*7E

1611925530000,$GLGSV,2,1,08,69,17,193,24,70,49,259,32,71,27,323,31,79,40,054,38*6C

1611925530000,$GLGSV,2,2,08,80,61,313,25,81,31,075,35,82,17,127,37,88,14,023,23*62

1611925530000,$GAGSV,1,1,04,107,47,198,31,108,06,164,28,127,55,259,38,130,63,050,38*65

1611925530000,$BDGSV,3,1,10,205,19,124,38,210,15,056,25,211,33,082,32,212,12,033,26*64

1611925530000,$BDGSV,3,2,10,220,31,292,32,223,75,038,38,225,27,082,32,228,09,161,34*68

1611925530000,$BDGSV,3,3,10,232,30,228,45,237,42,280,41*6F

1611925530000,$GPGSA,A,3,24,15,19,12,17,13,23,10,20,,,,1.0,0.4,0.8*30

1611925530000,$GNGSA,A,3,70,71,79,81,82,,,,,,,,1.0,0.4,0.8*2D

1611925530000,$GAGSA,A,3,108,127,130,,,,,,,,,,1.0,0.4,0.8*11

1611925530000,$BDGSA,A,3,210,211,220,223,225,232,,,,,,,1.0,0.4,0.8*2A

1611925530000,$GPRMC,130530.000,A,4540.3694,N,01156.0193,E,0.1,303.5,290121,,,A*62

1611925530000,$PSAMCLK,2142,47914800,23,9732929,370668,479148000*4E

1611925530000,$PSAMCLK,2142,47914800,23,9732929,370668,479148000*4E

1611925531000,$GPGGA,130531.000,4540.3694,N,01156.0193,E,1,23,0.4,43.5,M,47.1,M,,*69

1611925531000,$PSAMSA,130531.000,4540.3694,N,01156.0193,E,1,M,,*68

1611925531000,$GPGLL,4540.3694,N,01156.0193,E,130531.000,A,A*59

1611925531000,$GPVTG,303.5,T,,M,0.0,N,0.0,K,A*08

1611925531000,$GPGSV,3,1,10,10,16,300,34,12,44,235,44,13,29,155,36,14,06,055,14*74

1611925531000,$GPGSV,3,2,10,15,52,199,41,17,38,063,33,19,45,096,36,20,11,265,35*70

1611925531000,$GPGSV,3,3,10,23,17,267,37,24,73,312,38*71

1611925531000,$GLGSV,2,1,08,69,17,193,22,70,49,259,32,71,27,323,30,79,40,054,37*64

1611925531000,$GLGSV,2,2,08,80,61,313,25,81,31,075,35,82,17,127,36,88,14,023,21*61

1611925531000,$GAGSV,1,1,04,107,47,198,29,108,06,164,28,127,55,259,37,130,63,050,37*6C

1611925531000,$BDGSV,3,1,10,205,19,124,37,210,15,056,24,211,33,082,32,212,12,033,25*69

1611925531000,$BDGSV,3,2,10,220,31,292,31,223,75,038,38,225,27,082,31,228,09,161,35*69

1611925531000,$BDGSV,3,3,10,232,30,228,44,237,42,280,40*6F

1611925531000,$GPGSA,A,3,24,15,19,12,17,13,10,20,,,,,1.0,0.4,0.8*31

1611925531000,$GNGSA,A,3,70,71,79,80,81,82,,,,,,,1.0,0.4,0.8*25

1611925531000,$GAGSA,A,3,108,127,130,,,,,,,,,,1.0,0.4,0.8*11

1611925531000,$BDGSA,A,3,210,211,220,223,225,232,,,,,,,1.0,0.4,0.8*2A

1611925531000,$GPRMC,130531.000,A,4540.3694,N,01156.0193,E,0.0,303.5,290121,,,A*62

1611925531000,$PSAMCLK,2142,47914900,23,9732951,432448,479149000*40

1611925531000,$PSAMCLK,2142,47914900,23,9732951,432448,479149000*40

1611925532000,$GPGGA,130532.000,4540.3694,N,01156.0192,E,1,24,0.4,43.5,M,47.1,M,,*6C

1611925532000,$PSAMSA,130532.000,4540.3694,N,01156.0192,E,1,M,,*6A

1611925532000,$GPGLL,4540.3694,N,01156.0192,E,130532.000,A,A*5B

1611925532000,$GPVTG,303.4,T,,M,0.0,N,0.0,K,A*09

1611925532000,$GPGSV,3,1,10,10,16,300,34,12,44,235,43,13,29,155,36,14,06,055,13*74

1611925532000,$GPGSV,3,2,10,15,52,199,41,17,38,063,33,19,45,096,35,20,11,265,34*72

1611925532000,$GPGSV,3,3,10,23,17,267,37,24,73,312,37*7E

1611925532000,$GLGSV,2,1,08,69,17,193,21,70,49,259,31,71,27,323,30,79,40,054,36*65

1611925532000,$GLGSV,2,2,08,80,61,313,24,81,31,075,34,82,17,127,36,88,14,023,20*60

1611925532000,$GAGSV,1,1,04,107,47,198,36,108,06,164,29,127,55,259,37,130,63,050,37*63

1611925532000,$BDGSV,3,1,10,205,19,124,35,210,15,056,24,211,33,082,31,212,12,033,25*68

1611925532000,$BDGSV,3,2,10,220,31,292,31,223,75,038,37,225,27,082,31,228,09,161,35*66

1611925532000,$BDGSV,3,3,10,232,30,228,44,237,42,280,40*6F

1611925532000,$GPGSA,A,3,24,15,19,12,17,13,10,20,,,,,1.0,0.4,0.8*31

1611925532000,$GNGSA,A,3,70,71,79,80,81,82,,,,,,,1.0,0.4,0.8*25

1611925532000,$GAGSA,A,3,108,127,130,,,,,,,,,,1.0,0.4,0.8*11

1611925532000,$BDGSA,A,3,210,211,212,220,223,225,232,,,,,,1.0,0.4,0.8*1B

1611925532000,$GPRMC,130532.000,A,4540.3694,N,01156.0192,E,0.0,303.4,290121,,,A*61

1611925532000,$PSAMCLK,2142,47915000,24,9732937,494228,479150000*4B

1611925532000,$PSAMCLK,2142,47915000,24,9732937,494228,479150000*4B

1611925533000,$GPGGA,130533.000,4540.3694,N,01156.0192,E,1,23,0.4,43.5,M,47.1,M,,*6A

1611925533000,$PSAMSA,130533.000,4540.3694,N,01156.0192,E,1,M,,*6B

1611925533000,$GPGLL,4540.3694,N,01156.0192,E,130533.000,A,A*5A

1611925533000,$GPVTG,303.5,T,,M,0.0,N,0.0,K,A*08

1611925533000,$GPGSV,3,1,10,10,16,300,34,12,44,235,43,13,29,155,36,14,06,055,12*75

1611925533000,$GPGSV,3,2,10,15,52,199,41,17,38,063,32,19,45,096,34,20,11,265,33*75

1611925533000,$GPGSV,3,3,10,23,17,267,36,24,73,312,37*7F

1611925533000,$GLGSV,2,1,08,69,17,193,19,70,49,259,30,71,27,323,29,79,40,054,35*64

1611925533000,$GLGSV,2,2,08,80,61,313,23,81,31,075,34,82,17,127,36,88,14,023,18*6C

1611925533000,$GAGSV,1,1,04,107,47,198,37,108,06,164,29,127,55,259,37,130,63,050,36*63

1611925533000,$BDGSV,3,1,10,205,19,124,34,210,15,056,24,211,33,082,31,212,12,033,25*69

1611925533000,$BDGSV,3,2,10,220,31,292,31,223,75,038,37,225,27,082,30,228,09,161,35*67

1611925533000,$BDGSV,3,3,10,232,30,228,43,237,42,280,39*66

1611925533000,$GPGSA,A,3,24,15,19,12,17,13,10,20,,,,,1.0,0.4,0.8*31

1611925533000,$GNGSA,A,3,71,80,81,82,,,,,,,,,1.0,0.4,0.8*2C

1611925533000,$GAGSA,A,3,107,108,127,130,,,,,,,,,1.0,0.4,0.8*27

1611925533000,$BDGSA,A,3,210,211,212,220,223,225,232,,,,,,1.0,0.4,0.8*1B

1611925533000,$GPRMC,130533.000,A,4540.3694,N,01156.0192,E,0.0,303.5,290121,,,A*61

1611925533000,$PSAMCLK,2142,47915100,23,9732917,556008,479151000*41

1611925533000,$PSAMCLK,2142,47915100,23,9732917,556008,479151000*41

1611925534000,$GPGGA,130534.000,4540.3694,N,01156.0192,E,1,23,0.4,43.5,M,47.1,M,,*6D

1611925534000,$PSAMSA,130534.000,4540.3694,N,01156.0192,E,1,M,,*6C

1611925534000,$GPGLL,4540.3694,N,01156.0192,E,130534.000,A,A*5D

1611925534000,$GPVTG,303.5,T,,M,0.0,N,0.0,K,A*08

1611925534000,$GPGSV,3,1,09,10,16,300,33,12,44,235,42,13,29,155,37,15,52,199,42*7E

1611925534000,$GPGSV,3,2,09,17,38,063,32,19,45,096,33,20,11,265,33,23,17,267,35*7F

1611925534000,$GPGSV,3,3,09,24,73,312,37*46

1611925534000,$GLGSV,2,1,08,69,17,193,18,70,49,259,29,71,27,323,28,79,40,054,34*6D

1611925534000,$GLGSV,2,2,08,80,61,313,23,81,31,075,33,82,17,127,35,88,14,023,17*67

1611925534000,$GAGSV,1,1,04,107,47,198,38,108,06,164,29,127,55,259,37,130,63,050,36*6C

1611925534000,$BDGSV,3,1,10,205,19,124,32,210,15,056,23,211,33,082,30,212,12,033,24*68

1611925534000,$BDGSV,3,2,10,220,31,292,31,223,75,038,36,225,27,082,30,228,09,161,36*65

1611925534000,$BDGSV,3,3,10,232,30,228,43,237,42,280,39*66

1611925534000,$GPGSA,A,3,24,15,19,12,17,13,10,20,,,,,1.0,0.4,0.8*31

1611925534000,$GNGSA,A,3,71,80,81,82,,,,,,,,,1.0,0.4,0.8*2C

1611925534000,$GAGSA,A,3,107,108,127,130,,,,,,,,,1.0,0.4,0.8*27

1611925534000,$BDGSA,A,3,210,211,212,220,223,225,232,,,,,,1.0,0.4,0.8*1B

1611925534000,$GPRMC,130534.000,A,4540.3694,N,01156.0192,E,0.0,303.5,290121,,,A*66

1611925534000,$PSAMCLK,2142,47915200,23,9732886,617787,479152000*4E

1611925534000,$PSAMCLK,2142,47915200,23,9732886,617787,479152000*4E

1611925535000,$GPGGA,130535.000,4540.3694,N,01156.0192,E,1,23,0.4,43.5,M,47.1,M,,*6C

1611925535000,$PSAMSA,130535.000,4540.3694,N,01156.0192,E,1,M,,*6D

1611925535000,$GPGLL,4540.3694,N,01156.0192,E,130535.000,A,A*5C

1611925535000,$GPVTG,303.5,T,,M,0.0,N,0.0,K,A*08

1611925535000,$GPGSV,3,1,09,10,16,300,33,12,44,235,42,13,29,155,37,15,52,199,42*7E

1611925535000,$GPGSV,3,2,09,17,38,063,31,19,45,096,33,20,11,265,32,23,17,267,35*7D

1611925535000,$GPGSV,3,3,09,24,73,312,36*47

1611925535000,$GLGSV,2,1,08,69,17,193,16,70,49,259,29,71,27,323,28,79,40,054,34*63

1611925535000,$GLGSV,2,2,08,80,61,313,23,81,31,075,33,82,17,127,35,88,14,023,15*65

1611925535000,$GAGSV,1,1,04,107,47,198,38,108,06,164,29,127,55,259,36,130,63,050,35*6E

1611925535000,$BDGSV,3,1,10,205,19,124,31,210,15,056,23,211,33,082,30,212,12,033,24*6B

1611925535000,$BDGSV,3,2,10,220,31,292,31,223,75,038,36,225,27,082,30,228,09,161,36*65

1611925535000,$BDGSV,3,3,10,232,30,228,42,237,42,280,39*67

1611925535000,$GPGSA,A,3,24,15,19,12,17,13,10,20,,,,,1.0,0.4,0.8*31

1611925535000,$GNGSA,A,3,71,80,81,82,,,,,,,,,1.0,0.4,0.8*2C

1611925535000,$GAGSA,A,3,107,108,127,130,,,,,,,,,1.0,0.4,0.8*27

1611925535000,$BDGSA,A,3,210,211,212,220,223,225,232,,,,,,1.0,0.4,0.8*1B

1611925535000,$GPRMC,130535.000,A,4540.3694,N,01156.0192,E,0.0,303.5,290121,,,A*67

1611925535000,$PSAMCLK,2142,47915300,23,9732840,679566,479153000*41

1611925535000,$PSAMCLK,2142,47915300,23,9732840,679566,479153000*41

1611925536000,$GPGGA,130536.000,4540.3694,N,01156.0192,E,1,22,0.4,43.5,M,47.1,M,,*6E

1611925536000,$PSAMSA,130536.000,4540.3694,N,01156.0192,E,1,M,,*6E

1611925536000,$GPGLL,4540.3694,N,01156.0192,E,130536.000,A,A*5F

1611925536000,$GPVTG,303.5,T,,M,0.0,N,0.0,K,A*08

1611925536000,$GPGSV,3,1,09,10,16,300,33,12,44,235,41,13,29,155,37,15,52,199,42*7D

1611925536000,$GPGSV,3,2,09,17,38,063,31,19,45,096,32,20,11,265,32,23,17,267,34*7D

1611925536000,$GPGSV,3,3,09,24,73,312,36*47

1611925536000,$GLGSV,2,1,08,69,17,193,15,70,49,259,28,71,27,323,27,79,40,054,33*69

1611925536000,$GLGSV,2,2,08,80,61,313,22,81,31,075,33,82,17,127,35,88,14,023,14*65

1611925536000,$GAGSV,1,1,04,107,47,198,38,108,06,164,29,127,55,259,36,130,63,050,35*6E

1611925536000,$BDGSV,3,1,10,205,19,124,29,210,15,056,23,211,33,082,30,212,12,033,24*62

1611925536000,$BDGSV,3,2,10,220,31,292,31,223,75,038,35,225,27,082,29,228,09,161,35*6D

1611925536000,$BDGSV,3,3,10,232,30,228,42,237,42,280,38*66

1611925536000,$GPGSA,A,3,24,15,19,12,17,13,10,20,,,,,1.0,0.4,0.8*31

1611925536000,$GNGSA,A,3,80,81,82,,,,,,,,,,1.0,0.4,0.8*2A

1611925536000,$GAGSA,A,3,107,108,127,130,,,,,,,,,1.0,0.4,0.8*27

1611925536000,$BDGSA,A,3,210,211,212,220,223,225,232,,,,,,1.0,0.4,0.8*1B

1611925536000,$GPRMC,130536.000,A,4540.3694,N,01156.0192,E,0.0,303.5,290121,,,A*64

1611925536000,$PSAMCLK,2142,47915400,22,9732792,741345,479154000*4D

1611925536000,$PSAMCLK,2142,47915400,22,9732792,741345,479154000*4D

1611925537000,$GPGGA,130537.000,4540.3694,N,01156.0192,E,1,23,0.4,43.5,M,47.1,M,,*6E

1611925537000,$PSAMSA,130537.000,4540.3694,N,01156.0192,E,1,M,,*6F

1611925537000,$GPGLL,4540.3694,N,01156.0192,E,130537.000,A,A*5E

1611925537000,$GPVTG,303.5,T,,M,0.0,N,0.0,K,A*08

1611925537000,$GPGSV,3,1,09,10,16,300,33,12,44,235,41,13,29,155,36,15,52,199,42*7C

1611925537000,$GPGSV,3,2,09,17,38,063,31,19,45,096,32,20,11,265,31,23,17,267,34*7E

1611925537000,$GPGSV,3,3,09,24,73,312,36*47

1611925537000,$GLGSV,2,1,08,69,17,193,14,70,49,259,28,71,27,323,27,79,40,054,33*68

1611925537000,$GLGSV,2,2,08,80,61,313,22,81,31,075,32,82,17,127,34,88,14,023,13*62

1611925537000,$GAGSV,1,1,04,107,47,198,39,108,06,164,29,127,55,259,36,130,63,050,35*6F

1611925537000,$BDGSV,3,1,10,205,19,124,28,210,15,056,23,211,33,082,29,212,12,033,24*6B

1611925537000,$BDGSV,3,2,10,220,31,292,31,223,75,038,35,225,27,082,29,228,09,161,35*6D

1611925537000,$BDGSV,3,3,10,232,30,228,42,237,42,280,38*66

1611925537000,$GPGSA,A,3,24,15,19,12,17,13,10,20,,,,,1.0,0.4,0.8*31

1611925537000,$GNGSA,A,3,71,80,81,82,,,,,,,,,1.0,0.4,0.8*2C

1611925537000,$GAGSA,A,3,107,108,127,130,,,,,,,,,1.0,0.4,0.8*27

1611925537000,$BDGSA,A,3,210,211,212,220,223,225,232,,,,,,1.0,0.4,0.8*1B

1611925537000,$GPRMC,130537.000,A,4540.3694,N,01156.0192,E,0.0,303.5,290121,,,A*65

1611925537000,$PSAMCLK,2142,47915500,23,9732745,803124,479155000*4A

1611925537000,$PSAMCLK,2142,47915500,23,9732745,803124,479155000*4A

1611925538000,$GPGGA,130538.000,4540.3694,N,01156.0192,E,1,24,0.4,43.5,M,47.1,M,,*66

1611925538000,$PSAMSA,130538.000,4540.3694,N,01156.0192,E,1,M,,*60

1611925538000,$GPGLL,4540.3694,N,01156.0192,E,130538.000,A,A*51

1611925538000,$GPVTG,303.5,T,,M,0.0,N,0.0,K,A*08

1611925538000,$GPGSV,3,1,09,10,16,300,33,12,44,235,41,13,29,155,36,15,52,199,42*7C

1611925538000,$GPGSV,3,2,09,17,38,063,30,19,45,096,31,20,11,265,31,23,17,267,34*7C

1611925538000,$GPGSV,3,3,09,24,73,312,35*44

1611925538000,$GLGSV,2,1,08,69,17,193,13,70,49,259,27,71,27,323,26,79,40,054,32*60

1611925538000,$GLGSV,2,2,08,80,61,313,21,81,31,075,32,82,17,127,34,88,14,023,12*60

1611925538000,$GAGSV,1,1,04,107,47,198,39,108,06,164,29,127,55,259,36,130,63,050,34*6E

1611925538000,$BDGSV,3,1,10,205,19,124,26,210,15,056,22,211,33,082,29,212,12,033,23*63

1611925538000,$BDGSV,3,2,10,220,31,292,31,223,75,038,35,225,27,082,29,228,09,161,34*6C

1611925538000,$BDGSV,3,3,10,232,30,228,41,237,42,280,37*6A

1611925538000,$GPGSA,A,3,24,15,19,12,17,13,10,20,,,,,0.8,0.4,0.8*38

1611925538000,$GNGSA,A,3,70,71,80,81,82,,,,,,,,0.8,0.4,0.8*22

1611925538000,$GAGSA,A,3,107,108,127,130,,,,,,,,,0.8,0.4,0.8*2E

1611925538000,$BDGSA,A,3,210,211,212,220,223,225,232,,,,,,0.8,0.4,0.8*12

1611925538000,$GPRMC,130538.000,A,4540.3694,N,01156.0192,E,0.0,303.5,290121,,,A*6A

1611925538000,$PSAMCLK,2142,47915600,24,9732697,864902,479156000*4E

1611925538000,$PSAMCLK,2142,47915600,24,9732697,864902,479156000*4E

1611925539000,$GPGGA,130539.000,4540.3694,N,01156.0192,E,1,24,0.4,43.5,M,47.1,M,,*67

1611925539000,$PSAMSA,130539.000,4540.3694,N,01156.0192,E,0,M,,*60

1611925539000,$GPGLL,4540.3694,N,01156.0192,E,130539.000,A,A*50

1611925539000,$GPVTG,303.5,T,,M,0.0,N,0.0,K,A*08

1611925539000,$GPGSV,3,1,09,10,16,300,33,12,44,235,40,13,29,155,36,15,52,199,42*7D

1611925539000,$GPGSV,3,2,09,17,38,063,30,19,45,096,31,20,11,265,31,23,17,267,33*7B

1611925539000,$GPGSV,3,3,09,24,73,312,35*44

1611925539000,$GLGSV,2,1,07,69,17,193,12,70,49,259,27,71,27,323,26,79,40,054,32*6E

1611925539000,$GLGSV,2,2,07,80,61,313,21,81,31,075,32,82,17,127,34*58

1611925539000,$GAGSV,1,1,04,107,47,198,39,108,06,164,29,127,55,259,36,130,63,050,34*6E

1611925539000,$BDGSV,3,1,10,205,19,124,25,210,15,056,22,211,33,082,29,212,12,033,23*60

1611925539000,$BDGSV,3,2,10,220,31,292,31,223,75,038,34,225,27,082,28,228,09,161,34*6C

1611925539000,$BDGSV,3,3,10,232,30,228,41,237,42,280,37*6A

1611925539000,$GPGSA,A,3,24,15,19,12,17,13,10,20,,,,,0.8,0.4,0.8*38

1611925539000,$GNGSA,A,3,70,71,80,81,82,,,,,,,,0.8,0.4,0.8*22

1611925539000,$GAGSA,A,3,107,108,127,130,,,,,,,,,0.8,0.4,0.8*2E

1611925539000,$BDGSA,A,3,210,211,212,220,223,225,232,,,,,,0.8,0.4,0.8*12

1611925539000,$GPRMC,130539.000,A,4540.3694,N,01156.0192,E,0.0,303.5,290121,,,A*6B

1611925539000,$PSAMCLK,2142,47915700,24,9732523,926682,479157000*42

1611925539000,$PSAMCLK,2142,47915700,24,9732523,926682,479157000*42

1611925540000,$GPGGA,130540.000,4540.3694,N,01156.0192,E,1,24,0.4,43.5,M,47.1,M,,*69

1611925540000,$PSAMSA,130540.000,4540.3694,N,01156.0192,E,0,M,,*6E

1611925540000,$GPGLL,4540.3694,N,01156.0192,E,130540.000,A,A*5E

1611925540000,$GPVTG,303.5,T,,M,0.0,N,0.0,K,A*08

1611925540000,$GPGSV,3,1,09,10,16,300,32,12,44,235,40,13,29,155,35,15,52,199,42*7F

1611925540000,$GPGSV,3,2,09,17,38,063,30,19,45,096,31,20,11,265,31,23,17,267,33*7B

1611925540000,$GPGSV,3,3,09,24,73,312,35*44

1611925540000,$GLGSV,2,1,06,70,49,259,27,71,27,323,25,79,40,054,31,80,61,313,21*63

1611925540000,$GLGSV,2,2,06,81,31,075,31,82,17,127,34*67

1611925540000,$GAGSV,1,1,04,107,47,198,39,108,06,164,29,127,55,259,35,130,63,050,34*6D

1611925540000,$BDGSV,3,1,10,205,19,124,23,210,15,056,22,211,33,082,28,212,12,033,23*67

1611925540000,$BDGSV,3,2,10,220,31,292,31,223,75,038,34,225,27,082,28,228,09,161,33*6B

1611925540000,$BDGSV,3,3,10,232,30,228,41,237,42,280,37*6A

1611925540000,$GPGSA,A,3,24,15,19,12,17,13,10,20,,,,,0.8,0.4,0.8*38

1611925540000,$GNGSA,A,3,70,71,80,81,82,,,,,,,,0.8,0.4,0.8*22

1611925540000,$GAGSA,A,3,107,108,127,130,,,,,,,,,0.8,0.4,0.8*2E

1611925540000,$BDGSA,A,3,210,211,212,220,223,225,232,,,,,,0.8,0.4,0.8*12

1611925540000,$GPRMC,130540.000,A,4540.3694,N,01156.0192,E,0.0,303.5,290121,,,A*65

1611925540000,$PSAMCLK,2142,47915800,24,9732443,988457,479158000*4B

1611925540000,$PSAMCLK,2142,47915800,24,9732443,988457,479158000*4B

1611925541000,$GPGGA,130541.000,4540.3694,N,01156.0192,E,1,24,0.4,43.5,M,47.1,M,,*68

1611925541000,$PSAMSA,130541.000,4540.3694,N,01156.0192,E,0,M,,*6F

1611925541000,$GPGLL,4540.3694,N,01156.0192,E,130541.000,A,A*5F

1611925541000,$GPVTG,303.5,T,,M,0.0,N,0.0,K,A*08

1611925541000,$GPGSV,3,1,09,10,16,300,32,12,44,235,40,13,29,155,35,15,52,199,42*7F

1611925541000,$GPGSV,3,2,09,17,38,063,30,19,45,096,30,20,11,265,30,23,17,267,33*7B

1611925541000,$GPGSV,3,3,09,24,73,312,35*44

1611925541000,$GLGSV,2,1,06,70,49,259,26,71,27,323,25,79,40,054,31,80,61,313,21*62

1611925541000,$GLGSV,2,2,06,81,31,075,31,82,17,127,33*60

1611925541000,$GAGSV,1,1,04,107,47,198,39,108,06,164,29,127,55,259,35,130,63,050,33*6A

1611925541000,$BDGSV,3,1,10,205,19,124,22,210,15,056,21,211,33,082,28,212,12,033,22*64

1611925541000,$BDGSV,3,2,10,220,31,292,31,223,75,038,34,225,27,082,28,228,09,161,33*6B

1611925541000,$BDGSV,3,3,10,232,30,228,41,237,42,280,36*6B

1611925541000,$GPGSA,A,3,24,15,19,12,17,13,10,20,,,,,0.8,0.4,0.8*38

1611925541000,$GNGSA,A,3,70,71,80,81,82,,,,,,,,0.8,0.4,0.8*22

1611925541000,$GAGSA,A,3,107,108,127,130,,,,,,,,,0.8,0.4,0.8*2E

1611925541000,$BDGSA,A,3,210,211,212,220,223,225,232,,,,,,0.8,0.4,0.8*12

1611925541000,$GPRMC,130541.000,A,4540.3694,N,01156.0192,E,0.0,303.5,290121,,,A*64

1611925541000,$PSAMCLK,2142,47915900,24,9732398,1050234,479159000*74

1611925541000,$PSAMCLK,2142,47915900,24,9732398,1050234,479159000*74

1611925542000,$GPGGA,130542.000,4540.3694,N,01156.0192,E,1,23,0.4,43.5,M,47.1,M,,*6C

1611925542000,$PSAMSA,130542.000,4540.3694,N,01156.0192,E,0,M,,*6C

1611925542000,$GPGLL,4540.3694,N,01156.0192,E,130542.000,A,A*5C

1611925542000,$GPVTG,303.5,T,,M,0.0,N,0.0,K,A*08

1611925542000,$GPGSV,3,1,09,10,16,300,32,12,44,235,40,13,29,155,35,15,52,199,42*7F

1611925542000,$GPGSV,3,2,09,17,38,063,30,19,45,096,30,20,11,265,30,23,17,267,32*7A

1611925542000,$GPGSV,3,3,09,24,73,312,34*45

1611925542000,$GLGSV,2,1,06,70,49,259,26,71,27,323,24,79,40,054,31,80,61,313,20*62

1611925542000,$GLGSV,2,2,06,81,31,075,31,82,17,127,33*60

1611925542000,$GAGSV,1,1,04,107,47,198,39,108,06,164,29,127,55,259,35,130,63,050,33*6A

1611925542000,$BDGSV,3,1,10,205,19,124,20,210,15,056,21,211,33,082,28,212,12,033,21*65

1611925542000,$BDGSV,3,2,10,220,31,292,31,223,75,038,33,225,27,082,28,228,09,161,33*6C

1611925542000,$BDGSV,3,3,10,232,30,228,40,237,42,280,36*6A

1611925542000,$GPGSA,A,3,24,15,19,12,17,13,10,20,,,,,1.0,0.4,0.8*31

1611925542000,$GNGSA,A,3,70,71,80,81,82,,,,,,,,1.0,0.4,0.8*2B

1611925542000,$GAGSA,A,3,107,108,127,130,,,,,,,,,1.0,0.4,0.8*27

1611925542000,$BDGSA,A,3,210,211,220,223,225,232,,,,,,,1.0,0.4,0.8*2A

1611925542000,$GPRMC,130542.000,A,4540.3694,N,01156.0192,E,0.0,303.5,290121,,,A*67

1611925542000,$PSAMCLK,2142,47916000,23,9732301,1112010,479160000*70

1611925542000,$PSAMCLK,2142,47916000,23,9732301,1112010,479160000*70

1611925543000,$GPGGA,130543.000,4540.3682,N,01156.0201,E,1,24,0.4,45.6,M,47.1,M,,*61

1611925543000,$PSAMSA,130543.000,4540.3682,N,01156.0201,E,0,M,,*63

1611925543000,$GPGLL,4540.3682,N,01156.0201,E,130543.000,A,A*53

1611925543000,$GPVTG,303.5,T,,M,0.2,N,0.4,K,A*0E

1611925543000,$GPGSV,3,1,09,10,16,300,32,12,44,235,39,13,29,155,34,15,52,199,42*70

1611925543000,$GPGSV,3,2,09,17,38,063,30,19,45,096,30,20,11,265,30,23,17,267,32*7A

1611925543000,$GPGSV,3,3,09,24,73,312,34*45

1611925543000,$GLGSV,2,1,06,70,49,259,26,71,27,323,24,79,40,054,30,80,61,313,20*63

1611925543000,$GLGSV,2,2,06,81,31,075,30,82,17,127,33*61

1611925543000,$GAGSV,1,1,04,107,47,198,39,108,06,164,28,127,55,259,35,130,63,050,33*6B

1611925543000,$BDGSV,3,1,10,205,19,124,19,210,15,056,21,211,33,082,28,212,12,033,19*64

1611925543000,$BDGSV,3,2,10,220,31,292,31,223,75,038,33,225,27,082,27,228,09,161,32*62

1611925543000,$BDGSV,3,3,10,232,30,228,40,237,42,280,36*6A

1611925543000,$GPGSA,A,3,24,15,19,12,17,13,10,20,,,,,1.0,0.4,0.8*31

1611925543000,$GNGSA,A,3,70,71,79,80,81,82,,,,,,,1.0,0.4,0.8*25

1611925543000,$GAGSA,A,3,107,108,127,130,,,,,,,,,1.0,0.4,0.8*27

1611925543000,$BDGSA,A,3,210,211,220,223,225,232,,,,,,,1.0,0.4,0.8*2A

1611925543000,$GPRMC,130543.000,A,4540.3682,N,01156.0201,E,0.2,303.5,290121,,,A*6A

1611925543000,$PSAMCLK,2142,47916100,24,9732127,1173787,479161000*7F

1611925543000,$PSAMCLK,2142,47916100,24,9732127,1173787,479161000*7F

1611925544000,$GPGGA,130544.000,4540.3681,N,01156.0199,E,1,23,0.4,45.8,M,47.1,M,,*6E

1611925544000,$PSAMSA,130544.000,4540.3681,N,01156.0199,E,0,M,,*65

1611925544000,$GPGLL,4540.3681,N,01156.0199,E,130544.000,A,A*55

1611925544000,$GPVTG,303.5,T,,M,0.2,N,0.3,K,A*09

1611925544000,$GPGSV,3,1,09,10,16,300,32,12,44,235,39,13,29,155,34,15,52,199,42*70

1611925544000,$GPGSV,3,2,09,17,38,063,30,19,45,096,29,20,11,265,30,23,17,267,32*72

1611925544000,$GPGSV,3,3,09,24,73,312,34*45

1611925544000,$GLGSV,2,1,06,70,49,259,26,71,27,323,23,79,40,054,30,80,61,313,20*64

1611925544000,$GLGSV,2,2,06,81,31,075,30,82,17,127,33*61

1611925544000,$GAGSV,1,1,04,107,47,198,39,108,06,164,28,127,55,259,35,130,63,050,33*6B

1611925544000,$BDGSV,3,1,10,205,19,124,17,210,15,056,21,211,33,082,28,212,12,033,18*6B

1611925544000,$BDGSV,3,2,10,220,31,292,31,223,75,038,33,225,27,082,27,228,09,161,32*62

1611925544000,$BDGSV,3,3,10,232,30,228,40,237,42,280,35*69

1611925544000,$GPGSA,A,3,24,15,19,12,17,13,10,20,,,,,1.0,0.4,0.8*31

1611925544000,$GNGSA,A,3,70,71,79,81,82,,,,,,,,1.0,0.4,0.8*2D

1611925544000,$GAGSA,A,3,107,108,127,130,,,,,,,,,1.0,0.4,0.8*27

1611925544000,$BDGSA,A,3,210,211,220,223,225,232,,,,,,,1.0,0.4,0.8*2A

1611925544000,$GPRMC,130544.000,A,4540.3681,N,01156.0199,E,0.2,303.5,290121,,,A*6C

1611925544000,$PSAMCLK,2142,47916200,23,9732191,1235564,479162000*7B

1611925544000,$PSAMCLK,2142,47916200,23,9732191,1235564,479162000*7B

1611925545000,$GPGGA,130545.000,4540.3681,N,01156.0199,E,1,23,0.4,46.2,M,47.1,M,,*66

1611925545000,$PSAMSA,130545.000,4540.3681,N,01156.0199,E,0,M,,*64

1611925545000,$GPGLL,4540.3681,N,01156.0199,E,130545.000,A,A*54

1611925545000,$GPVTG,303.5,T,,M,0.1,N,0.2,K,A*0B

1611925545000,$GPGSV,3,1,09,10,16,300,32,12,44,235,39,13,29,155,34,15,52,199,42*70

1611925545000,$GPGSV,3,2,09,17,38,063,30,19,45,096,29,20,11,265,29,23,17,267,32*7A

1611925545000,$GPGSV,3,3,09,24,73,312,34*45

1611925545000,$GLGSV,2,1,06,70,49,259,25,71,27,323,23,79,40,054,30,80,61,313,20*67

1611925545000,$GLGSV,2,2,06,81,31,075,30,82,17,127,33*61

1611925545000,$GAGSV,1,1,04,107,47,198,39,108,06,164,28,127,55,259,35,130,63,050,33*6B

1611925545000,$BDGSV,3,1,10,205,19,124,26,210,15,056,20,211,33,082,28,212,12,033,16*66

1611925545000,$BDGSV,3,2,10,220,31,292,31,223,75,038,33,225,27,082,27,228,09,161,32*62

1611925545000,$BDGSV,3,3,10,232,30,228,40,237,42,280,35*69

1611925545000,$GPGSA,A,3,24,15,19,12,17,13,23,10,20,,,,1.0,0.4,0.8*30

1611925545000,$GNGSA,A,3,70,79,81,82,,,,,,,,,1.0,0.4,0.8*2B

1611925545000,$GAGSA,A,3,107,108,127,130,,,,,,,,,1.0,0.4,0.8*27

1611925545000,$BDGSA,A,3,210,211,220,223,225,232,,,,,,,1.0,0.4,0.8*2A

1611925545000,$GPRMC,130545.000,A,4540.3681,N,01156.0199,E,0.1,303.5,290121,,,A*6E

1611925545000,$PSAMCLK,2142,47916300,23,9732137,1297340,479163000*7F

1611925545000,$PSAMCLK,2142,47916300,23,9732137,1297340,479163000*7F

1611925546000,$GPGGA,130546.000,4540.3681,N,01156.0199,E,1,22,0.4,46.2,M,47.1,M,,*64

1611925546000,$PSAMSA,130546.000,4540.3681,N,01156.0199,E,1,M,,*66

1611925546000,$GPGLL,4540.3681,N,01156.0199,E,130546.000,A,A*57

1611925546000,$GPVTG,303.5,T,,M,0.0,N,0.0,K,A*08

1611925546000,$GPGSV,3,1,09,10,16,300,32,12,44,235,39,13,29,155,34,15,52,199,42*70

1611925546000,$GPGSV,3,2,09,17,38,063,29,19,45,096,29,20,11,265,29,23,17,267,31*71

1611925546000,$GPGSV,3,3,09,24,73,312,34*45

1611925546000,$GLGSV,2,1,06,70,49,259,25,71,27,323,23,79,40,054,29,80,61,313,19*65

1611925546000,$GLGSV,2,2,06,81,31,075,30,82,17,127,33*61

1611925546000,$GAGSV,1,1,04,107,47,198,39,108,06,164,28,127,55,259,35,130,63,050,32*6A

1611925546000,$BDGSV,3,1,10,205,19,124,26,210,15,056,20,211,33,082,28,212,12,033,15*65

1611925546000,$BDGSV,3,2,10,220,31,292,31,223,75,038,33,225,27,082,27,228,09,161,32*62

1611925546000,$BDGSV,3,3,10,232,30,228,40,237,42,280,35*69

1611925546000,$GPGSA,A,3,24,15,19,12,17,13,10,20,,,,,1.0,0.4,0.8*31

1611925546000,$GNGSA,A,3,70,71,79,82,,,,,,,,,1.0,0.4,0.8*24

1611925546000,$GAGSA,A,3,107,108,127,130,,,,,,,,,1.0,0.4,0.8*27

1611925546000,$BDGSA,A,3,210,211,220,223,225,232,,,,,,,1.0,0.4,0.8*2A

1611925546000,$GPRMC,130546.000,A,4540.3681,N,01156.0199,E,0.0,303.5,290121,,,A*6C

1611925546000,$PSAMCLK,2142,47916400,22,9732077,1359114,479164000*7B

1611925546000,$PSAMCLK,2142,47916400,22,9732077,1359114,479164000*7B

1611925547000,$GPGGA,130547.000,4540.3681,N,01156.0199,E,1,24,0.4,46.2,M,47.1,M,,*63

1611925547000,$PSAMSA,130547.000,4540.3681,N,01156.0199,E,1,M,,*67

1611925547000,$GPGLL,4540.3681,N,01156.0199,E,130547.000,A,A*56

1611925547000,$GPVTG,303.5,T,,M,0.0,N,0.0,K,A*08

1611925547000,$GPGSV,3,1,09,10,16,300,32,12,44,235,39,13,29,155,34,15,52,199,42*70

1611925547000,$GPGSV,3,2,09,17,38,063,29,19,45,096,29,20,11,265,29,23,17,267,31*71

1611925547000,$GPGSV,3,3,09,24,73,312,34*45

1611925547000,$GLGSV,2,1,06,70,49,259,25,71,27,323,23,79,40,054,29,80,61,313,19*65

1611925547000,$GLGSV,2,2,06,81,31,075,29,82,17,127,33*69

1611925547000,$GAGSV,1,1,04,107,47,198,39,108,06,164,28,127,55,259,35,130,63,050,32*6A

1611925547000,$BDGSV,3,1,10,205,19,124,25,210,15,056,20,211,33,082,27,212,12,033,14*68

1611925547000,$BDGSV,3,2,10,220,31,292,31,223,75,038,32,225,27,082,27,228,09,161,31*60

1611925547000,$BDGSV,3,3,10,232,30,228,40,237,42,280,35*69

1611925547000,$GPGSA,A,3,24,15,19,12,17,13,23,10,20,,,,1.0,0.4,0.8*30

1611925547000,$GNGSA,A,3,70,71,79,81,82,,,,,,,,1.0,0.4,0.8*2D

1611925547000,$GAGSA,A,3,107,108,127,130,,,,,,,,,1.0,0.4,0.8*27

1611925547000,$BDGSA,A,3,210,211,220,223,225,232,,,,,,,1.0,0.4,0.8*2A

1611925547000,$GPRMC,130547.000,A,4540.3681,N,01156.0199,E,0.0,303.5,290121,,,A*6D

1611925547000,$PSAMCLK,2142,47916500,24,9732001,1420888,479165000*79

1611925547000,$PSAMCLK,2142,47916500,24,9732001,1420888,479165000*79

1611925548000,$GPGGA,130548.000,4540.3681,N,01156.0199,E,1,21,0.6,46.2,M,47.1,M,,*6B

1611925548000,$PSAMSA,130548.000,4540.3681,N,01156.0199,E,1,M,,*68

1611925548000,$GPGLL,4540.3681,N,01156.0199,E,130548.000,A,A*59

1611925548000,$GPVTG,303.5,T,,M,0.0,N,0.0,K,A*08

1611925548000,$GPGSV,3,1,09,10,16,300,32,12,44,235,38,13,29,155,33,15,52,199,42*76

1611925548000,$GPGSV,3,2,09,17,38,063,29,19,45,096,29,20,11,265,29,23,17,267,31*71

1611925548000,$GPGSV,3,3,09,24,73,312,33*42

1611925548000,$GLGSV,2,1,06,70,49,259,25,71,28,323,22,79,39,055,29,80,61,313,19*64

1611925548000,$GLGSV,2,2,06,81,31,075,29,82,17,127,33*69

1611925548000,$GAGSV,1,1,04,107,47,198,39,108,06,164,28,127,56,259,35,130,63,050,32*69

1611925548000,$BDGSV,3,1,10,205,19,124,23,210,15,056,18,211,33,082,27,212,12,033,13*62

1611925548000,$BDGSV,3,2,10,220,31,292,30,223,75,038,32,225,27,082,27,228,09,161,31*61

1611925548000,$BDGSV,3,3,10,232,30,228,40,237,42,280,34*68

1611925548000,$GPGSA,A,3,24,15,19,12,17,13,10,20,,,,,1.0,0.6,0.8*33

1611925548000,$GNGSA,A,3,70,71,79,81,82,,,,,,,,1.0,0.6,0.8*2F

1611925548000,$GAGSA,A,3,107,108,127,130,,,,,,,,,1.0,0.6,0.8*25

1611925548000,$BDGSA,A,3,211,223,225,232,,,,,,,,,1.0,0.6,0.8*2B

1611925548000,$GPRMC,130548.000,A,4540.3681,N,01156.0199,E,0.0,303.5,290121,,,A*62

1611925548000,$PSAMCLK,2142,47916600,21,9731928,1482661,479166000*7C

1611925548000,$PSAMCLK,2142,47916600,21,9731928,1482661,479166000*7C

1611925549000,$GPGGA,130549.000,4540.3681,N,01156.0199,E,1,24,0.4,46.2,M,47.1,M,,*6D

1611925549000,$PSAMSA,130549.000,4540.3681,N,01156.0199,E,1,M,,*69

1611925549000,$GPGLL,4540.3681,N,01156.0199,E,130549.000,A,A*58

1611925549000,$GPVTG,303.5,T,,M,0.0,N,0.0,K,A*08

1611925549000,$GPGSV,3,1,09,10,16,300,32,12,44,235,38,13,29,155,33,15,52,199,42*76

1611925549000,$GPGSV,3,2,09,17,38,063,29,19,45,096,29,20,11,265,29,23,17,267,31*71

1611925549000,$GPGSV,3,3,09,24,73,312,33*42

1611925549000,$GLGSV,2,1,06,70,49,259,25,71,28,323,22,79,39,055,28,80,61,313,17*6B

1611925549000,$GLGSV,2,2,06,81,31,075,29,82,17,127,33*69

1611925549000,$GAGSV,1,1,04,107,47,198,39,108,06,164,28,127,56,259,35,130,63,050,32*69

1611925549000,$BDGSV,3,1,10,205,19,124,22,210,15,056,17,211,33,082,27,212,12,033,13*6C

1611925549000,$BDGSV,3,2,10,220,31,292,30,223,75,038,32,225,27,082,27,228,09,161,31*61

1611925549000,$BDGSV,3,3,10,232,30,228,39,237,42,280,34*66

1611925549000,$GPGSA,A,3,24,15,19,12,17,13,23,10,20,,,,1.0,0.4,0.8*30

1611925549000,$GNGSA,A,3,70,71,79,81,82,,,,,,,,1.0,0.4,0.8*2D

1611925549000,$GAGSA,A,3,107,108,127,130,,,,,,,,,1.0,0.4,0.8*27

1611925549000,$BDGSA,A,3,211,220,223,225,228,232,,,,,,,1.0,0.4,0.8*21

1611925549000,$GPRMC,130549.000,A,4540.3681,N,01156.0199,E,0.0,303.5,290121,,,A*63

1611925549000,$PSAMCLK,2142,47916700,24,9731819,1544434,479167000*73

1611925549000,$PSAMCLK,2142,47916700,24,9731819,1544434,479167000*73

1611925550000,$GPGGA,130550.000,4540.3681,N,01156.0199,E,1,24,0.4,46.2,M,47.1,M,,*65

1611925550000,$PSAMSA,130550.000,4540.3681,N,01156.0199,E,1,M,,*61

1611925550000,$GPGLL,4540.3681,N,01156.0199,E,130550.000,A,A*50

1611925550000,$GPVTG,303.5,T,,M,0.0,N,0.0,K,A*08

1611925550000,$GPGSV,3,1,09,10,16,300,32,12,44,235,38,13,29,155,33,15,52,199,42*76

1611925550000,$GPGSV,3,2,09,17,38,063,29,19,45,096,28,20,11,265,29,23,17,267,31*70

1611925550000,$GPGSV,3,3,09,24,73,312,33*42

1611925550000,$GLGSV,2,1,06,70,49,259,25,71,28,323,22,79,39,055,28,80,61,313,16*6A

1611925550000,$GLGSV,2,2,06,81,31,075,29,82,17,127,33*69

1611925550000,$GAGSV,1,1,04,107,47,198,39,108,06,164,28,127,56,259,35,130,63,050,32*69

1611925550000,$BDGSV,3,1,10,205,19,124,20,210,15,056,15,211,33,082,27,212,12,033,12*6D

1611925550000,$BDGSV,3,2,10,220,31,292,30,223,75,038,32,225,27,082,26,228,09,161,31*60

1611925550000,$BDGSV,3,3,10,232,30,228,39,237,42,280,34*66

1611925550000,$GPGSA,A,3,24,15,19,12,17,13,23,10,20,,,,1.0,0.4,0.8*30

1611925550000,$GNGSA,A,3,70,71,79,81,82,,,,,,,,1.0,0.4,0.8*2D

1611925550000,$GAGSA,A,3,107,108,127,130,,,,,,,,,1.0,0.4,0.8*27

1611925550000,$BDGSA,A,3,211,220,223,225,228,232,,,,,,,1.0,0.4,0.8*21

1611925550000,$GPRMC,130550.000,A,4540.3681,N,01156.0199,E,0.0,303.5,290121,,,A*6B

1611925550000,$PSAMCLK,2142,47916800,24,9731763,1606206,479168000*73

1611925550000,$PSAMCLK,2142,47916800,24,9731763,1606206,479168000*73

1611925551000,$GPGGA,130551.000,4540.3681,N,01156.0199,E,1,24,0.4,46.2,M,47.1,M,,*64

1611925551000,$PSAMSA,130551.000,4540.3681,N,01156.0199,E,1,M,,*60

1611925551000,$GPGLL,4540.3681,N,01156.0199,E,130551.000,A,A*51

1611925551000,$GPVTG,303.5,T,,M,0.0,N,0.0,K,A*08

1611925551000,$GPGSV,3,1,09,10,16,300,32,12,44,235,38,13,29,155,33,15,52,199,42*76

1611925551000,$GPGSV,3,2,09,17,38,063,29,19,45,096,28,20,11,265,28,23,17,267,31*71

1611925551000,$GPGSV,3,3,09,24,73,312,33*42

1611925551000,$GLGSV,2,1,07,70,49,259,24,71,28,323,22,79,39,055,28,80,61,313,14*68

1611925551000,$GLGSV,2,2,07,81,31,075,28,82,17,127,32,88,13,022,15*5E

1611925551000,$GAGSV,1,1,04,107,47,198,39,108,06,164,28,127,56,259,35,130,63,050,32*69

1611925551000,$BDGSV,3,1,09,205,19,124,19,210,15,056,14,211,33,082,27,220,31,292,30*67

1611925551000,$BDGSV,3,2,09,223,75,038,32,225,27,082,26,228,09,161,31,232,30,228,39*62

1611925551000,$BDGSV,3,3,09,237,42,280,34*6C

1611925551000,$GPGSA,A,3,24,15,19,12,17,13,23,10,20,,,,1.0,0.4,0.8*30

1611925551000,$GNGSA,A,3,70,71,79,81,82,,,,,,,,1.0,0.4,0.8*2D

1611925551000,$GAGSA,A,3,107,108,127,130,,,,,,,,,1.0,0.4,0.8*27

1611925551000,$BDGSA,A,3,211,220,223,225,228,232,,,,,,,1.0,0.4,0.8*21

1611925551000,$GPRMC,130551.000,A,4540.3681,N,01156.0199,E,0.0,303.5,290121,,,A*6A

1611925551000,$PSAMCLK,2142,47916900,24,9731677,1667977,479169000*7D

1611925551000,$PSAMCLK,2142,47916900,24,9731677,1667977,479169000*7D

1611925552000,$GPGGA,130552.000,4540.3681,N,01156.0199,E,1,24,0.4,46.2,M,47.1,M,,*67

1611925552000,$PSAMSA,130552.000,4540.3681,N,01156.0199,E,1,M,,*63

1611925552000,$GPGLL,4540.3681,N,01156.0199,E,130552.000,A,A*52

1611925552000,$GPVTG,303.5,T,,M,0.0,N,0.0,K,A*08

1611925552000,$GPGSV,3,1,09,10,16,300,32,12,44,235,38,13,29,155,33,15,52,199,42*76

1611925552000,$GPGSV,3,2,09,17,38,063,29,19,45,096,28,20,11,265,28,23,17,267,30*70

1611925552000,$GPGSV,3,3,09,24,73,312,33*42

1611925552000,$GLGSV,2,1,07,70,49,259,24,71,28,323,22,79,39,055,28,80,61,313,14*68

1611925552000,$GLGSV,2,2,07,81,31,075,28,82,17,127,32,88,13,022,19*52

1611925552000,$GAGSV,1,1,04,107,47,198,39,108,06,164,28,127,56,259,35,130,63,050,32*69

1611925552000,$BDGSV,3,1,09,205,19,124,17,210,15,056,13,211,33,082,27,220,31,292,30*6E

1611925552000,$BDGSV,3,2,09,223,75,038,32,225,27,082,26,228,09,161,30,232,30,228,39*63

1611925552000,$BDGSV,3,3,09,237,42,280,33*6B

1611925552000,$GPGSA,A,3,24,15,19,12,17,13,23,10,20,,,,1.0,0.4,0.8*30

1611925552000,$GNGSA,A,3,70,71,79,81,82,,,,,,,,1.0,0.4,0.8*2D

1611925552000,$GAGSA,A,3,107,108,127,130,,,,,,,,,1.0,0.4,0.8*27

1611925552000,$BDGSA,A,3,211,220,223,225,228,232,,,,,,,1.0,0.4,0.8*21

1611925552000,$GPRMC,130552.000,A,4540.3681,N,01156.0199,E,0.0,303.5,290121,,,A*69

1611925552000,$PSAMCLK,2142,47917000,24,9731606,1729749,479170000*73

1611925552000,$PSAMCLK,2142,47917000,24,9731606,1729749,479170000*73

1611925553000,$GPGGA,130553.000,4540.3681,N,01156.0199,E,1,23,0.4,46.2,M,47.1,M,,*61

1611925553000,$PSAMSA,130553.000,4540.3681,N,01156.0199,E,1,M,,*62

1611925553000,$GPGLL,4540.3681,N,01156.0199,E,130553.000,A,A*53

1611925553000,$GPVTG,303.5,T,,M,0.0,N,0.0,K,A*08

1611925553000,$GPGSV,3,1,09,10,16,300,32,12,44,235,38,13,29,155,33,15,52,199,42*76

1611925553000,$GPGSV,3,2,09,17,38,063,29,19,45,096,28,20,11,265,28,23,17,267,30*70

1611925553000,$GPGSV,3,3,09,24,73,312,33*42

1611925553000,$GLGSV,2,1,07,70,49,259,24,71,28,323,21,79,39,055,28,80,61,313,13*6C

1611925553000,$GLGSV,2,2,07,81,31,075,28,82,17,127,32,88,13,022,20*58

1611925553000,$GAGSV,1,1,04,107,47,198,38,108,06,164,27,127,56,259,34,130,63,050,32*66

1611925553000,$BDGSV,3,1,09,205,19,124,16,210,15,056,13,211,33,082,26,220,31,292,30*6E

1611925553000,$BDGSV,3,2,09,223,75,038,32,225,27,082,26,228,09,161,30,232,30,228,39*63

1611925553000,$BDGSV,3,3,09,237,42,280,33*6B

1611925553000,$GPGSA,A,3,24,15,19,12,17,13,23,10,20,,,,1.0,0.4,0.8*30

1611925553000,$GNGSA,A,3,70,71,79,81,82,,,,,,,,1.0,0.4,0.8*2D

1611925553000,$GAGSA,A,3,107,108,127,130,,,,,,,,,1.0,0.4,0.8*27

1611925553000,$BDGSA,A,3,211,220,223,225,232,,,,,,,,1.0,0.4,0.8*19

1611925553000,$GPRMC,130553.000,A,4540.3681,N,01156.0199,E,0.0,303.5,290121,,,A*68

1611925553000,$PSAMCLK,2142,47917100,23,9731533,1791520,479171000*7F

1611925553000,$PSAMCLK,2142,47917100,23,9731533,1791520,479171000*7F

1611925554000,$GPGGA,130554.000,4540.3681,N,01156.0199,E,1,24,0.4,46.2,M,47.1,M,,*61

1611925554000,$PSAMSA,130554.000,4540.3681,N,01156.0199,E,1,M,,*65

1611925554000,$GPGLL,4540.3681,N,01156.0199,E,130554.000,A,A*54

1611925554000,$GPVTG,303.5,T,,M,0.0,N,0.0,K,A*08

1611925554000,$GPGSV,3,1,09,10,16,300,32,12,44,235,38,13,29,155,33,15,52,199,41*75

1611925554000,$GPGSV,3,2,09,17,38,063,29,19,45,096,28,20,11,265,28,23,17,267,30*70

1611925554000,$GPGSV,3,3,09,24,73,312,33*42

1611925554000,$GLGSV,2,1,07,70,49,259,24,71,28,323,21,79,39,055,28,80,61,313,12*6D

1611925554000,$GLGSV,2,2,07,81,31,075,28,82,17,127,32,88,13,022,20*58

1611925554000,$GAGSV,1,1,04,107,47,198,38,108,06,164,27,127,56,259,34,130,63,050,32*66

1611925554000,$BDGSV,2,1,08,205,19,124,14,211,33,082,26,220,31,292,29,223,75,038,32*69

1611925554000,$BDGSV,2,2,08,225,27,082,26,228,09,161,30,232,30,228,39,237,42,280,33*62

1611925554000,$GPGSA,A,3,24,15,19,12,17,13,23,10,20,,,,1.0,0.4,0.8*30

1611925554000,$GNGSA,A,3,70,71,79,81,82,88,,,,,,,1.0,0.4,0.8*2D

1611925554000,$GAGSA,A,3,107,108,127,130,,,,,,,,,1.0,0.4,0.8*27

1611925554000,$BDGSA,A,3,211,220,223,225,232,,,,,,,,1.0,0.4,0.8*19

1611925554000,$GPRMC,130554.000,A,4540.3681,N,01156.0199,E,0.0,303.5,290121,,,A*6F

1611925554000,$PSAMCLK,2142,47917200,24,9731501,1853290,479172000*74

1611925554000,$PSAMCLK,2142,47917200,24,9731501,1853290,479172000*74

1611925555000,$GPGGA,130555.000,4540.3681,N,01156.0199,E,1,22,0.4,46.2,M,47.1,M,,*66

1611925555000,$PSAMSA,130555.000,4540.3681,N,01156.0199,E,1,M,,*64

1611925555000,$GPGLL,4540.3681,N,01156.0199,E,130555.000,A,A*55

1611925555000,$GPVTG,303.5,T,,M,0.0,N,0.0,K,A*08

1611925555000,$GPGSV,3,1,09,10,16,300,32,12,44,235,38,13,29,155,33,15,52,199,41*75

1611925555000,$GPGSV,3,2,09,17,38,063,29,19,45,096,28,20,11,265,28,23,17,267,30*70

1611925555000,$GPGSV,3,3,09,24,73,312,33*42

1611925555000,$GLGSV,2,1,06,70,49,259,24,71,28,323,21,79,39,055,28,81,31,075,27*6D

1611925555000,$GLGSV,2,2,06,82,17,127,32,88,13,022,20*6A

1611925555000,$GAGSV,1,1,04,107,47,198,38,108,06,164,27,127,56,259,34,130,63,050,31*65

1611925555000,$BDGSV,2,1,08,205,19,124,14,211,33,082,26,220,31,292,29,223,75,038,32*69

1611925555000,$BDGSV,2,2,08,225,27,082,26,228,09,161,30,232,30,228,39,237,42,280,33*62

1611925555000,$GPGSA,A,3,24,15,19,12,17,13,23,10,20,,,,1.0,0.4,0.8*30

1611925555000,$GNGSA,A,3,70,71,79,81,82,,,,,,,,1.0,0.4,0.8*2D

1611925555000,$GAGSA,A,3,107,108,127,130,,,,,,,,,1.0,0.4,0.8*27

1611925555000,$BDGSA,A,3,211,223,225,232,,,,,,,,,1.0,0.4,0.8*29

1611925555000,$GPRMC,130555.000,A,4540.3681,N,01156.0199,E,0.0,303.5,290121,,,A*6E

1611925555000,$PSAMCLK,2142,47917300,22,9731450,1915061,479173000*78

1611925555000,$PSAMCLK,2142,47917300,22,9731450,1915061,479173000*78

1611925556000,$GPGGA,130556.000,4540.3681,N,01156.0199,E,1,24,0.4,46.2,M,47.1,M,,*63

1611925556000,$PSAMSA,130556.000,4540.3681,N,01156.0199,E,1,M,,*67

1611925556000,$GPGLL,4540.3681,N,01156.0199,E,130556.000,A,A*56

1611925556000,$GPVTG,303.5,T,,M,0.0,N,0.0,K,A*08

1611925556000,$GPGSV,3,1,09,10,16,300,32,12,44,235,38,13,28,155,33,15,52,199,41*74

1611925556000,$GPGSV,3,2,09,17,38,063,29,19,45,096,28,20,11,265,28,23,17,267,30*70

1611925556000,$GPGSV,3,3,09,24,73,312,33*42

1611925556000,$GLGSV,2,1,06,70,49,259,24,71,28,323,21,79,39,055,27,81,31,075,27*62

1611925556000,$GLGSV,2,2,06,82,17,127,32,88,13,022,20*6A

1611925556000,$GAGSV,1,1,04,107,47,198,38,108,06,164,27,127,56,259,34,130,63,050,31*65

1611925556000,$BDGSV,2,1,08,205,19,124,13,211,33,082,26,220,31,292,28,223,75,038,32*6F

1611925556000,$BDGSV,2,2,08,225,27,082,26,228,09,161,30,232,30,228,39,237,42,280,32*63

1611925556000,$GPGSA,A,3,24,15,19,12,17,13,23,10,20,,,,1.0,0.4,0.8*30

1611925556000,$GNGSA,A,3,70,71,79,81,82,88,,,,,,,1.0,0.4,0.8*2D

1611925556000,$GAGSA,A,3,107,108,127,130,,,,,,,,,1.0,0.4,0.8*27

1611925556000,$BDGSA,A,3,211,220,223,225,232,,,,,,,,1.0,0.4,0.8*19

1611925556000,$GPRMC,130556.000,A,4540.3681,N,01156.0199,E,0.0,303.5,290121,,,A*6D

1611925556000,$PSAMCLK,2142,47917400,24,9731396,1976831,479174000*7B

1611925556000,$PSAMCLK,2142,47917400,24,9731396,1976831,479174000*7B

1611925557000,$GPGGA,130557.000,4540.3681,N,01156.0199,E,1,23,0.4,46.2,M,47.1,M,,*65

1611925557000,$PSAMSA,130557.000,4540.3681,N,01156.0199,E,1,M,,*66

1611925557000,$GPGLL,4540.3681,N,01156.0199,E,130557.000,A,A*57

1611925557000,$GPVTG,303.5,T,,M,0.0,N,0.0,K,A*08

1611925557000,$GPGSV,3,1,09,10,16,300,32,12,44,235,38,13,28,155,33,15,52,198,41*75

1611925557000,$GPGSV,3,2,09,17,38,063,29,19,45,096,29,20,11,265,27,23,17,267,30*7E

1611925557000,$GPGSV,3,3,09,24,73,312,33*42

1611925557000,$GLGSV,2,1,06,70,49,259,24,71,28,323,21,79,39,055,27,81,31,075,27*62

1611925557000,$GLGSV,2,2,06,82,17,127,32,88,13,022,21*6B

1611925557000,$GAGSV,1,1,04,107,47,198,38,108,06,164,27,127,56,259,34,130,63,050,31*65

1611925557000,$BDGSV,2,1,08,205,19,124,12,211,33,082,26,220,31,292,28,223,75,038,32*6E

1611925557000,$BDGSV,2,2,08,225,27,082,26,228,09,161,30,232,30,228,39,237,42,280,32*63

1611925557000,$GPGSA,A,3,24,15,19,12,17,13,23,10,20,,,,1.0,0.4,0.8*30

1611925557000,$GNGSA,A,3,70,71,79,82,88,,,,,,,,1.0,0.4,0.8*24

1611925557000,$GAGSA,A,3,107,108,127,130,,,,,,,,,1.0,0.4,0.8*27

1611925557000,$BDGSA,A,3,211,220,223,225,232,,,,,,,,1.0,0.4,0.8*19

1611925557000,$GPRMC,130557.000,A,4540.3681,N,01156.0199,E,0.0,303.5,290121,,,A*6C

1611925557000,$PSAMCLK,2142,47917500,23,9731291,2038601,479175000*77

1611925557000,$PSAMCLK,2142,47917500,23,9731291,2038601,479175000*77

1611925558000,$GPGGA,130558.000,4540.3681,N,01156.0199,E,1,24,0.4,46.2,M,47.1,M,,*6D

1611925558000,$PSAMSA,130558.000,4540.3681,N,01156.0199,E,1,M,,*69

1611925558000,$GPGLL,4540.3681,N,01156.0199,E,130558.000,A,A*58

1611925558000,$GPVTG,303.5,T,,M,0.0,N,0.0,K,A*08

1611925558000,$GPGSV,3,1,09,10,16,300,32,12,44,235,38,13,28,155,33,15,52,198,41*75

1611925558000,$GPGSV,3,2,09,17,38,063,29,19,45,096,29,20,11,265,27,23,17,267,30*7E

1611925558000,$GPGSV,3,3,09,24,73,312,33*42

1611925558000,$GLGSV,2,1,06,70,49,259,24,71,28,323,21,79,39,055,27,81,31,075,26*63

1611925558000,$GLGSV,2,2,06,82,17,127,32,88,13,022,21*6B

1611925558000,$GAGSV,1,1,04,107,47,198,38,108,06,164,27,127,56,259,34,130,63,050,31*65

1611925558000,$BDGSV,2,1,07,211,33,082,26,220,31,292,27,223,75,038,32,225,27,082,26*6B

1611925558000,$BDGSV,2,2,07,228,09,161,30,232,30,228,39,237,42,280,31*61

1611925558000,$GPGSA,A,3,24,15,19,12,17,13,23,10,20,,,,0.8,0.4,0.8*39

1611925558000,$GNGSA,A,3,70,71,79,82,88,,,,,,,,0.8,0.4,0.8*2D

1611925558000,$GAGSA,A,3,107,108,127,130,,,,,,,,,0.8,0.4,0.8*2E

1611925558000,$BDGSA,A,3,211,220,223,225,228,232,,,,,,,0.8,0.4,0.8*28

1611925558000,$GPRMC,130558.000,A,4540.3681,N,01156.0199,E,0.0,303.5,290121,,,A*63

1611925558000,$PSAMCLK,2142,47917600,24,9731193,2100370,479176000*78

1611925558000,$PSAMCLK,2142,47917600,24,9731193,2100370,479176000*78

1611925559000,$GPGGA,130559.000,4540.3681,N,01156.0199,E,1,24,0.4,46.2,M,47.1,M,,*6C

1611925559000,$PSAMSA,130559.000,4540.3681,N,01156.0199,E,1,M,,*68

1611925559000,$GPGLL,4540.3681,N,01156.0199,E,130559.000,A,A*59

1611925559000,$GPVTG,303.5,T,,M,0.0,N,0.0,K,A*08

1611925559000,$GPGSV,3,1,09,10,16,300,32,12,44,235,38,13,28,155,33,15,52,198,41*75

1611925559000,$GPGSV,3,2,09,17,38,063,29,19,45,095,29,20,11,265,27,23,17,267,30*7D

1611925559000,$GPGSV,3,3,09,24,73,312,33*42

1611925559000,$GLGSV,2,1,06,70,49,259,24,71,28,323,21,79,39,055,27,81,31,075,24*61

1611925559000,$GLGSV,2,2,06,82,17,127,32,88,13,022,21*6B

1611925559000,$GAGSV,1,1,04,107,47,198,38,108,06,164,27,127,56,259,34,130,63,050,31*65

1611925559000,$BDGSV,2,1,07,211,33,082,26,220,31,292,27,223,75,038,32,225,27,082,26*6B

1611925559000,$BDGSV,2,2,07,228,09,161,29,232,30,228,39,237,42,280,30*68

1611925559000,$GPGSA,A,3,24,15,19,12,17,13,23,10,20,,,,0.8,0.4,0.8*39

1611925559000,$GNGSA,A,3,70,71,79,82,88,,,,,,,,0.8,0.4,0.8*2D

1611925559000,$GAGSA,A,3,107,108,127,130,,,,,,,,,0.8,0.4,0.8*2E

1611925559000,$BDGSA,A,3,211,220,223,225,228,232,,,,,,,0.8,0.4,0.8*28

1611925559000,$GPRMC,130559.000,A,4540.3681,N,01156.0199,E,0.0,303.5,290121,,,A*62

1611925559000,$PSAMCLK,2142,47917700,24,9731139,2162139,479177000*73

1611925559000,$PSAMCLK,2142,47917700,24,9731139,2162139,479177000*73

1611925560000,$GPGGA,130600.000,4540.3681,N,01156.0199,E,1,23,0.4,46.2,M,47.1,M,,*64

1611925560000,$PSAMSA,130600.000,4540.3681,N,01156.0199,E,1,M,,*67

1611925560000,$GPGLL,4540.3681,N,01156.0199,E,130600.000,A,A*56

1611925560000,$GPVTG,303.5,T,,M,0.0,N,0.0,K,A*08

1611925560000,$GPGSV,3,1,09,10,16,300,32,12,44,235,38,13,28,155,34,15,52,198,41*72

1611925560000,$GPGSV,3,2,09,17,38,063,29,19,45,095,30,20,11,265,27,23,17,267,30*75

1611925560000,$GPGSV,3,3,09,24,73,312,33*42

1611925560000,$GLGSV,2,1,06,70,49,259,24,71,28,323,21,79,39,055,28,81,31,075,24*6E

1611925560000,$GLGSV,2,2,06,82,17,127,32,88,13,022,22*68

1611925560000,$GAGSV,1,1,04,107,47,198,38,108,06,164,27,127,56,259,34,130,62,050,31*64

1611925560000,$BDGSV,2,1,07,211,33,082,26,220,31,292,26,223,74,039,31,225,27,082,26*69

1611925560000,$BDGSV,2,2,07,228,09,161,29,232,30,228,38,237,42,280,30*69

1611925560000,$GPGSA,A,3,24,15,19,12,17,13,23,10,20,,,,1.0,0.4,0.8*30

1611925560000,$GNGSA,A,3,70,79,82,88,,,,,,,,,1.0,0.4,0.8*22

1611925560000,$GAGSA,A,3,107,108,127,130,,,,,,,,,1.0,0.4,0.8*27

1611925560000,$BDGSA,A,3,211,220,223,225,228,232,,,,,,,1.0,0.4,0.8*21

1611925560000,$GPRMC,130600.000,A,4540.3681,N,01156.0199,E,0.0,303.5,290121,,,A*6D

1611925560000,$PSAMCLK,2142,47917800,23,9731031,2223907,479178000*7E

1611925560000,$PSAMCLK,2142,47917800,23,9731031,2223907,479178000*7E

1611925561000,$GPGGA,130601.000,4540.3681,N,01156.0199,E,1,24,0.4,46.2,M,47.1,M,,*62

1611925561000,$PSAMSA,130601.000,4540.3681,N,01156.0199,E,1,M,,*66

1611925561000,$GPGLL,4540.3681,N,01156.0199,E,130601.000,A,A*57

1611925561000,$GPVTG,303.5,T,,M,0.0,N,0.0,K,A*08

1611925561000,$GPGSV,3,1,09,10,16,300,32,12,44,235,37,13,28,155,34,15,52,198,41*7D

1611925561000,$GPGSV,3,2,09,17,38,063,29,19,45,095,30,20,11,265,27,23,17,267,29*7D

1611925561000,$GPGSV,3,3,09,24,73,313,33*43

1611925561000,$GLGSV,2,1,06,70,49,259,24,71,28,323,21,79,39,055,28,81,31,075,24*6E

1611925561000,$GLGSV,2,2,06,82,17,127,32,88,13,022,22*68

1611925561000,$GAGSV,1,1,04,107,47,198,38,108,06,164,27,127,56,259,34,130,62,050,31*64

1611925561000,$BDGSV,2,1,07,211,33,082,26,220,31,292,26,223,74,039,31,225,26,082,26*68

1611925561000,$BDGSV,2,2,07,228,09,161,29,232,30,228,38,237,42,280,30*69

1611925561000,$GPGSA,A,3,24,15,19,12,17,13,23,10,20,,,,0.8,0.4,0.8*39

1611925561000,$GNGSA,A,3,70,71,79,82,88,,,,,,,,0.8,0.4,0.8*2D

1611925561000,$GAGSA,A,3,107,108,127,130,,,,,,,,,0.8,0.4,0.8*2E

1611925561000,$BDGSA,A,3,211,220,223,225,228,232,,,,,,,0.8,0.4,0.8*28

1611925561000,$GPRMC,130601.000,A,4540.3681,N,01156.0199,E,0.0,303.5,290121,,,A*6C

1611925561000,$PSAMCLK,2142,47917900,24,9730940,2285674,479179000*70

1611925561000,$PSAMCLK,2142,47917900,24,9730940,2285674,479179000*70

1611925562000,$GPGGA,130602.000,4540.3681,N,01156.0199,E,1,23,0.4,46.2,M,47.1,M,,*66

1611925562000,$PSAMSA,130602.000,4540.3681,N,01156.0199,E,1,M,,*65

1611925562000,$GPGLL,4540.3681,N,01156.0199,E,130602.000,A,A*54

1611925562000,$GPVTG,303.5,T,,M,0.0,N,0.0,K,A*08

1611925562000,$GPGSV,3,1,09,10,16,300,32,12,44,235,37,13,28,155,34,15,52,198,41*7D

1611925562000,$GPGSV,3,2,09,17,38,063,29,19,45,095,30,20,11,265,27,23,17,267,29*7D

1611925562000,$GPGSV,3,3,09,24,73,313,33*43

1611925562000,$GLGSV,2,1,06,70,49,259,24,71,28,323,21,79,39,055,28,81,31,075,24*6E

1611925562000,$GLGSV,2,2,06,82,17,127,32,88,13,022,22*68

1611925562000,$GAGSV,1,1,04,107,47,198,38,108,06,164,27,127,56,259,34,130,62,050,31*64

1611925562000,$BDGSV,2,1,07,211,33,082,25,220,31,292,25,223,74,039,31,225,26,082,26*68

1611925562000,$BDGSV,2,2,07,228,09,161,29,232,30,228,38,237,42,280,29*61

1611925562000,$GPGSA,A,3,24,15,19,12,17,13,23,10,20,,,,1.0,0.4,0.8*30

1611925562000,$GNGSA,A,3,70,71,79,82,88,,,,,,,,1.0,0.4,0.8*24

1611925562000,$GAGSA,A,3,107,108,127,130,,,,,,,,,1.0,0.4,0.8*27

1611925562000,$BDGSA,A,3,211,220,223,225,232,,,,,,,,1.0,0.4,0.8*19

1611925562000,$GPRMC,130602.000,A,4540.3681,N,01156.0199,E,0.0,303.5,290121,,,A*6F

1611925562000,$PSAMCLK,2142,47918000,23,9730845,2347440,479180000*79

1611925562000,$PSAMCLK,2142,47918000,23,9730845,2347440,479180000*79

1611925563000,$GPGGA,130603.000,4540.3681,N,01156.0199,E,1,24,0.4,46.2,M,47.1,M,,*60

1611925563000,$PSAMSA,130603.000,4540.3681,N,01156.0199,E,1,M,,*64

1611925563000,$GPGLL,4540.3681,N,01156.0199,E,130603.000,A,A*55

1611925563000,$GPVTG,303.5,T,,M,0.0,N,0.0,K,A*08

1611925563000,$GPGSV,3,1,09,10,16,300,32,12,44,235,38,13,28,155,34,15,52,198,41*72

1611925563000,$GPGSV,3,2,09,17,38,063,28,19,45,095,30,20,11,265,27,23,17,267,29*7C

1611925563000,$GPGSV,3,3,09,24,73,313,33*43

1611925563000,$GLGSV,2,1,06,70,49,259,24,71,28,323,22,79,39,055,28,81,31,075,24*6D

1611925563000,$GLGSV,2,2,06,82,17,127,32,88,13,022,22*68

1611925563000,$GAGSV,1,1,04,107,47,198,38,108,06,164,27,127,56,259,34,130,62,050,31*64

1611925563000,$BDGSV,2,1,07,211,33,082,25,220,31,292,25,223,74,039,31,225,26,082,26*68

1611925563000,$BDGSV,2,2,07,228,09,161,29,232,30,228,38,237,42,280,29*61

1611925563000,$GPGSA,A,3,24,15,19,12,17,13,23,10,20,,,,1.0,0.4,0.8*30

1611925563000,$GNGSA,A,3,70,71,79,81,82,88,,,,,,,1.0,0.4,0.8*2D

1611925563000,$GAGSA,A,3,107,108,127,130,,,,,,,,,1.0,0.4,0.8*27

1611925563000,$BDGSA,A,3,211,220,223,225,232,,,,,,,,1.0,0.4,0.8*19

1611925563000,$GPRMC,130603.000,A,4540.3681,N,01156.0199,E,0.0,303.5,290121,,,A*6E

1611925563000,$PSAMCLK,2142,47918100,24,9730806,2409207,479181000*71

1611925563000,$PSAMCLK,2142,47918100,24,9730806,2409207,479181000*71

1611925564000,$GPGGA,130604.000,4540.3681,N,01156.0199,E,1,23,0.4,46.2,M,47.1,M,,*60

1611925564000,$PSAMSA,130604.000,4540.3681,N,01156.0199,E,1,M,,*63

1611925564000,$GPGLL,4540.3681,N,01156.0199,E,130604.000,A,A*52

1611925564000,$GPVTG,303.5,T,,M,0.0,N,0.0,K,A*08

1611925564000,$GPGSV,3,1,09,10,16,300,31,12,44,235,38,13,28,155,34,15,52,198,41*71

1611925564000,$GPGSV,3,2,09,17,38,063,28,19,45,095,30,20,11,265,27,23,17,267,29*7C

1611925564000,$GPGSV,3,3,09,24,73,313,34*44

1611925564000,$GLGSV,2,1,06,70,49,259,24,71,28,323,22,79,39,055,28,81,31,075,24*6D

1611925564000,$GLGSV,2,2,06,82,17,127,32,88,13,022,22*68

1611925564000,$GAGSV,1,1,04,107,47,198,38,108,06,164,27,127,56,259,34,130,62,050,31*64

1611925564000,$BDGSV,2,1,07,211,33,082,25,220,31,292,25,223,74,039,31,225,26,082,26*68

1611925564000,$BDGSV,2,2,07,228,09,161,29,232,30,228,38,237,42,280,29*61

1611925564000,$GPGSA,A,3,24,15,19,12,17,13,23,10,20,,,,1.0,0.4,0.8*30

1611925564000,$GNGSA,A,3,70,79,81,82,88,,,,,,,,1.0,0.4,0.8*2B

1611925564000,$GAGSA,A,3,107,108,127,130,,,,,,,,,1.0,0.4,0.8*27

1611925564000,$BDGSA,A,3,211,220,223,225,232,,,,,,,,1.0,0.4,0.8*19

1611925564000,$GPRMC,130604.000,A,4540.3681,N,01156.0199,E,0.0,303.5,290121,,,A*69

1611925564000,$PSAMCLK,2142,47918200,23,9730739,2470972,479182000*72

1611925564000,$PSAMCLK,2142,47918200,23,9730739,2470972,479182000*72

1611925565000,$GPGGA,130605.000,4540.3681,N,01156.0199,E,1,24,0.4,46.2,M,47.1,M,,*66

1611925565000,$PSAMSA,130605.000,4540.3681,N,01156.0199,E,1,M,,*62

1611925565000,$GPGLL,4540.3681,N,01156.0199,E,130605.000,A,A*53

1611925565000,$GPVTG,303.5,T,,M,0.0,N,0.0,K,A*08

1611925565000,$GPGSV,3,1,09,10,16,300,31,12,44,235,38,13,28,155,34,15,52,198,41*71

1611925565000,$GPGSV,3,2,09,17,38,063,28,19,45,095,30,20,11,265,26,23,17,267,29*7D

1611925565000,$GPGSV,3,3,09,24,73,313,34*44

1611925565000,$GLGSV,2,1,06,70,49,259,24,71,28,323,23,79,39,055,27,81,31,075,25*62

1611925565000,$GLGSV,2,2,06,82,17,127,32,88,13,022,22*68

1611925565000,$GAGSV,1,1,04,107,47,198,38,108,06,164,27,127,56,259,34,130,62,050,31*64

1611925565000,$BDGSV,2,1,07,211,33,082,25,220,31,292,25,223,74,039,31,225,26,082,26*68

1611925565000,$BDGSV,2,2,07,228,09,161,29,232,30,228,38,237,42,280,29*61

1611925565000,$GPGSA,A,3,24,15,19,12,17,13,23,10,20,,,,1.0,0.4,0.8*30

1611925565000,$GNGSA,A,3,70,71,79,81,82,88,,,,,,,1.0,0.4,0.8*2D

1611925565000,$GAGSA,A,3,107,108,127,130,,,,,,,,,1.0,0.4,0.8*27

1611925565000,$BDGSA,A,3,211,220,223,225,232,,,,,,,,1.0,0.4,0.8*19

1611925565000,$GPRMC,130605.000,A,4540.3681,N,01156.0199,E,0.0,303.5,290121,,,A*68

1611925565000,$PSAMCLK,2142,47918300,24,9730669,2532738,479183000*76

1611925565000,$PSAMCLK,2142,47918300,24,9730669,2532738,479183000*76

1611925566000,$GPGGA,130606.000,4540.3681,N,01156.0199,E,1,24,0.4,46.2,M,47.1,M,,*65

1611925566000,$PSAMSA,130606.000,4540.3681,N,01156.0199,E,1,M,,*61

1611925566000,$GPGLL,4540.3681,N,01156.0199,E,130606.000,A,A*50

1611925566000,$GPVTG,303.5,T,,M,0.0,N,0.0,K,A*08

1611925566000,$GPGSV,3,1,09,10,16,300,31,12,44,235,38,13,28,155,34,15,52,198,41*71

1611925566000,$GPGSV,3,2,09,17,38,063,28,19,45,095,30,20,11,265,26,23,17,267,29*7D

1611925566000,$GPGSV,3,3,09,24,73,313,34*44

1611925566000,$GLGSV,2,1,06,70,49,259,24,71,28,323,23,79,39,055,27,81,31,075,25*62

1611925566000,$GLGSV,2,2,06,82,17,127,32,88,13,022,23*69

1611925566000,$GAGSV,1,1,04,107,47,198,38,108,06,164,27,127,56,259,34,130,62,050,31*64

1611925566000,$BDGSV,2,1,07,211,33,082,25,220,31,292,24,223,74,039,31,225,26,082,26*69

1611925566000,$BDGSV,2,2,07,228,09,161,29,232,30,228,38,237,42,280,29*61

1611925566000,$GPGSA,A,3,24,15,19,12,17,13,23,10,20,,,,1.0,0.4,0.8*30

1611925566000,$GNGSA,A,3,70,71,79,81,82,88,,,,,,,1.0,0.4,0.8*2D

1611925566000,$GAGSA,A,3,107,108,127,130,,,,,,,,,1.0,0.4,0.8*27

1611925566000,$BDGSA,A,3,211,220,223,225,232,,,,,,,,1.0,0.4,0.8*19

1611925566000,$GPRMC,130606.000,A,4540.3681,N,01156.0199,E,0.0,303.5,290121,,,A*6B

1611925566000,$PSAMCLK,2142,47918400,24,9730599,2594504,479184000*7B

1611925566000,$PSAMCLK,2142,47918400,24,9730599,2594504,479184000*7B

1611925567000,$GPGGA,130607.000,4540.3681,N,01156.0199,E,1,22,0.4,46.2,M,47.1,M,,*62

1611925567000,$PSAMSA,130607.000,4540.3681,N,01156.0199,E,1,M,,*60

1611925567000,$GPGLL,4540.3681,N,01156.0199,E,130607.000,A,A*51

1611925567000,$GPVTG,303.5,T,,M,0.0,N,0.0,K,A*08

1611925567000,$GPGSV,3,1,09,10,16,300,31,12,44,235,38,13,28,155,34,15,52,198,41*71

1611925567000,$GPGSV,3,2,09,17,38,063,28,19,45,095,30,20,11,265,26,23,17,267,29*7D

1611925567000,$GPGSV,3,3,09,24,73,313,34*44

1611925567000,$GLGSV,2,1,06,70,49,259,24,71,28,323,23,79,39,055,27,81,31,075,26*61

1611925567000,$GLGSV,2,2,06,82,17,127,32,88,13,022,23*69

1611925567000,$GAGSV,1,1,04,107,47,198,38,108,06,164,27,127,56,259,34,130,62,050,31*64

1611925567000,$BDGSV,2,1,07,211,33,082,25,220,31,292,24,223,74,039,31,225,26,082,26*69

1611925567000,$BDGSV,2,2,07,228,09,161,29,232,30,228,38,237,42,280,29*61

1611925567000,$GPGSA,A,3,24,15,19,12,17,13,23,10,20,,,,1.0,0.4,0.8*30

1611925567000,$GNGSA,A,3,79,81,82,88,,,,,,,,,1.0,0.4,0.8*2C

1611925567000,$GAGSA,A,3,107,108,127,130,,,,,,,,,1.0,0.4,0.8*27

1611925567000,$BDGSA,A,3,211,220,223,225,232,,,,,,,,1.0,0.4,0.8*19

1611925567000,$GPRMC,130607.000,A,4540.3681,N,01156.0199,E,0.0,303.5,290121,,,A*6A

1611925567000,$PSAMCLK,2142,47918500,22,9730539,2656268,479185000*77

1611925567000,$PSAMCLK,2142,47918500,22,9730539,2656268,479185000*77

